"SKN","Station.Name","Observer","Network","Island","ELEV.m.","LAT","LON","NCEI.id","NWS.id","NESDIS.id","SCAN.id","SMART_NODE_RF.id","X2024.08.01","X2024.08.02","X2024.08.03","X2024.08.04","X2024.08.05","X2024.08.06","X2024.08.07","X2024.08.08","X2024.08.09","X2024.08.10","X2024.08.11","X2024.08.12","X2024.08.13","X2024.08.14","X2024.08.15","X2024.08.16","X2024.08.17","X2024.08.18","X2024.08.19","X2024.08.20","X2024.08.21","X2024.08.22","X2024.08.23","X2024.08.24","X2024.08.25","X2024.08.26","X2024.08.27","X2024.08.28","X2024.08.29","X2024.08.30","X2024.08.31"
3.9,"LOWER KAHUKU CS","LOWER KAHUKU CS","RAWS","BI",953.7192,19.10083333,-155.6697222,NA,"LKHH1","32D620C2",NA,NA,3.04800000000023,6.09599999999978,16.7640000000004,4.57199999999966,0,0,0,0.254000000000133,1.26999999999998,0,3.30199999999991,1.52400000000011,3.81000000000017,0,5.0799999999997,1.52399999999989,1.52400000000011,5.33400000000029,0.253999999999678,5.33400000000029,0,0,1.26999999999998,30.9879999999998,433.324,2.53999999999996,0,10.1599999999999,0,0,0
4.15,"SOUTH POINT NEAR NAALEHU 12SSW","NWS","STATE","BI",295.78,18.9928,-155.668,NA,"SOPH1","B1507246",NA,NA,0,1.26999999999998,1.52400000000006,0.253999999999962,0,0,0,0,0,NA,0,0,0,NA,0.254000000000019,1.77799999999996,NA,0.508000000000038,0,0,0,0.254000000000019,1.77799999999996,13.716,NA,5.84199999999998,0,0,0,0,0
9.2,"Nene Cabin","Nene Cabin","RAWS","BI",1991.7737,19.2564,-155.6144,NA,"NENH1","32D64524",NA,NA,0.254000000000019,0.254000000000019,0.508000000000038,0,0,0,0,0,0.507999999999981,0,5.33399999999995,1.01600000000002,0,0,0,0,0,0,0,0,0,0,0,29.464,429.768,0.253999999999905,0,16.5100000000001,0,0,0
12.16,"Kaiholena 0231","HiMesonet","HiMesonet","BI",631,19.16877,-155.57035,NA,"018HI",NA,NA,NA,1.27,6.096,29.464,5.08,0,0,0,1.524,5.334,0,0.254,9.906,0,0,7.874,6.604,0.254,2.794,0,5.334,0,0,0,64.77,436.6768,1.778,0,16.256,0,11.684,1.778
21,"Pahala","KAU SUGAR","HydroNet-UaNet","BI",346.8624,19.2042999,-155.4872,"USC00517421","PPLH1","B16084B2",NA,NA,0,0,12.9540000000001,0.254000000000019,0,0,0,0,1.52399999999994,0.254,0,0,0,0,5.07999999999998,0,0,0,0,0,0,0,0,55.1179999999999,254.254,0,0,0.76199999999983,0.254000000000133,1.77800000000002,0.761999999999944
23,"KAHUKU","RAWS","RAWS","BI",1796.4912,19.23222222,-155.78,NA,"KRCH1","32639544",NA,NA,2.79399999999998,1.01600000000008,0,1.01599999999996,2.03200000000004,2.79399999999998,2.03200000000004,3.556,4.572,2.03200000000004,3.04799999999989,8.12800000000004,0,1.26999999999998,0,0,0,4.3180000000001,6.85799999999995,0.508000000000038,1.26999999999998,0.508000000000038,0,13.208,212.852,2.79399999999998,0.507999999999811,0,0,0,0
23.1,"Kona Hema 0243","HiMesonet","HiMesonet","BI",1283,19.2068247,-155.8109802,NA,"035HI",NA,NA,NA,3.556,2.54,0.254,4.826,3.302,3.81,3.81,4.318,5.588,0.762,2.286,4.064,0,1.778,0,0,0.762,1.778,11.43,2.286,4.064,0.508,0.254,12.446,122.4026,3.81,1.778,3.048,0.254,0,0.762
27.6,"Honaunau No. 2","NWS","HydroNet-UaNet","BI",398.0688,19.4629002,-155.8824,NA,"HAUH1","15D12742",NA,NA,2.03199999999993,5.58800000000019,4.82599999999991,1.52400000000011,27.1779999999998,10.4140000000001,7.36599999999999,1.524,5.07999999999993,2.03200000000015,0,0,5.07999999999993,6.60399999999993,0,1.77800000000002,11.4300000000001,16.0020000000001,20.5739999999998,0,11.6840000000001,1.2700000000001,0,2.03199999999993,38.0999999999999,20.066,0,0,14.732,3.30200000000013,0
29.12,"Kealakekua","NWS","HydroNet-UaNet","BI",537.972,19.5181007,-155.9159,NA,"KLEH1","81708572",NA,NA,9.14400000000001,1.01599999999996,17.5260000000002,3.30199999999979,32.2580000000002,9.39799999999991,4.572,2.28600000000006,0.76199999999983,1.77800000000002,0.254000000000133,9.90600000000006,9.90599999999995,16.2559999999999,0.254000000000133,0,8.38199999999995,18.796,6.85799999999995,2.28599999999994,26.924,1.77800000000002,0,1.77800000000002,36.576,18.5419999999999,0,0,3.30200000000013,0.253999999999905,0
34,"Kapapala Ranch","NWS","HydroNet-UaNet","BI",638.556,19.2754993,-155.4514,"USC00513300","KAYH1","B16097C4",NA,NA,0.254000000000019,1.524,14.986,0.253999999999905,0,0,0,0,1.52400000000011,0,0,0,0,0,1.524,0,0,0,0,0,0.254000000000019,0,0,27.178,327.66,0.761999999999944,0,0,1.01600000000008,1.77800000000002,1.26999999999975
36.3,"KAPAPALA RANCH","KAPAPALA RANCH","RAWS","BI",1081,19.25811,-155.441781,NA,"KPRH1","AA10E258",NA,NA,0,0,0.507999999999925,0,0,0,0,0,0.762000000000057,0,0,0,0,0,0.254000000000019,0.254000000000019,0,0,0.254000000000019,0,0,0,0,27.4319999999999,325.12,0,0,0.253999999999905,0,2.28600000000006,0.508000000000038
38.9,"KAELAKOMO","KAELAKOMO","RAWS","BI",29.5656,19.29277778,-155.1075,NA,"KMOH1","32807432",NA,NA,0,2.286,NA,0,0,0,0,0,0,0,1.52399999999994,2.286,0,0,0,0,NA,0,0,0,0,0,0,45.9739999999999,190.5,0,0,0,0,0.254000000000019,0.762000000000057
39,"Mauna Loa Observatory","NWS","ESRL/GMD","BI",3397,19.5362,-155.5763,"USC00516198","MOBH1",NA,NA,NA,0,0,0,0,0,NA,0,0,0,0,0,0,0,0,0,0,0,0,0,0,0,0,0,67.056,226.568,0,0,0,0,0,1.016
43.3,"PUHE CS","PUHE CS","RAWS","BI",34.126,20.025,-155.8211111,NA,"PHRH1","32D61558",NA,NA,2.53999999999996,4.57200000000012,23.6219999999998,3.55600000000004,5.58799999999997,5.84199999999987,0,0.762,2.28600000000029,3.04799999999977,0,0.508000000000038,0.254000000000133,0,0,0,2.03199999999993,1.52399999999989,3.048,0,1.0160000000003,1.26999999999975,0,0.762000000000171,37.0840000000001,4.31799999999976,0,0,0,0,0
47,"KEMOKU LAVA FLOW","RAWS","RAWS","BI",1706.88,19.47555556,-155.3627778,"USR0000HKEA","KKUH1","FA4447E8",NA,NA,0,0,0,0,0,0,NA,0,0,0,0,0,0,0,0,0,0,0,0,0,0,0,0,130.048,368.046,0.508000000000038,0.253999999999905,8.63600000000019,0,0,0
48,"PALI 2","RAWS","RAWS","BI",847.344,19.3175,-155.2922222,"USR0000HPAL","PLIH1","FA900222",NA,NA,0,0.254000000000019,0,0,0,0,0,0,0,0,0,0,0,0,0,0,0,0,0,0,0,0,0,48.006,262.382,0,0,0,0,3.81000000000017,0.254000000000133
54.8,"Nahuku 0201","HiMesonet","HavoNet","BI",1202,19.415215,-155.238394,NA,"004HI",NA,NA,NA,0,1.778,6.604,2.54,0.254,0.254,0,1.524,0.254,0.254,1.524,0,0.254,0,3.302,2.54,3.81,2.54,0,0.254,1.016,2.794,9.398,247.9294,360.9848,6.35,0.762,1.524,0.508,0.254,2.54
63,"KALOKO-HONOKOHAU","RAWS","RAWS","BI",7.62,19.67277778,-156.0202778,NA,"KHOH1","FA667668",NA,NA,0,0,0.253999999999991,0,0,0,0,0,0,0,0,0,0.253999999999991,0,0,0,5.84200000000001,0,0.762,0.507999999999981,8.89000000000004,0.253999999999991,0,1.77799999999999,17.78,5.334,0,0,0,0,0
64.1,"Pahoa 0204","HiMesonet","HiMesonet","BI",175,19.501169,-154.943731,NA,"047HI",NA,NA,NA,1.524,4.572,23.876,1.016,1.778,2.286,0.508,0.508,0.508,2.54,17.6276,5.08,2.032,NA,3.302,16.002,7.874,12.954,0.254,0,3.048,16.7894,17.272,166.4716,118.745,3.302,5.08,5.334,13.208,0,14.478
68.21,"KAILUA KONA KE AHOLE AIRPORT","KAILUA KONA KE AHOLE AIRPORT","NWS","BI",27,19.73556,-156.04889,"USW00021510","PHKO",NA,NA,NA,0,0,0,0,0,NA,0,0,0,0.254,0,0,0.762,0,0,0,2.794,0.508,0,0,7.112,0,0,0.254,14.224,1.778,0,0,0,0,0
68.61,"Keahuolu 0241","HiMesonet","HiMesonet","BI",537,19.668669,-155.957474,NA,"029HI",NA,NA,NA,2.032,0.254,2.032,5.08,13.97,4.826,0,0,0,6.858,0.508,4.572,7.874,3.81,0,0,3.302,4.064,14.478,21.082,7.112,0.762,0.254,6.35,25.146,17.272,0,0,3.048,0.508,0.254
69.25,"Palamanui","HiMesonet","HIPPNET","BI",264,19.73756,-155.99582,NA,"008HI",NA,NA,NA,NA,NA,NA,NA,NA,NA,NA,NA,NA,NA,NA,NA,NA,NA,NA,NA,NA,NA,NA,NA,NA,NA,NA,NA,NA,NA,NA,0,0,0,0
70.16,"Waiaha Stream","NWS","HydroNet-UaNet","BI",460.5528,19.6331997,-155.9486,NA,"WIHH1","9321011E",NA,NA,2.53999999999996,0.507999999999925,0.762000000000057,3.80999999999995,19.304,3.81000000000006,0.761999999999944,0,2.53999999999996,3.30200000000013,0.253999999999905,1.524,6.09600000000012,5.33399999999983,0,0,6.60400000000004,6.85799999999995,9.90599999999995,9.39800000000014,15.4940000000001,2.53999999999974,0.508000000000038,5.8420000000001,29.4639999999999,24.6379999999999,0.254000000000133,0,16.7639999999999,0.254000000000133,0
70.7,"Puuwaawaa","HiMesonet","HIPPNET","BI",1654,19.725393,-155.873917,NA,"010HI",NA,NA,NA,4.064,0.254,2.54,0.762,0,0,0,0,0.762,1.27,3.302,14.478,NA,NA,NA,NA,NA,NA,NA,NA,NA,NA,NA,NA,NA,NA,NA,4.572,3.048,2.286,0
75.1,"PTA KIPUKA ALALA","RAWS","RAWS","BI",1641.348,19.66694444,-155.7077778,"USR0000HPTK","PKAH1","32666200",NA,NA,1.77800000000001,0.253999999999991,1.01600000000001,0.253999999999991,0.254000000000005,0.253999999999991,0,0,0,0,0.254000000000019,0.761999999999986,0.254000000000005,0,0,0,0,0,0.254000000000005,0,0,0,0,10.922,65.786,0,1.01599999999999,6.60399999999998,1.524,25.4,0
77.11,"Kealakekua 0244","HiMesonet","HiMesonet","BI",1840,19.505859,-155.762429,NA,"050HI",NA,NA,NA,0.508,0.254,0,0,1.524,0.762,0.254,0,0,0.508,0,7.366,1.27,0,0,0,0,1.016,19.3294,0.508,1.524,0.254,0,3.302,54.102,2.54,1.016,15.24,23.1902,11.684,1.016
77.12,"Kipuka Nui 0245","HiMesonet","HiMesonet","BI",1176,19.5087559,-155.8445347,NA,"051HI",NA,NA,NA,3.302,1.016,0.254,6.604,8.89,4.826,0.762,1.016,2.794,1.778,0.254,1.27,6.096,0.254,0,0.762,5.588,2.794,9.398,2.794,3.556,2.794,0.254,3.81,38.608,10.668,0.254,6.35,0.508,0.508,0
79.6,"Kulani NWR","NWS","HydroNet-UaNet","BI",1623.3648,19.5543995,-155.3089,NA,"KNWH1",NA,NA,NA,0,0.254,1.016,0,0,0.0990474064115923,0,0,0,0,0,0,0,5.588,1.778,0.254,0,0.254,0,0,0,0.762,3.048,221.234,394.462,1.778,0.254,16.002,0.762,0,0
83,"QuarryRainGageatSaddleRd","USGS","USGS","BI",1286.256,19.68586111,-155.2942222,NA,"SDQH1","DDF6B6E4",NA,NA,0,1.77800000000002,8.12800000000004,1.01599999999996,0,0,0,0.253999999999905,0,0,6.09600000000012,2.53999999999985,0.254000000000133,2.82149534700359,7.8739999999998,2.03200000000015,2.28599999999994,2.79399999999998,0.254000000000133,0,0.254,5.334,12.954,190.754,442.976,4.82600000000002,2.03200000000004,23.3679999999999,0.254000000000019,3.30200000000002,1.01599999999996
84.1,"Piihonua 0213","HiMesonet","HiMesonet","BI",606,19.7064059,-155.1873737,NA,"040HI",NA,NA,NA,1.27,2.54,14.986,4.572,0.254,0.254,0.254,0.254,0.254,0.254,4.318,3.302,1.778,NA,8.382,3.302,12.192,5.334,0,1.016,0.508,16.002,29.7434,214.1982,480.9744,11.43,1.016,18.796,5.3848,0,5.08
85.2,"Waiakea Uka","NWS","HydroNet-UaNet","BI",303.8856,19.6585999,-155.1277,"USC00519084","WKAH1",NA,NA,NA,0,1.27,15.494,0.508,1.016,0.129903133711343,0,3.556,0,0,0,0,0,18.288,13.716,8.636,11.938,5.08,0,0.254,2.286,15.748,16.002,208.788,329.438,8.89,0.254,12.332269553213,1.778,0,6.604
87,"HILO INTERNATIONAL AIRPORT 87","NWS","HydroNet-UaNet","BI",11.6,19.7191,-155.053,"USW00021504","PHTO",NA,NA,NA,0.254,3.302,11.684,3.302,0.508,0.108174170925749,0.254,11.43,1.524,10.922,4.318,6.35,1.27,18.5279005228821,3.556,8.382,4.572,2.54,0,0.508,0.508,14.224,8.382,81.788,78.486,5.588,4.318,10.922,1.778,0,10.16
87.9,"IPIF","HiMesonet","HIPPNET","BI",112,19.69748,-155.0954,NA,"005HI",NA,NA,NA,0.0960989287114246,2.16524814064294,15.2341999390547,1.66725490076096,0.770215509674357,0.122780574096981,0.0960989287114246,6.2185535735077,0.576593572268548,4.13225393459126,1.63368178809422,2.40247321778561,0.480494643557123,21.0296621045766,7.30019662081278,8.3853213615171,10.9072481564146,3.6791308798562,0,0.616115606823549,1.60020424281098,16.0172936357651,16.4662427155056,140.742269152824,185.978522604829,5.9467108756785,1.79967953472154,8.128,1.27,0,6.858
88.8,"Waiakea Exp Farm","UNIV HAWAII","STATE","BI",183,19.644743,-155.0805636,NA,"WEXH1","CD07410A",NA,NA,0,NA,6.858,0.762,1.524,NA,0.254,1.778,NA,3.556,0.254,7.366,3.556,NA,4.318,10.16,NA,7.62,0,0,1.524,14.478,18.034,180.594,197.866,4.572,1.016,6.096,1.778,0,5.588
89.11,"Piihonua","NWS","HydroNet-UaNet","BI",296.8752,19.7098007,-155.1395,"USC00518053","PIIH1",NA,NA,NA,0,1.524,17.526,0.762,0.762,0.120914490870394,0,2.286,0,0,0,0,0,18.796,4.826,7.366,16.002,3.302,0,1.016,2.032,16.764,24.384,130.048,183.151923982932,3.048,0.254,14.224,3.302,0,6.096
89.15,"HONOLII STREAM NEAR PAPAIKOU NEAR HILO 3N ","USGS","USGS","BI",522.23157,19.7667,-155.1544,NA,"NLIH1","D114953C",NA,NA,1.01600000000008,5.08000000000015,23.1139999999998,3.048,1.26999999999998,0.761999999999944,0,2.7940000000001,0.761999999999944,NA,5.33400000000029,2.7940000000001,3.30199999999991,NA,5.33400000000006,8.63599999999997,18.288,10.6680000000001,0,0.254,6.60400000000027,17.5259999999998,30.226,191.516,300.482,13.97,2.54000000000008,19.558,5.07999999999993,0.254000000000133,8.88999999999987
91.15,"Mountain View","Mountain View","HydroNet-UaNet","BI",346.5576,19.5674992,-155.0841,NA,"MTVH1",NA,NA,NA,0,2.794,15.494,2.54,4.318,NA,0.254,3.556,0,0,0,0,0,14.478,3.556,15.24,15.748,8.636,0,0.762,0.508,13.462,26.162,236.22,300.99,9.906,1.524,8.128,2.032,0,8.128
91.9,"Pahoa Beacon","NWS","HydroNet-UaNet","BI",187.1472,19.5149994,-154.9644,NA,"PHAH1",NA,NA,NA,4.064,4.572,17.018,1.27,3.302,0.148824893532736,1.016,0.762,0,0,0,0,0,21.59,2.032,16.764,7.874,11.176,0.762,0.254,2.54,14.986,23.876,174.752,127.254,5.588,2.032,5.08,14.732,0,11.43
92.11,"Keaau 0202","HiMesonet","HiMesonet","BI",182,19.6061748,-155.0515231,NA,"033HI",NA,NA,NA,0,3.302,11.43,2.286,3.048,1.27,0,3.302,0,4.8768,4.064,4.3434,2.794,NA,3.302,15.7734,7.366,5.08,0,0,1.778,12.446,19.6088,175.9204,160.909,4.064,1.778,5.8674,1.778,0,9.7028
92.5,"KiholoRainGage","USGS","USGS","BI",283.96692,19.82580556,-155.8925833,NA,"KIRH1","DD60236E",NA,NA,0,1.01600000000001,0.254000000000005,0,0,0,0,0,0,0.762,0,1.016,0,0,0,0,0,2.032,0.508000000000001,1.016,0,0,0,0.508,29.972,0,1.77800000000001,0,0.507999999999996,9.14400000000001,0.253999999999998
93.12,"PUUANAHULU","RAWS","RAWS","BI",830.58,19.83277778,-155.7697222,NA,"PULH1","48703040",NA,NA,1.524,0,0.761999999999972,0.254000000000019,0,0,0,NA,0,0,0,1.01600000000002,0,0,0,0,NA,0.761999999999972,0,0,0,0,0,2.03200000000001,40.894,0.508000000000038,0.507999999999981,5.07999999999998,0.762000000000029,30.48,0
93.13,"Mamalahoa","HiMesonet","HIPPNET","BI",603,19.80258,-155.850629,NA,"009HI",NA,NA,NA,2.21900834488152,0,0.554752086220427,0.277376043110213,0,0,0,0,0,0,0,4.4380166897631,0,5.54752086220383,0,0,0,1.66425625866116,6.37964899153435,4.99276877598353,0,0,0.554752086220365,0.832128129330578,34.9493814318843,0.277376043110213,0.277376043110213,1.27,0.508,29.21,0
94,"KAUPULEHU LAVA FLOW","RAWS","RAWS","BI",372.1608,19.80333333,-155.9180556,NA,"KPLH1","4870E628",NA,NA,0,0,1.27000000000001,0,0,0,0,0,0,0.254000000000019,0,7.11199999999997,0,0,0,0,0,4.57200000000003,0,5.334,0,0,0.253999999999991,0,25.908,0,0.507999999999981,0,0,12.954,0
94.5,"PUU WAAWAA","RAWS","RAWS","BI",708.9648,19.795,-155.8452778,"USR0000HPUW","PWWH1","487046D0",NA,NA,2.03199999999998,0,0.508000000000038,0.254000000000019,0,0,0,0,0,0,0,4.06400000000002,0,5.07999999999998,0,0,0,1.524,5.84199999999993,4.57200000000006,0,0,0.507999999999981,0.762,32.004,0.254000000000019,0.254000000000019,1.524,1.01600000000002,17.78,0
94.6,"Kaiaulu Puu Waawaa 0242","HiMesonet","HiMesonet","BI",1161,19.77241,-155.83118,NA,"034HI",NA,NA,NA,4.064,0.254,1.524,1.016,0,0,0,0,0,0,0,3.302,0,1.27,0,0.254,0.254,2.032,0.762,0.508,0,0,2.286,1.016,32.512,0.762,1.524,19.3802,1.27,3.556,0
95.6,"WAIKOLOA","RAWS","RAWS","BI",297.7896,19.92416667,-155.7936111,NA,"WKVH1","4870C0C4",NA,NA,0.253999999999998,0.254000000000005,0,0,0,0,0,0,0,0,0,0,0,0,0,0,0,0,0.253999999999998,0,0,0,0,1.778,42.418,0,0.761999999999986,0,0,1.27000000000001,0
98.2,"PUHO CS","PUHO CS","RAWS","BI",29.5656,19.42194444,-155.9075,NA,"PERH1","32D6803A",NA,NA,0,0,0,0,NA,0,0,0,0,0,0,0,0,0,0,0,0,0,NA,0,0,0,0,0,NA,NA,0,0,0,0,0
99,"PTA WEST","RAWS","RAWS","BI",1307.592,19.77166667,-155.7022222,"USR0000HPTW","PKWH1","32667176",NA,NA,1.77799999999999,NA,2.54000000000001,0.254000000000005,0.253999999999991,0,NA,0,0,NA,0,0,0.254000000000005,NA,0,0,NA,0.253999999999991,NA,0,0,0,NA,2.794,42.672,0.254000000000019,3.04799999999997,5.84200000000001,0,0.762,0
100.3,"Waikii","Waikii","HydroNet-UaNet","BI",1417.0152,19.8614006,-155.6506,NA,"WHIH1","932127F2",NA,NA,7.61999999999998,0.507999999999981,2.54000000000005,0.253999999999962,0.254000000000019,0,0,0,0,0,0,0,0,0,0.253999999999962,0,0,0,0,0,0,0,0,11.684,49.53,0.762,2.03200000000004,10.414,0.253999999999962,12.954,0
101.1,"PTA KEAMUKU","RAWS","RAWS","BI",1025.9568,19.90222222,-155.6786111,NA,"PKMH1","328FB7BE",NA,NA,1.27,0,3.81,0.253999999999991,0,0,0,0,NA,0,0,0,0,0,0,0,0,0,0,0,0,0,0,5.58800000000001,32.004,1.77800000000002,0,0.507999999999981,0,4.82599999999999,0
102.8,"AUHMOA","RAWS","RAWS","BI",2001.9264,19.83638889,-155.6130556,NA,"AHMH1","4870D3B2",NA,NA,1.77799999999999,0,0.762,0,0,0,0,0,0,0,0,2.79399999999998,0,0,0.254000000000019,0,0,0,3.81,0.253999999999991,0,0,2.03200000000001,13.716,42.164,0.253999999999991,2.53999999999999,0.507999999999981,3.55600000000004,0.761999999999944,0
102.9,"Aipalaoa 0222","HiMesonet","HiMesonet","BI",2039,19.8541197,-155.5915919,NA,"054HI",NA,NA,NA,2.032,0,0.508,0,0,0,0,0,0,0,0,0.254,0,0,0,0,0,0,3.81,0.254,0,0,4.6228,5.588,37.3888,0,2.54,2.286,2.032,6.6802,0
105.1,"Kaluamakani 0221","HiMesonet","HiMesonet","BI",1880,19.9153271,-155.5002897,NA,"053HI",NA,NA,NA,0,0,0,0,0,0,0,0,0,0,0,2.032,0,0,0,0,0,1.016,4.064,0,0,0,0,96.3422,135.636,0,0.762,27.432,0.762,4.826,0
107.4,"PTA EAST","RAWS","RAWS","BI",1959.864,19.68277778,-155.5452778,"USR0000HPTA","PTAH1","3266D18E",NA,NA,0,0,0,0,0,0,0,0,0,0,0,0.50800000000001,0,NA,0,NA,NA,0,0,0,0,0,0.507999999999981,35.814,172.466,0.254000000000019,0,0.507999999999981,0.254000000000019,0.253999999999962,0
109,"PTA RANGE 17","RAWS","RAWS","BI",1734.312,19.74583333,-155.6261111,NA,"PTRH1","3279630C",NA,NA,0.254000000000005,0.253999999999991,0.507999999999996,0,0,0,0,0,0,0,0,0.762000000000015,0,0,0,0,0,0,0,0,0,0,0,12.446,66.294,0,0,0.507999999999981,0.50800000000001,0,0
113.2,"PUU MALI","RAWS","RAWS","BI",2165,19.92666,-155.44,NA,"PMLH1","3181742E",NA,NA,0.254000000000019,0,0,0,0,0,0,0,0,0,0,0,0,0,5.334,0,0,0,0,0,0,0,0,81.534,186.944,0,1.01599999999996,4.3180000000001,0.761999999999944,10.414,0.254000000000019
126.2,"Kanakaleonui 0211","HiMesonet","HiMesonet","BI",2352,19.845036,-155.362586,NA,"022HI",NA,NA,NA,0,0,0,0,0,0,0,0,0,0,0.254,1.27,0,0,0,0,0,0,0,0,0,0,1.27,221.5134,445.4398,0,0,14.9606,0,0,0
127.5,"Laupahoehoe","HiMesonet","HIPPNET","BI",1152,19.93217,-155.29129,NA,"007HI",NA,NA,NA,0.29537242235225,1.20256682756538,17.3513003790491,0.333340519849813,0.371308617347376,8.52791462075861,0,1.44726637189247,0.29537242235225,0.738431055880627,4.91075752406915,2.39805821960321,3.39678285705246,6.68355511225277,6.35938165516771,5.66678883744735,17.3904455832823,3.48109140967531,0,0.092827154336844,4.52759966843578,14.6009505335333,23.4092978617362,288.975131933313,251.089181345615,3.87274037280771,0.421244703002929,24.892,11.938,2.032,0
129,"HAKALAU","RAWS","RAWS","BI",1950.72,19.82111111,-155.3305556,"USR0000HHAK","HKUH1","8374D370",NA,NA,0,0,3.16773422348508,0,0,0,0,0,0,0,4.82599999999991,2.54000000000008,0,0,1.26999999999987,0,1.33967858396563,0,0,0,0,1.01599999999996,3.30200000000013,224.79,249.061558373536,0.253999999999905,0.254000000000133,16.002,0,6.85800000000017,0
132.2,"Spencer","HiMesonet","HIPPNET","BI",469,19.96358,-155.25014,NA,"006HI",NA,NA,NA,5.91136887294938,1.66139514679921,17.5787794251654,4.17758503714683,0.74539523624448,8.88145860905441,0.590749900904317,2.27852143955072,1.9976507794584,1.41270567441359,4.59766105154065,1.92767690575169,7.05965850816319,6.77117786722718,11.730124581454,11.7224243282279,17.6184378309179,4.84018771667708,4.79984294484757,2.82626242872729,5.6946134770812,24.7673108455309,31.0352743958732,204.489373889281,254.38101113444,5.29113050798032,4.37891585055428,26.67,10.922,1.524,0.254
133.3,"Laupahoehoe","NWS","HydroNet-UaNet","BI",499.872,19.9792,-155.2372,NA,"LPHH1","B159741A",NA,NA,0.507999999999811,1.27000000000044,3.55599999999959,0.253999999999905,0,0,0,0.254000000000815,0.507999999999811,1.26999999999953,2.53999999999996,1.01599999999962,5.84200000000055,0,0.762000000000626,4.3179999999993,7.11200000000008,2.79400000000078,0,0,6.34999999999945,13.9699999999993,26.1620000000003,90.6779999999999,116.840000000001,0.761999999999716,0.253999999999905,20.8279999999995,9.39800000000014,0,1.27000000000044
140.6,"Papaikou Well","NWS","HydroNet-UaNet","BI",345.6432,19.7884998,-155.1313,NA,"PPWH1",NA,NA,NA,0,7.112,20.32,0.254,1.524,NA,0,2.794,0,0,0,0,0,18.796,2.794,10.414,20.066,7.62,0,0,4.064,20.066,23.114,146.304,186.436,7.112,3.302,18.034,4.064,0,8.89
141.1,"Kulaimano 0212","HiMesonet","HiMesonet","BI",260,19.834341,-155.122435,NA,"021HI",NA,NA,NA,0,2.794,13.462,0.762,0,1.778,0,4.064,0.508,6.096,4.318,3.302,5.588,NA,3.048,11.176,11.176,6.604,0,1.016,2.794,14.732,25.908,129.9718,110.5154,3.048,3.81,8.636,9.398,0,7.62
147.2,"KOHALA RANCH","KOHALA RANCH","RAWS","BI",328.8792,20.08305556,-155.8325,NA,"KHRH1","4870B654",NA,NA,0,0,2.79400000000004,0,0,0,0,0,0,0,0,0,0,0,0,0,NA,0,0.253999999999962,0,0,0,0,3.30200000000002,32.258,0,0,0,0,4.31799999999998,0.762
160.3,"Upolu Airport","NWS","HydroNet-UaNet","BI",34,20.265,-155.8582,NA,"UPLH1","B15017A0",NA,NA,0.762000000000057,9.90599999999995,5.08,2.03200000000004,0,0,5.08000000000004,0,0.508,1.016,1.77800000000002,NA,NA,0,0.253999999999905,0.508000000000038,5.588,13.2080000000001,0.254000000000019,0,0,7.11199999999997,6.85799999999995,5.08000000000004,36.576,1.26999999999998,0,11.4299999999999,2.286,15.24,0.253999999999905
176.3,"Kahua Ranch HQ","KAHUA RANCH","HydroNet-UaNet","BI",987.552,20.1249008,-155.7884,NA,"KASH1","15D293C2",NA,NA,1.26999999999987,2.79399999999998,5.84200000000021,1.26999999999975,0,0.508000000000266,0.253999999999905,0,0.507999999999811,0.508000000000038,1.26999999999998,1.01600000000008,6.34999999999991,0,0,0,3.30200000000013,4.06400000000008,0,0,0,4.06399999999985,8.38200000000006,95.877192158905,88.3920000000001,0.254000000000133,1.26999999999998,0.761999999999944,3.30199999999991,10.6680000000001,0.253999999999905
181.3,"Kehena 0251","HiMesonet","HiMesonet","BI",1158,20.122834,-155.749329,NA,"025HI",NA,NA,NA,NA,2.794,17.526,6.35,NA,1.27,1.524,1.27,2.54,2.032,4.318,3.302,12.7,0,5.588,5.588,16.256,20.066,5.08,3.81,1.016,20.32,34.29,198.628,152.4,3.556,4.572,11.684,15.24,8.128,0.508
185.7,"KawainuiRainGagenearKamuela","USGS","USGS","BI",1237.488,20.08533333,-155.6811667,NA,"KWSH1","DDF6A592",NA,NA,19.3039999999996,1.52400000000034,33.5280000000002,13.2079999999996,1.26999999999998,29.7180000000001,2.032,2.794,5.842,2.286,10.668,4.572,12.446,0,21.336,20.574,30.988,NA,16.51,9.398,3.81,36.83,NA,253.746,218.694,5.33399999999995,14.224,NA,32.004,2.53999999999996,2.03199999999993
191.41,"Lalamilo 0252","HiMesonet","HiMesonet","BI",802,20.019528,-155.677085,NA,"027HI",NA,NA,NA,0,0,2.286,0.508,0,0.254,0,0,0.254,0,0.254,0,2.286,0,0.254,0.254,1.016,3.556,0.254,0,0,2.032,2.286,36.576,44.45,0,0.254,0.254,1.778,1.524,0
192.7,"Kamuela Upper","NWS","HydroNet-UaNet","BI",948.5376,20.0319996,-155.6667,"USC00513080","KUUH1","817075F6",NA,NA,1.52399999999989,0.762000000000171,9.39799999999991,3.048,0.507999999999811,0.508000000000266,0.253999999999905,0.761999999999944,0.762000000000171,0.253999999999905,3.30200000000013,0.253999999999905,6.85799999999995,0,6.60400000000004,3.80999999999995,9.90599999999995,11.1759999999999,5.58800000000019,2.28599999999983,0,14.732,19.8120000000001,123.444,81.788,0.254000000000133,2.03199999999993,5.58799999999997,9.65200000000004,1.26999999999998,0
201.3,"Kamuela 1","NWS","HydroNet-UaNet","BI",877.824,20.0394993,-155.6084,NA,"KMUH1","81706680",NA,NA,3.30200000000001,0,4.82599999999999,1.524,0,0.254000000000005,0,0.254000000000005,0.507999999999996,0,1.01600000000001,0,7.36599999999999,0,2.54000000000001,5.58799999999999,3.30200000000001,2.794,3.81,2.53999999999999,0,5.08,4.06400000000001,78.994,81.026,0.507999999999981,2.03200000000004,5.84199999999998,8.88999999999999,2.54000000000002,0
215.5,"Honokaa","NWS","HydroNet-UaNet","BI",591.9216,20.0656,-155.49,NA,"HNKH1","B15047DC",NA,NA,2.286,0,4.826,0,0,0,0,0,1.27,0.254000000000001,0,0,NA,NA,NA,NA,1.27,0.508,0.254,0,0,7.874,11.938,117.348,142.494,0,7.11199999999997,6.858,12.954,6.60399999999998,0.254000000000019
250.2,"Ulupalakua Ranch","NWS","HydroNet-UaNet","MA",581.5584,20.6487999,-156.3981,NA,"ULUH1","8170531A",NA,NA,0,3.048,7.61999999999989,0.254000000000133,0,0,0,0,2.28599999999983,2.7940000000001,0.254000000000133,4.57199999999989,0,0.761999999999944,0,0.254000000000133,0,1.26999999999998,1.01599999999985,0,0,0,0,0,11.1760000000002,0,0,0.507999999999811,2.28600000000029,18.0339999999999,0.761999999999944
254.11,"Kahikinui 0144","HiMesonet","HiMesonet","MA",713,20.633945,-156.273889,NA,"019HI",NA,NA,NA,0,3.556,0.254,0,0,0,0,0,0,0,0,0,0,0,0,0,0,0,0,1.27,0,0,NA,0,19.304,0,0,0,0.762,1.27,0
254.12,"Upper Kahikinui 0145","HiMesonet","HiMesonet","MA",1034,20.644215,-156.284703,NA,"032HI",NA,NA,NA,0,7.62,2.032,0,0,0,0,0,0,0,0,0.508,0,0,0,0,0,0,0.762,2.54,0,0,NA,0,27.178,0,0,0,1.524,3.302,1.778
255,"KepuniGulchRainGage","USGS","USGS","MA",225.552,20.6195,-156.2518889,NA,"KPNH1","F000D4EA",NA,NA,0,0.254,0,0,0,0,0,0,0,0,0,0,0,0,0,0,0,0,0,0,0,0,0,0,16.002,0,0,0,3.302,1.778,0.254000000000001
258.7,"Kipahulu VC 0166","HiMesonet","HiMesonet","MA",29,20.661092,-156.044767,NA,"052HI",NA,NA,NA,0,5.842,5.588,2.286,2.032,0.508,0,0.762,1.016,0.762,1.016,13.3096,2.032,0,1.27,1.27,7.366,10.922,7.62,1.778,0.762,6.604,11.176,11.176,23.622,0,1.016,7.62,10.16,20.5994,4.064
260.3,"Lipoa 0121","HiMesonet","HiMesonet","MA",88,20.7458333,-156.4305556,NA,"039HI",NA,NA,NA,0,0,0,0,0,0,0,0,0,0,0,0,0,0,0,0,0,0,0,0,0,0,0,0,6.604,0,0,4.9022,0,12.2174,0
266,"KAUPO GAP","RAWS","RAWS","MA",1228.344,20.68416667,-156.1519444,"USR0000HKAU","KPGH1","FA45A6E0",NA,NA,0,0,0,0,0,0,0,0,0,0,0,0,0,0,0,0,0,0,0,0,0,0,0,0,114.840318167839,0,0,0,0.253999999999962,0.254000000000019,0
267.11,"Keokea 0116","HiMesonet","HiMesonet","MA",871,20.7067,-156.3554,NA,"016HI",NA,NA,NA,5.334,3.302,9.906,0,0,0,0,0,0,0,0,0,0,0.508,0,0,0,0,0,0,0,0,0,0,6.096,0,0,0.762,0,14.224,0
267.8,"KULA 1","KULA 1","RAWS","MA",1998.5736,20.68305556,-156.3216667,NA,"KLFH1","AA10F12E",NA,NA,0.761999999999944,0.254000000000019,0.254000000000019,0,0,0,0,0,0,0,0,1.26999999999987,0,0.254000000000133,0,0,0,0,0,0,0,0,0,0.761999999999944,24.384,0,0,1.26999999999998,0.254000000000019,14.2239999999999,0
297.1,"Olowalu 0132","HiMesonet","HiMesonet","MA",54,20.82078,-156.6152,NA,"055HI",NA,NA,NA,0,0,0,0,0,0,0,0,0,0,0,0,0,0,0,0,0,0,0,0,0,0,0,4.064,14.986,0,0,0.762,0,4.318,0
302,"MAALAEA BAY","NWS","STATE","MA",302,20.7903,-156.514,NA,"P36","15DF05C6",NA,NA,0,0,0,0,0,0,0,0,0,0,0,0,0,0,0,0,0,0,0,0,NA,NA,NA,NA,NA,NA,NA,NA,NA,NA,NA
311.2,"Kealia Pond NWR","Kealia Pond NWR","RAWS","MA",3.6576,20.7975,-156.4772222,NA,"KPDH1","32B2C438",NA,NA,0,0,0,0,0,0,0,0,0,0,0,0,0,0,0,0,0,0,0,0,0,0,0,0,6.85800000000003,0,0,0,0,13.716,0
311.5,"Kihei 2","NWS","HydroNet-UaNet","MA",54.5592,20.7061005,-156.437,NA,"KHIH1","93202508",NA,NA,0,0,0,0,0,0,0,0,0,0,0,0,0,0,0,0,0,0,0,0,0,0,0,0,4.82599999999996,0,0,0.762000000000057,0,12.954,0
322.2,"Pulehu 0118","HiMesonet","HiMesonet","MA",427,20.79532,-156.35991,NA,"042HI",NA,NA,NA,0,0.508,0,0,0,0,0,0,0,0,0,0,0,0,0,0,0,0,0,0,0,0,0,5.842,4.318,0,0,0,0,14.7066,0
324.6,"KULA AG HN-119","HiMesonet","HaleNet","MA",964,20.757889,-156.320028,NA,"001HI",NA,NA,NA,0.254,0,0,0,0,0,0,0,0,0.762,0,0,0,0,0,0,0,0,0,0,0,0,0,2.15364962224917,6.46094886674895,0.269206202780604,0,0,0,24.638,0
324.7,"Kula Branch Stn","NWS","HydroNet-UaNet","MA",944.88,20.7577991,-156.3217,"USC00515000","KBSH1","93220610",NA,NA,3.30200000000013,1.7780000000007,1.77799999999979,0,0,0,0,0,0,0.761999999999716,0,0,0,0,0,0,0,0,0,0,0,0,0,2.0319999999997,6.09600000000046,0.253999999999451,0,0,0,26.1620000000003,0
339.4,"PARK HQ HN-151","HiMesonet","HaleNet","MA",2114,20.759806,-156.248167,NA,"002HI",NA,NA,NA,0,0,0,0,0,0,0,0,0,0,0,0,0,0,0.254,0,0,0,0.508,0,0,0.508,0,71.628,55.88,0,0,0.762,2.794,43.942,0
339.5,"NENE NEST HN-152","HiMesonet","HaleNet","MA",2593,20.738194,-156.245833,NA,"013HI",NA,NA,NA,0,0,0,0,0,0,0,0,0,0,0,0,0,0,0,0,0,0,0.134825770480136,0,0,0.134825770480136,0,27.1496234274606,54.0351631948944,0,0,2.032,3.81,24.384,0
339.6,"SUMMIT HN-153","HiMesonet","HaleNet","MA",2984,20.710361,-156.25675,NA,"003HI",NA,NA,NA,0,0,0,0,0,0,0,0,0,0,0,0,0,0,0,0,0,0,0,0,0,0,0,26.924,70.104,0,0,0.762,3.048,14.478,0
341.7,"WAIKAMOI HN-142","HiMesonet","HaleNet","MA",1935,20.773636,-156.222311,NA,"020HI",NA,NA,NA,1.778,3.81,0,0,0,0,0,0,0,1.27,1.524,5.334,2.54,0.254,13.2588,0.254,0,8.128,17.272,0.508,0,9.398,26.9494,132.6642,104.9528,0.254,0,6.8834,18.9484,73.3552,1.524
348.5,"WestWailuaikiRainGagenrKeanae","USGS","USGS","MA",472.44,20.81436111,-156.1429722,NA,"WWKH1","DD5E710A",NA,NA,1.01600000000001,3.30199999999999,20.32,0.762,0.507999999999996,1.01600000000001,0.507999999999996,0.762,3.30200000000001,5.07999999999998,4.06400000000001,19.304,19.05,3.30199999999999,5.58800000000002,4.31799999999998,27.94,41.91,44.958,6.858,3.55600000000004,38.354,69.342,77.978,133.096,11.1759999999999,3.81000000000006,31.8236540277172,29.4639999999999,59.6900000000001,0.254000000000019
353,"Hana AP","NWS","HydroNet-UaNet","MA",19,20.7946,-156.0157,"USC00511125","HNAH1","B150314C",NA,NA,0,3.04800000000012,1.016,0,0,2.03200000000004,0.761999999999944,0,0,0.762,0.507999999999925,5.84199999999998,2.28600000000006,0,5.08000000000015,3.04799999999989,4.31799999999998,6.35000000000002,8.12799999999993,2.79399999999998,1.52400000000011,6.096,9.39800000000002,4.06399999999996,12.446,0,0,8.38200000000006,6.35,27.9400000000001,2.03199999999993
361.1,"Lahainaluna","NWS","HydroNet-UaNet","MA",238.0488,20.8909,-156.6556,NA,"LAHH1","81700366",NA,NA,0.761999999999716,0,0,0,0,0,0,0,0,0,0,0,0,0,0,0,0,0,0.253999999999905,0.25400000000036,0,0,0,3.30199999999968,6.85800000000017,0,0,0,0,5.58800000000019,0
361.3,"Lahaina WTP 0131","HiMesonet","HiMesonet","MA",244,20.89072,-156.65493,NA,"036HI",NA,NA,NA,1.27,0,0,0,0,0,0,0,0,0,0,0,0,0,0,0,0,0,0.508,0,0,0,0,3.048,6.858,0,0,0,0,5.334,0
380,"PuuKukuiRainGageatalt","BALDWIN PKRS","USGS","MA",1759,20.89083333,-156.6008333,"USC00514887","PKKH1","DD73556E",NA,NA,0.253999999999905,4.82600000000002,5.08000000000038,0.253999999999905,0.659228081098663,0.762000000000171,0.258679674151218,1.26999999999998,4.06399999999985,3.556,5.8420000000001,14.9859999999999,12.7000000000003,0.253999999999451,6.35000000000036,0.253999999999905,1.52400000000034,10.4139999999998,20.828,4.31799999999976,3.30200000000013,25.1460000000002,51.7322602064855,57.7320082948459,125.0524968211,10.6978079181694,3.14174277697651,28.8394853002139,41.2393417558264,49.6211852462442,0.730162447496699
386.6,"Wailuku","NWS","HydroNet-UaNet","MA",146.9136,20.8831005,-156.5124,NA,"WUKH1","9321D776",NA,NA,0,1.01599999999999,4.31800000000001,0.50800000000001,0,0,0,0,0,0,0,0,0,0,0,0,0,0,0,0,0,1.524,4.31799999999998,4.06399999999999,19.558,0,0,4.31800000000001,6.60400000000001,20.32,0
390.4,"Waikapu Country Club","NWS","HydroNet-UaNet","MA",145.9992,20.8346996,-156.5135,NA,"WCCH1","9320E016",NA,NA,0,2.28600000000006,0.253999999999905,0,0,0,0,0,0,0,0,0,0.253999999999905,0,0,0,0,0,0,0,0,0,1.52400000000034,1.26999999999998,14.732,0,0,0.761999999999716,3.30200000000013,18.0340000000001,0
398,"KAHULUI AIRPORT","NOAA-NWS","NWS","MA",12,20.8887,-156.436,"USW00022516","PHOG",NA,NA,NA,0,0,0,0,0,NA,0,0,0,0,0,0,0.762,0,0,0,0,0,0,0,0,2.54,2.794,3.048,8.636,0,0,1.27,4.826,17.272,0
434.11,"Piiholo 0115","HiMesonet","HiMesonet","MA",637,20.8415,-156.2948,NA,"017HI",NA,NA,NA,0,8.128,0.254,0,0,0,0,0,0,0,0,1.016,4.826,0,3.048,0.254,0,0.762,0.508,0.254,0,6.35,10.668,79.1718,56.134,0,0,3.556,9.8806,53.4924,0.762
446.2,"EMI Base Yard 0155","HiMesonet","HiMesonet","MA",210,20.890997,-156.212316,NA,"048HI",NA,NA,NA,2.286,11.176,8.382,0,0.254,2.032,0.762,0,0.254,1.524,4.064,8.89,5.08,0.508,1.778,3.048,10.16,13.208,17.272,3.556,0.254,7.62,33.8074,14.986,34.798,5.842,2.794,19.8374,26.162,68.0466,3.048
465.1,"Mahinahina","NWS","HydroNet-UaNet","MA",223.1136,20.9552002,-156.6562,NA,"MABH1","190524C8",NA,NA,0.254,NA,8.128,0,0,NA,0,0,0.508,1.27,0.254,0.254,0.254,0,0,0,2.54,4.826,4.572,0.254,0,1.778,4.318,6.858,26.67,0,0,10.668,3.048,18.034,0
480.1,"Honokohau Stream near Honokohau","USGS","USGS","MA",271.5,20.959694,-156.587056,NA,"HKSH1","D110B6EA",NA,NA,2.28600000000006,27.4319999999998,31.242,0.508000000000038,0.254000000000133,1.77800000000002,0,0,1.77799999999979,0.254000000000133,4.06400000000008,6.34999999999991,1.26999999999998,0.761999999999944,26.162,2.54000000000019,9.90599999999995,23.3679999999997,NA,14.2240000000002,0,15.2399999999998,22.0980000000002,30.2259999999999,117.856,1.77800000000002,2.53999999999996,53.8480000000002,23.876,46.7359999999996,1.27000000000044
482.5,"Kahakuloa","Kahakuloa","HydroNet-UaNet","MA",335.28,20.9540997,-156.5342,NA,"KHKH1","781001B6",NA,NA,0,2.28600000000006,3.30199999999991,0,0,0,0,0,0.762000000000057,0,3.04799999999989,0.254000000000133,0.254000000000019,0.253999999999905,0,0,2.28600000000006,2.79399999999998,1.01600000000008,0.507999999999925,0,4.572,7.11199999999997,15.24,31.496,0.762000000000057,0,50.5459999999999,9.90599999999995,44.704,0
489,"Haiku","NWS","HydroNet-UaNet","MA",99.3648,20.9288998,-156.3225,"USC00510822","AIKH1","50A30568",NA,NA,1.2700000000001,4.82600000000002,4.06399999999996,0,0,1.01599999999996,0,0.508000000000038,0.761999999999944,2.53999999999996,0.762000000000057,4.31799999999998,1.524,0,0.254000000000019,0,5.84199999999998,6.60400000000004,11.684,1.77799999999991,0,5.08000000000015,13.208,16.764,32.2579999999999,0.254000000000019,1.01599999999996,11.938,13.462,33.2740000000001,0
524,"MOLOKAI KAUNAKAKAI MOLOKAI AIRPORT","ALOHA AIRLINES","NWS","MO",141,21.15514996,-157.0924625,"USW00022534","PHMK",NA,NA,NA,0,1.016,0,0,0,NA,0,0,0,0,0.762,0,0,0,0,0,0.254,0.508,0,0,0,0,0.254,1.016,7.62,NA,0,1.778,1.27,1.016,0.254
536.5,"Kaunakakai Mauka","MOLOKAI GEN HOSP","HydroNet-UaNet","MO",28.3464,21.0946007,-157.0174,NA,"KACH1","50A0F2E2",NA,NA,0,0.762000000000057,0.253999999999905,0,0,0,0,0,0,0,0,0,0,0,0,0,0,0,0,0,0,0,0,0,0.762000000000057,0,0,0,0,0.253999999999905,0
538,"MOLOKAI 1","RAWS","RAWS","MO",833.0184,21.115,-156.9475,"USR0000HMLK","MLKH1","487016AC",NA,NA,0,8.63599999999997,0.762000000000057,0,0,0,0,0,0,0.253999999999905,0,0,0.254000000000133,NA,0,0,0,0.507999999999925,1.2700000000001,0,0,0,0.507999999999925,5.33400000000006,16.2559999999999,0,0,1.01600000000008,4.06400000000008,5.07999999999993,0
541.2,"Puu ALII WEST","Puu ALII WEST","RAWS","MO",1159.764,21.14083333,-156.9022222,NA,"PAFH1","32D6062E",NA,NA,0,8.63600000000008,14.478,1.01599999999996,0.508000000000038,3.55599999999993,0,0.508000000000038,1.01599999999996,3.30200000000013,1.77799999999991,6.35000000000002,2.79399999999998,0.254000000000019,3.81000000000006,4.06399999999996,9.39799999999991,11.176,16.256,2.79399999999998,0,7.11200000000008,20.828,22.86,72.644,6.34999999999991,1.52400000000011,18.288,33.274,24.3839999999999,0.761999999999944
542.11,"Kamalo","NWS","HydroNet-UaNet","MO",8.8392,21.052,-156.871,"USC00513045","KMLH1","50A0D40E",NA,NA,0,0.762,1.01600000000002,0,0.253999999999962,0.507999999999981,0,0.762,0.254000000000019,0.507999999999981,1.01600000000002,1.524,0,1.01599999999996,0.508000000000038,1.01599999999996,1.27000000000004,2.03199999999998,3.048,1.01599999999996,0,0.508000000000038,0.762,0,11.938,1.77800000000002,0,1.524,2.53999999999996,2.28600000000006,1.01599999999996
550.4,"Anapuka 0431","HiMesonet","HiMesonet","MO",68,21.215984,-157.241786,NA,"045HI",NA,NA,NA,0,0,0,0,0,0,0,0,0.508,0,2.5654,0,0,0,0,0,0.762,0.762,2.286,0.508,0,0,0.254,0.254,3.048,0,0,2.794,0.762,4.318,0.254
553,"MAKAPULAPAI","RAWS","RAWS","MO",22.86,21.20333333,-156.9661111,"USR0000HMAK","MKPH1","FA9024CE",NA,NA,0,0.508000000000038,3.048,0,0,0,0,0,1.26999999999998,0.253999999999905,0.254000000000133,0.761999999999944,0,0,0.254000000000019,0,1.52399999999989,2.54000000000008,1.26999999999998,0.761999999999944,0,0.254000000000133,1.26999999999998,0,2.53999999999996,0.254000000000019,2.28599999999994,13.716,5.84199999999998,1.2700000000001,0
598.2,"Honolimaloo 0412","HiMesonet","HiMesonet","MO",402,21.131411,-156.758626,NA,"031HI",NA,NA,NA,0,7.366,11.684,0,0.762,0.254,0,1.524,0.508,0,1.524,4.1148,1.524,0.254,3.048,5.3594,4.8514,5.842,12.7762,2.032,0,4.3434,5.1054,1.27,12.192,0.508,0,33.5788,12.7508,13.7668,3.8354
656,"LANAI AIRPORT 656","HAWN AIRLINES","NWS","LA",396.2,20.7882389,-156.946639,"USC00515275","PHNY",NA,NA,NA,0,0,0,0,0,NA,0,0,0,0,0,0.254,0,0,0,0,0,0,0,0,0,0,0,0,5.334,0.762,0,0,0,0.254,0
672.1,"Lanai City","NWS","HydroNet-UaNet","LA",498.0432,20.8262997,-156.9182,"USC00515286","LANH1","50A2F716",NA,NA,0,3.55599999999998,3.30200000000002,0,0.254000000000019,0,0,0,0,0,0,0,0,0,0,0,0.254000000000019,0.761999999999944,6.09600000000006,1.77800000000002,0,0,0,0,8.88999999999993,0,0,18.2880000000001,0,22.3519999999999,0.508000000000038
679,"LANAI 1","RAWS","RAWS","LA",387.096,20.87333333,-157.0063889,"USR0000HLAN","LNIH1","48702336",NA,NA,0,1.524,6.60399999999998,0,0,0,0,0,0,0,0,0,0,NA,0,0,0,0,2.03199999999998,0.508000000000038,0,0,0.253999999999962,0,6.60399999999998,0,0,2.79400000000004,0,0.507999999999981,0.507999999999981
702.7,"Kapolei-Kalaeloa AP","NWS","NWS","OA",15,21.31667,-158.06667,"USW00022551","PHJR",NA,NA,NA,0,0,0,0,0,0,0,0,0,0.254,1.016,0,0,0,0,0,0,0,0,0,0,0,0,0,0.508,3.81,0,0,0,11.176,0
702.8,"PTWC","NWS","HydroNet-UaNet","OA",1.524,21.3150005,-157.9992,NA,"PTWH1",NA,NA,NA,0,0,0,0,0,0,0,0,0,0,0,0,0,1.778,0,0,0,0,0,0,0,0,0,0,0,2.54,0,0.508,0.254,0.254,0
703,"HONOLULU INTERNATIONAL AIRPORT","USWB","NWS","OA",2.1,21.324,-157.9294,"USW00022521","PHNL",NA,NA,NA,0,0,0,0,0,NA,0,0,0,0.254,0.254,0,0,0,0,0,0.254,0,0,0,0,0,0,0.254,0,0.508,0,0.508,1.27,0.254,0.254
721.4,"Palolo Fire Stn","NWS","HydroNet-UaNet","OA",59.436,21.2996006,-157.7944,"USC00517662","PFSH1","19014414",NA,NA,0,0,1.26999999999998,0,0,0.508000000000038,0,0,0,0,5.84199999999993,0.254000000000076,0.761999999999944,1.01600000000002,1.26999999999998,1.77800000000002,0.507999999999981,1.27000000000004,2.53999999999996,0.507999999999981,0,NA,NA,NA,NA,NA,NA,NA,NA,9.84267581983122,NA
723.8,"Niu Valley","NWS","HydroNet-UaNet","OA",19.812,21.2896996,-157.7332,"USC00516865","NIUH1","1900D38C",NA,NA,0,1.52399999999989,2.28600000000029,0,0,1.01599999999985,0,0,0.253999999999905,0,4.31800000000021,2.03199999999993,2.53999999999996,0.761999999999944,0.761999999999944,1.52400000000011,0.253999999999905,3.81000000000017,2.79399999999987,0,0,0,0.762000000000171,1.77799999999979,5.33400000000006,0.761999999999944,0,2.28600000000006,7.11200000000008,15.748,0
724.21,"Kamehame","NWS","HydroNet-UaNet","OA",242.316,21.3085995,-157.6791,NA,"KMHH1","190046EE",NA,NA,0,2.79399999999998,2.79400000000004,0,0,0.254000000000019,0,0,0,0,2.286,0.253999999999962,0.254000000000019,0,0,0.254000000000019,0,3.81,1.77799999999996,0,0,0,0,0,1.52400000000006,0.253999999999962,0,2.54000000000002,4.06399999999996,9.39800000000002,0.253999999999962
724.22,"Hawaii Kai Golf Course","NWS","HydroNet-UaNet","OA",8.8392,21.2991009,-157.6644,NA,"HAJH1","183024DA",NA,NA,0,0,2.794,0,0,0.507999999999996,0,0,0,0,2.286,0,0,0,0,0,0,1.27,1.27,0,0,0,0,0,1.016,0.254000000000001,0,1.778,4.064,2.54,0.253999999999998
728.2,"PALEHUA","RAWS","RAWS","OA",722.376,21.385,-158.1041667,NA,"PLHH1","4870F55E",NA,NA,0,0,4.82599999999991,0,0,0,0,0,0,0.254000000000019,1.524,0.507999999999925,1.01600000000008,0,0,1.01599999999996,0.761999999999944,0.762000000000057,0.762000000000057,1.77800000000002,0,0.507999999999925,1.524,0.508000000000038,4.572,5.33399999999995,0.508000000000038,3.048,1.01599999999996,17.018,4.3180000000001
740.5,"Kunia","NWS","HydroNet-UaNet","OA",85.0392,21.3869991,-158.0358,NA,"KUNH1",NA,NA,NA,0,1.016,3.302,0,0,0,0,0,0,0,0,0,0,0.508,0,0.254,0,0,0,0.254,0,0,0,0.762,2.286,2.032,0.762,1.524,6.096,27.178,3.048
742.4,"HONOULIULI PHB","FWS","RAWS","OA",1.524,21.35666667,-158.0205556,NA,"HOFH1","327BF39A",NA,NA,0,0.254000000000133,0.254000000000019,0,0,0,0,0,0.253999999999905,0,0,0,0,0,0,0,0,0,0,0,0,0,0,0,1.01599999999996,1.77800000000002,0,0.762000000000057,1.26999999999987,4.82600000000014,1.01599999999996
772.3,"MoanaluaRGNo.1atalt1000","USGS","USGS","OA",304.8,21.39338889,-157.8401111,NA,"MOGH1","1689664A",NA,NA,0.508,17.018,27.178,0.762,1.00502864349437,0.435871935079964,0,0.508,0.762,3.556,7.874,6.604,2.032,2.54,1.27,6.096,2.286,9.652,9.144,9.398,0.254,2.286,9.144,9.906,18.542,15.748,3.302,26.416,16.256,6.35,0.762
772.5,"Moanalua Stream","USGS","HydroNet-UaNet","OA",72.2376,21.3736,-157.8801,"USC00516400","MOAH1","1900B66A",NA,NA,0.254000000000019,0,5.33399999999995,0,0,2.28600000000017,0,0,0.253999999999905,6.60399999999993,8.8900000000001,6.34999999999991,5.84199999999998,1.01600000000019,1.01599999999996,1.26999999999987,0.254000000000019,3.04800000000012,1.01599999999996,1.77800000000002,0,0.253999999999905,3.80999999999995,4.82600000000014,16.2560000000001,7.11199999999985,2.03200000000015,6.85799999999972,12.954,4.06400000000008,0
775.11,"Nuuanu Res1 0502","HiMesonet","HiMesonet","OA",117,21.339124,-157.836859,NA,"012HI",NA,NA,NA,0.254,1.016,5.08,0,0,1.524,0,0,0.508,5.08,9.398,9.144,1.778,0.254,0.762,2.032,0.762,3.302,2.286,1.524,0,0.508,5.334,3.556,9.906,3.81,0,5.334,11.7094,2.794,1.524
775.12,"Upper Waolani 0503","HiMesonet","HiMesonet","OA",202,21.34666,-157.83641,NA,"037HI",NA,NA,NA,0.254,0.762,5.842,0.254,0.508,2.032,0,0.508,0.508,10.16,11.43,10.922,7.62,0,1.27,2.794,1.778,4.318,2.54,1.524,0,0.762,5.334,5.334,21.336,5.08,0,8.382,19.558,4.826,1.778
775.13,"Waolani 0504","HiMesonet","HiMesonet","OA",98,21.33756,-157.84092,NA,"038HI",NA,NA,NA,0.254,1.27,6.35,0,0.254,1.778,0,0,0.508,6.096,9.398,9.652,2.54,0.254,1.27,2.032,0.762,3.048,1.524,1.016,0,0.508,5.334,4.318,15.494,4.572,0,4.064,12.954,3.302,2.286
775.14,"Napuumaia 0505","HiMesonet","HiMesonet","OA",508,21.35489,-157.83063,NA,"041HI",NA,NA,NA,0.508,2.54,6.858,0.508,0,2.032,0,0,0.508,16.002,8.636,12.192,6.35,1.016,2.794,6.604,4.064,7.874,6.604,2.794,0,2.794,7.62,9.652,28.956,5.842,1.016,9.652,29.21,5.588,0.254
781.12,"Luluku","NWS","HydroNet-UaNet","OA",84.1248,21.3875008,-157.8099,NA,"LULH1","93215162",NA,NA,0.254000000000133,8.12800000000016,10.4139999999998,1.52400000000011,0.508000000000038,1.01599999999985,0,0,0,0,2.53999999999996,3.55600000000004,2.7940000000001,0,0.254000000000133,3.80999999999995,3.048,6.096,5.58799999999997,4.06399999999985,0,2.03200000000015,4.31799999999976,5.33400000000006,5.8420000000001,7.87400000000002,2.7940000000001,26.6699999999998,13.4620000000002,4.31799999999998,0
784.11,"Kalawahine 0506","HiMesonet","HiMesonet","OA",506,21.34522,-157.80556,NA,"046HI",NA,NA,NA,0.508,5.842,20.574,0.508,1.016,3.81,0,0.254,0.762,4.318,16.51,6.858,1.524,0.762,4.318,9.398,3.048,7.874,9.398,7.874,0,2.286,6.35,5.842,17.272,11.684,0.254,20.066,30.48,9.398,0
785.12,"Lyon 0501","HiMesonet","HiMesonet","OA",151,21.333,-157.8025,NA,"011HI",NA,NA,NA,0.254,4.826,12.446,0,2.032,2.794,0,0.762,2.286,4.826,15.24,7.874,5.588,2.286,7.112,15.748,3.556,15.24,15.748,5.08,0.254,4.064,19.558,11.684,44.45,7.366,1.27,22.352,36.068,7.62,0.254
785.4,"Manoa Lyon Arbo","NWS","HydroNet-UaNet","OA",151.7904,21.3330002,-157.8024,"USC00516128","MNLH1",NA,NA,NA,0.508,5.08,13.97,0,2.286,NA,0.254,1.016,0,0,NA,0,0,NA,7.874,18.034,4.318,16.002,2.54,5.334,0.508,4.826,14.732,6.858,20.828,3.556,0,14.478,7.112,NA,0.254
787.2,"Maunawili","NWS","HydroNet-UaNet","OA",127.1016,21.3509998,-157.7668,NA,"MAUH1","19007374",NA,NA,0,13.2080000000001,13.9699999999998,0.762000000000171,0.761999999999944,0.762000000000171,0,0.508000000000038,0.507999999999811,3.80999999999995,10.6680000000001,2.53999999999996,0.762000000000171,1.52399999999989,2.53999999999996,7.11200000000008,2.28600000000006,10.4139999999998,4.57200000000012,0.761999999999944,0,1.26999999999998,2.7940000000001,5.58799999999997,9.65200000000004,3.30199999999991,1.26999999999998,13.7159999999999,15.2400000000002,17.0179999999998,0.761999999999944
788.2,"St Stephens Seminary","NWS","HydroNet-UaNet","OA",142.9512,21.3666992,-157.7786,NA,"STVH1","19005598",NA,NA,0,9.14400000000001,16.002,0.762000000000171,0.507999999999811,1.27000000000021,0,0.507999999999811,0.761999999999944,0.253999999999905,4.82600000000025,5.84199999999987,2.28599999999983,1.27000000000021,0.761999999999944,3.55600000000004,2.03199999999993,5.8420000000001,5.33400000000006,3.30199999999991,0,0.254000000000133,1.52399999999966,3.55600000000004,5.08000000000015,2.28600000000006,0.254000000000133,11.1759999999999,11.6839999999997,12.7,0.254000000000133
790.11,"Olomana Fire Stn","NWS","HydroNet-UaNet","OA",45.1104,21.3777008,-157.7507,"USC00517052","OFSH1","19011468",NA,NA,0,3.80999999999995,3.55600000000004,0,0,0.253999999999905,0,0.507999999999811,0.508000000000266,0,1.01600000000008,3.30199999999968,1.26999999999998,1.01600000000008,0,0.507999999999811,2.03200000000015,3.80999999999995,2.03200000000015,1.77800000000025,0,0,0,1.52399999999943,1.27000000000044,0.507999999999811,0.508000000000266,6.85799999999972,9.14399999999978,14.9860000000003,0.508000000000266
793.2,"BELLOWS AFS AT WAIMANALO","NWS","STATE","OA",6.66,21.3667,-157.717,NA,"BELH1","B14036D2",NA,NA,0,1.01600000000002,1.77799999999996,0,0,0,0,0,0,0,1.52400000000006,0,0,0.253999999999962,0.254000000000019,0,0,1.26999999999998,0,0.254000000000019,0,0,0,0,0,0,0,3.81,1.77800000000002,15.494,0
795.3,"Waimanalo Nonokio","NWS","HydroNet-UaNet","OA",20.1168,21.3356991,-157.7116,NA,"WMLH1","224185AC",NA,NA,0,2.28600000000006,2.53999999999996,0.253999999999905,0.25400000000036,0,0.253999999999905,0,0.253999999999905,0,1.52399999999989,0,1.01600000000008,0,0,0.508000000000266,0,0.761999999999716,1.01600000000008,0,0,0,0,0.508000000000266,1.01599999999962,0.253999999999905,0,5.58800000000019,0.25400000000036,18.0339999999997,0
801.1,"Waianae Kawiwi","MT VIEW DAIRY","HydroNet-UaNet","OA",19.812,21.4566994,-158.18,NA,"WAIH1","1562920A",NA,NA,0,0,0,0,0,0,0,0,0,0,0,0,0,0,0,0,0,0,0,0,0,0,0,0,0.254000000000019,1.77800000000002,0,0,0,13.716,2.28600000000006
801.2,"WAIANAE BOAT HARBOR","NWS","STATE","OA",4.25,21.4503,-158.184,NA,"WBHH1","15D13434",NA,NA,0,0,0,0,0,0,0,0,0,0,0,0,0,0,0,0,0,0,0,0,0,0,0,0,0,2.03200000000004,0,0,0,19.05,1.77799999999996
803.2,"WAIANAE VALLEY","RAWS","RAWS","OA",291.6936,21.48055556,-158.1552778,"USR0000HWVA","WNVH1","487005DA",NA,NA,0,0,2.28600000000006,0,0,0,0,0,0,0.761999999999944,1.01599999999996,0.254000000000133,0,0,0,0,0,0.253999999999905,0,0,0,0,0,0.508000000000038,6.85800000000006,1.77800000000002,0,2.03199999999993,0.507999999999925,9.65200000000004,1.77800000000002
804,"Lualualei","US VY","HydroNet-UaNet","OA",35.9664,21.4211006,-158.1352,"USC00515647","LUAH1","8170406C",NA,NA,0.25400000000036,5.33399999999983,8.12800000000016,0,0,0,0,0,0.507999999999811,1.26999999999998,0.25400000000036,0.253999999999451,0.508000000000266,0,0,0,2.53999999999996,4.82600000000002,4.57200000000012,0.253999999999905,0,1.77800000000025,4.31799999999976,6.85800000000017,2.90617343999661,0,0,10.6680000000001,3.04800000000023,18.0339999999997,0
810.1,"WHEELER ARMY AIR FIELD 810.1","COOP","NWS","OA",255,21.48722,-158.02806,"USW00022508","WAFH1","B14101B2",NA,NA,0,0,4.57200000000012,0,0,0,0,0,0.507999999999811,3.30200000000059,5.33399999999892,3.04800000000068,4.0639999999994,0.254000000000815,1.01599999999962,1.26999999999953,0.761999999999716,1.52400000000034,0.50800000000072,0.507999999999811,0,0.507999999999811,8.1279999999997,1.77800000000025,22.3519999999999,3.55599999999959,0,1.52400000000034,18.2879999999996,10.6680000000006,7.11200000000008
820.6,"Mililani","NWS","HydroNet-UaNet","OA",226.7712,21.4638004,-157.9991,"USC00516261","MITH1",NA,NA,NA,0,0.254,5.588,0,0,0.739203293995135,0,0,0,0,0,0,0,6.604,1.27,0.254,0.254,1.016,0.254,0,0,0,0.762,6.35,15.494,4.826,0.508,1.778,12.7,19.05,1.27
824.2,"Waipio","NWS","HydroNet-UaNet","OA",124.968,21.4199009,-158.0058,NA,"PECH1",NA,NA,NA,0.508,1.27,7.62,0,0,0.379892666000757,0,0,0,0,0,0,0,9.906,4.064,0.508,0.254,0,0,8.89,0,0,0.508,4.572,6.096,1.27,0,0.762,7.366,15.494,2.54
828,"SCHOFIELD EAST","RAWS","RAWS","OA",381,21.49944444,-157.9933333,"USR0000HSCH","SCEH1","325AB384",NA,NA,0.253999999999905,0,1.52399999999989,0.508000000000038,0,0.508000000000266,0,0,0.507999999999811,0,0,17.2720000000004,9.90599999999995,0.507999999999811,2.28600000000006,2.03199999999993,1.52400000000011,6.85799999999995,1.26999999999998,3.048,0,2.7940000000001,17.2719999999997,3.04800000000023,47.498,10.9219999999998,1.52400000000011,7.36600000000021,39.1159999999998,18.2879999999998,2.03200000000015
834.13,"Waiawa CF","NWS","HydroNet-UaNet","OA",235.6104,21.4440994,-157.9669,"USC00519257","WAWH1",NA,NA,NA,0,1.27,6.35,0,0,1.33364409269821,0,0,0,0,0,0,0,13.3949133097297,5.334,4.572,2.54,7.62,2.286,0.762,0,0.508,17.78,6.858,27.686,10.414,0.508,3.302,15.24,31.496,2.54
835.2,"Palisades","NWS","HydroNet-UaNet","OA",261.8232,21.4298,-157.9452,NA,"PACH1",NA,NA,NA,0.508,0,3.556,0.254,0,1.30783866334643,0,0,0,0,0,0,0,28.956,4.064,2.54,2.286,4.826,0.508,1.016,0.254,0,6.604,2.54,36.83,7.366,0.508,2.794,13.462,12.7,3.048
837.12,"WAIAHOLE STREAM NEAR KAHALUU 2N","USGS","USGS","OA",4,21.48194,-157.8458,NA,"WHSH1","162B784C",NA,NA,0,5.08000000000001,6.85799999999999,0.50800000000001,0.507999999999996,0,0,0,1.27,0,0,1.778,0.762,0.254,0,0.254,0.254,1.778,7.112,3.048,0,0.508000000000003,2.54,2.032,0.254000000000001,0.507999999999999,0,7.62,5.588,13.208,0.253999999999998
837.8,"Heeia NERR","NWS","unknown","OA",6.396949,21.43139,-157.81528,NA,"HRRH1","3B052656",NA,NA,0,5.334,7.874,0.508,0,0,0,0,0.508,0,2.794,2.032,0.254,0,0,1.016,0.254,1.524,4.572,7.366,0.762,0.254,1.27,1.524,1.27,0.762,0,8.636,11.176,2.032,0.254
839.15,"Ahuimanu Loop ","NWS","HydroNet-UaNet","OA",74.0664,21.4319992,-157.8373,NA,"AHUH1","15CE7632",NA,NA,0.254000000000133,8.38200000000006,15.24,0.761999999999944,0,0,0,0,0.254000000000133,1.52399999999989,6.85799999999995,2.7940000000001,1.26999999999998,0,0.253999999999905,3.30200000000013,0.761999999999944,2.53999999999996,7.36599999999999,3.81000000000017,0.253999999999905,0.507999999999811,2.7940000000001,2.53999999999996,3.30200000000013,2.53999999999996,0.508000000000038,9.14400000000001,14.732,8.38200000000006,2.53999999999996
839.8,"Waihee Pump","USGS","HydroNet-UaNet","OA",64.3128,21.4463997,-157.8584,"USC00519286","WPPH1","195042AC",NA,NA,0,8.38199999999983,13.2079999999999,1.27000000000021,0.507999999999811,0.254000000000133,0,0,3.048,2.28599999999983,4.31800000000021,4.06400000000008,2.03199999999993,0,0,3.048,4.06400000000008,2.79399999999987,8.63599999999997,3.048,0,0.762000000000171,4.57199999999989,4.06399999999985,6.09600000000023,5.07999999999993,0.761999999999944,10.922,13.462,8.03210351445512,1.01600000000008
841.2,"KUAOKALA","S&PF","RAWS","OA",267.0048,21.57027778,-158.26,NA,"KKRH1","48710720",NA,NA,0,0,0.254000000000019,0,0,0,0,0,0,0,0,0,0,0,0,0,0,0,0,0,0,0,0,0.507999999999981,1.01599999999996,0.508000000000038,0,2.54000000000002,0,3.30199999999996,NA
842.1,"MakahaRainGage","USGS","USGS","OA",286.097472,21.50158333,-158.1801667,NA,"MKHH1","DD1423F8",NA,NA,0,0,2.03199999999998,0,0,0,0,0,0,1.26999999999998,0.254000000000048,1.26999999999998,0,0,0,0,0,0,1.27000000000001,0.253999999999991,0,0,0,0.507999999999981,7.11199999999999,2.54000000000002,0,3.80999999999997,2.28600000000003,11.684,3.55600000000001
842.8,"MAKUA RANGE","RAWS","RAWS","OA",6.096,21.52861111,-158.2261111,"USR0000HMAR","MKRH1","3266B468",NA,NA,0,0,0,0,0,0,0,0,0,0,0,0,0,0,0,0,0,0,0,0,0,0,0,0,0.762,0.508000000000038,0,3.30199999999991,0,0.254000000000019,1.01600000000008
843.7,"DILLIINGHAM","RAWS","RAWS","OA",31.0896,21.57194444,-158.1986111,NA,"DLGH1","3278D278",NA,NA,0,0,0.254000000000019,0,0,0,0,0,0,0,0,0,0,0,0,0,0,0,0,1.01599999999996,0,0,0,0,2.03200000000004,1.01599999999996,0.254000000000019,1.77800000000002,0,4.31799999999998,0.762000000000057
844.5,"Kaala 0521","HiMesonet","HiMesonet","OA",1205,21.50675,-158.144861,NA,"026HI",NA,NA,NA,0.254,0.762,11.43,1.016,0.254,0.508,0,0.254,0.254,5.588,6.35,4.064,0.508,0.254,0.254,3.556,2.032,3.302,10.414,10.414,0.254,1.524,9.144,9.398,NA,6.096,1.778,16.51,8.128,28.702,3.048
855.3,"Poamoho Exp Farm","NWS","HydroNet-UaNet","OA",220.0656,21.5382004,-158.0893,NA,"POAH1",NA,NA,NA,0,0,2.286,0,0,0,0,0,0,0,0,0,0,3.048,0,0,0.254,0,2.286,2.794,0,0,1.016,2.286,9.652,1.778,0.508,2.54,5.334,7.62,0
858,"SCHOFIELD BARRACKS","RAWS","RAWS","OA",298.704,21.495,-158.0819444,"USR0000HSCO","SCBH1","3266A71E",NA,NA,0,0.507999999999925,4.06400000000008,0,0,0,0,0,0.254000000000019,2.28599999999994,1.2700000000001,0.507999999999925,0,0,0,0.761999999999944,0,0.508000000000038,0.508000000000038,1.01599999999996,0,0,1.77800000000002,0.508000000000038,6.60399999999993,2.03200000000004,0,3.048,6.35000000000002,3.30199999999991,1.524
884.4,"PunaluuRainGageatalt","USGS","USGS","OA",73.152,21.55644444,-157.899,NA,"PNSH1","DD989652",NA,NA,0,4.06400000000031,14.732,0.761999999998807,0,0.507999999999811,0,0,0,11.1760000000013,1.01599999999962,3.04800000000068,0.507999999999811,0.253999999998996,3.81000000000131,3.04800000000068,2.03199999999924,7.36599999999999,10.6679999999997,11.1759999999995,0,1.52399999999943,7.36599999999999,4.57200000000194,4.3179999999993,5.07999999999993,0.507999999999811,16.0020000000004,15.4939999999988,15.4940000000006,0
885.7,"OAHU FOREST NWR","RAWS","RAWS","OA",698.9,21.47747,-157.9369,NA,"OFRH1","8379F6FA",NA,NA,0.254000000000133,0.508000000000038,5.33399999999983,0,0.254000000000133,0.761999999999944,0,0,0,5.07999999999993,2.7940000000001,2.03199999999993,3.55600000000004,0,3.55600000000004,3.30199999999991,0.762000000000171,8.38199999999983,1.26999999999998,1.01600000000008,0,0.508000000000038,5.33399999999983,1.77800000000002,14.2240000000002,18.288,0,16.2559999999999,17.018,4.57200000000012,1.52399999999989
886.12,"Kaaawa Makai 0541","HiMesonet","HiMesonet","OA",3,21.540352,-157.845041,NA,"049HI",NA,NA,NA,0,4.318,6.858,0,0,0,0,0,0.508,0.762,0.762,2.54,0.254,0,1.016,0.254,0.254,2.794,1.778,3.0734,0,0.508,2.794,2.54,1.016,0.508,0,5.588,2.54,12.0396,0
886.4,"KahanaRainGageatalt","USGS","USGS","OA",28.956,21.54041667,-157.8825556,NA,"KNRH1","17B972EE",NA,NA,0,4.57199999999989,18.0340000000001,1.26999999999998,0,0.253999999999905,0,0,0,3.81000000000017,1.52399999999989,6.60400000000027,2.7940000000001,0,0.761999999999944,4.06399999999985,3.04800000000023,6.85800000000017,10.1599999999999,9.65200000000004,0,1.01600000000008,8.88999999999987,3.55600000000004,5.8420000000001,5.84199999999987,1.26999999999998,18.288,19.8120000000001,7.87400000000002,0.761999999999944
886.8,"Hakipuu Mauka","RILEY W","HydroNet-UaNet","OA",8.5344,21.5067005,-157.8547,"USC00510920","HAKH1","16C69380",NA,NA,0,6.09599999999989,6.60400000000016,0.253999999999905,0,0,0,0,2.28599999999994,0.508000000000038,0.508000000000152,3.55600000000004,0.507999999999811,0,0,2.03200000000004,0,2.28600000000006,2.28599999999994,7.87400000000002,0,2.03199999999993,3.55600000000004,3.04800000000012,0.507999999999925,0.761999999999944,0,10.922,4.82599999999991,3.55600000000004,0
892.3,"Kalahee Ridge 0551","HiMesonet","HiMesonet","OA",197,21.63252,-158.04065,NA,"056HI",NA,NA,NA,0.254,0,0.508,0,0,0,0,0,0,7.9248,2.54,2.5654,5.8674,0,0.254,1.524,0.508,6.858,2.032,0.762,0,0.508,2.032,4.318,10.668,9.144,0.762,8.9408,3.556,3.81,5.08
897.11,"KamananuiRainGageatalt","USGS","USGS","OA",219.456,21.62238889,-158.0143056,NA,"KMRH1","DD34C1E4",NA,NA,1.016,0,4.064,0.508,0.0403944159859213,1.46061483629412,0,0,0,3.556,5.842,1.524,6.096,2.032,1.778,3.048,1.778,9.652,3.556,2.286,0,2.032,5.842,9.398,15.24,15.24,2.794,13.462,10.668,5.08,2.032
897.9,"PupukeaRdRainGageatalt","USGS","USGS","OA",353.568,21.59902778,-158.0169167,NA,"PPRH1","1713D512",NA,NA,1.016,0,1.778,0.254,0,1.90253007296958,0,0,0,8.636,2.54,6.35,4.064,0.762,1.778,1.524,2.286,7.366,2.54,2.032,0,2.286,6.35,6.35,20.32,7.112,1.778,7.366,8.89,5.08,3.048
905.22,"Punaluu Pump","NWS","HydroNet-UaNet","OA",3.9624,21.5842991,-157.8916,NA,"PUNH1","19051152",NA,NA,0,2.54000000000008,7.36599999999999,0.762000000000057,0,0,0,0,0,2.53999999999996,2.79399999999998,3.80999999999995,0.254000000000019,0.253999999999905,3.04800000000012,1.01599999999996,1.26999999999998,2.28600000000006,6.85799999999995,1.2700000000001,0,0,2.03199999999993,2.54000000000008,0.762000000000057,1.01599999999996,0,8.38199999999995,1.524,10.4139999999999,0.254000000000133
909,"KAHUKU TRAINING AREA","RAWS","RAWS","OA",181.6608,21.67916667,-157.9894444,"USR0000HKAH","KTAH1","325A861E",NA,NA,0.254000000000133,2.28599999999994,4.06399999999996,0.254000000000019,0,0,0,0,0.254000000000019,0,0.507999999999925,3.55600000000004,0.508000000000038,0,0.762000000000057,1.26999999999998,0.761999999999944,1.524,1.01599999999996,1.524,0,0.254000000000019,0,0.508000000000038,0,1.524,0,10.16,1.01599999999996,1.77800000000002,1.77800000000002
911.1,"KII","RAWS","RAWS","OA",1.524,21.68833333,-157.9525,"USR0000HKII","KFWH1","8375210E",NA,NA,0,0,0,0,0,0,0,0,0,0,0,0.253999999999905,0,0,0,0.254000000000133,0.253999999999905,1.26999999999998,0.762000000000057,1.01599999999996,0,1.524,0,0.254000000000019,0,0.762000000000057,0,5.07999999999993,0,1.01599999999996,4.3180000000001
926,"PORT ALLEN CAA AIRPORT","FAA","COOP","KA",9,21.89381249,-159.6010997,"USW0022526","PAKH1","B159A272",NA,NA,0,0,0,0,0,0,0,0,0,0,0.507999999999999,1.016,0,0,3.556,0,0,0,0,0,0,0,0,0,0,0,0,0,0,0,0
934.2,"Lawai NTBG 0621","HiMesonet","HiMesonet","KA",106,21.905295,-159.510395,NA,"044HI",NA,NA,NA,0,0,0,0,0.254,0,0,0,0.254,3.556,2.032,1.524,0.762,0.254,2.032,0.762,0.254,0,0,0,0,0,1.016,0.254,2.286,1.016,0.254,0,2.032,0,0
940.3,"POIPU","NWS","STATE","KA",14.8,21.8828,-159.429,NA,"POIH1","B15997E8",NA,NA,0,0,0,0,0,0,0,0,0,0,0,2.28600000000006,0.761999999999716,0.508000000000266,0.253999999999905,0,0,0,0,0,0,0,0.25400000000036,0,1.26999999999998,1.52399999999989,0.253999999999905,0.253999999999905,0,0,0
946,"WAIMEA HTS","RAWS","RAWS","KA",159.7152,21.96638889,-159.6638889,NA,"WHGH1","487090B8",NA,NA,0,0,0,0,0,0,0,0,0,0,0,0,0,0,0,0,0,0,0,0,0,0,0,0,0,0,0,0.253999999999905,0.254000000000076,0,0
946.1,"WAIMEA TANK AT WAIMEA","NWS","unknown","KA",70,21.964722,-159.666944,NA,"WMTH1","1900E616",NA,NA,0,0,0,0,0,0,0,0,0,0,0,0,0,0,0.253999999999451,0,0,0,0,0,0,0,0,0,0,0,0,0,0.25400000000036,0,0
966.4,"Hanapepe","NWS","HydroNet-UaNet","KA",110.6424,21.9365005,-159.5866,NA,"HNPH1","156011EA",NA,NA,0,0,0,0,0,0,0,0,0,0,0.254,0,0,0,0.508,0,0,0,0,0,0,0,0,0,0,0,0,0,0.508,0,0
986.2,"Kalaheo","KUKUILONO GOLF COU","HydroNet-UaNet","KA",263.0424,21.9183006,-159.5265,NA,"KHEH1","1560740C",NA,NA,0,0,0.253999999999678,0.254000000000133,0.254000000000133,0.507999999999811,0,0,0.508000000000038,2.28600000000006,2.28600000000006,2.03199999999993,1.77799999999979,0.762000000000171,2.03199999999993,1.01600000000008,0,0,0,0,0,0,1.52400000000011,0.507999999999811,2.28600000000029,1.52399999999989,0.762000000000171,2.53999999999974,6.35000000000014,0,0
992.1,"Omao","NWS","HydroNet-UaNet","KA",99.9744,21.9071007,-159.4768,"USC00517116","OMAH1","195001A6",NA,NA,0,0,0,0,0,0.253999999999905,0,0,1.2700000000001,2.03199999999993,2.03200000000015,0.507999999999925,2.28600000000006,1.01599999999996,5.08000000000004,1.01600000000008,0.253999999999905,0.253999999999905,0,0,0,0,3.04800000000012,1.01599999999996,5.07999999999993,3.55600000000004,0.253999999999905,0,2.03200000000015,0.254000000000019,0
1020.1,"LIHUE WEATHER SERVICE OFFICE AIRPORT 1020.1","LIHUE WEATHER SERVICE OFFICE AIRPORT 1020.1","NWS","KA",45,21.98156999,-159.3422063,"USW00022536","PHLI",NA,NA,NA,0,0,0,0.508,0,0.113399008026389,0,0.254,0,0,0.762,1.016,0.762,0.508,0.508,0.254,0.254,0,0,0,0,0.254,1.016,0,0.508,0.254,0,3.048,5.842,0,0
1029,"MANA","RAWS","RAWS","KA",26.2128,22.02944444,-159.7622222,NA,"MNRH1","4870603C",NA,NA,0,0,0,0,0,NA,0,0,0,0,0,NA,NA,NA,NA,NA,NA,NA,NA,NA,NA,NA,NA,NA,NA,NA,NA,NA,NA,NA,NA
1036,"PUU OPAE","RAWS","RAWS","KA",652.8816,22.04083333,-159.6958333,NA,"POPH1","4870734A",NA,NA,0,0,0,0,0,0,0,0,0,0,0,0,0,0,0,0,0,0,0,0,0,0,0,0,0.254000000000019,0,0,0,0,0,0
1042,"WaialaeRainGagenrWaimea","USGS","USGS","KA",1219.2,22.08972222,-159.5925,NA,"WLGH1","DDF7C28E",NA,NA,0,0.254000000000019,0,1.01599999999996,0,0,0,0,0,0,6.858,2.54000000000002,2.03199999999998,2.286,4.31799999999998,0.254000000000019,0,0,0,0,0,0,0.762,2.53999999999996,4.31799999999998,0.762000000000057,0,3.55599999999998,7.36599999999999,0,0.254
1047,"Mt.WaialealeRainGagenrLihue","USGS","USGS","KA",1569.72,22.07088889,-159.4979722,"USC00516565","WLLH1","DD5E818E",NA,NA,0.525333725943974,1.27000000000044,4.31800000000021,12.192,8.63600000000042,1.52399999999943,0.507999999999811,0.762000000000626,4.31800000000021,5.58799999999974,16.7640000000001,15.2399999999998,5.58799999999974,5.33400000000074,28.4479999999994,30.2260000000006,9.39799999999923,4.82600000000002,1.77800000000025,2.28600000000006,3.80999999999949,7.61999999999989,21.0820000000003,17.5260000000007,53.847999999999,25.3999999999996,6.09600000000046,19.0500000000002,36.3220000000001,0.761999999999716,1.01599999999962
1051,"NWailuaDitchRainGagenrLihue","LIHUE PLANTATION","USGS","KA",338.328,22.0625,-159.4677222,"USC00516888","WLDH1","1732B3E0",NA,NA,0.253999999999905,0,8.63599999999997,5.33400000000029,2.79399999999987,0.253999999999905,0,0,2.53999999999996,1.77799999999979,7.87400000000025,1.52399999999989,2.03200000000015,4.31800000000021,16.0019999999995,17.2720000000004,3.04799999999977,0.253999999999905,0.762000000000171,0.507999999999811,1.77800000000025,2.53999999999996,7.61999999999989,5.07999999999993,8.89000000000033,4.31799999999976,1.27000000000044,9.14399999999978,19.3039999999996,0.25400000000036,0.507999999999811
1052.3,"Waiahi Rain Gage","USGS","USGS","KA",248,22.0227,-159.4651,NA,"WIRH1",NA,NA,NA,0.254,0,4.572,NA,NA,NA,0,0,2.286,1.016,5.588,3.556,1.524,2.032,5.842,NA,2.286,0,0,1.016,NA,1.524,6.604,3.556,6.858,NA,2.54,6.096,5.842,0.254,0.254
1060,"Wailua UH Exp Stn","NWS","HydroNet-UaNet","KA",158.1912,22.0660992,-159.396,"USC00519475","WUHH1",NA,NA,NA,0.254,0.116981270496021,11.938,2.032,1.524,0.172310428951323,0,0.508,0.762,2.50810806306592,4.064,0.762,1.02753962012293,1.27,10.16,5.08,3.81,0,0.508,0.508,0.508,0.508,2.794,5.334,4.826,1.524,0.276645792276708,4.44845638480896,3.302,0,1.016
1061.5,"Wailua UH Exp Stn","NWS","HydroNet-UaNet","KA",158,22.066,-159.3962,NA,"WUHH1","15C163D6",NA,NA,0.254000000000133,0.253999999999905,11.9380000000001,2.03199999999993,1.52400000000011,0.253999999999905,0,0.508000000000038,0.761999999999944,2.72291216071282,4.06399999999985,0.762000000000171,1.26999999999998,1.77800000000002,10.1600000000001,5.07999999999993,3.81000000000017,0,0.507999999999811,0.508000000000038,0.507999999999811,0.508000000000266,2.79399999999987,5.33400000000006,4.82600000000002,1.52399999999989,0.300338810393786,5.33400000000006,3.30199999999991,0,1.01600000000008
1069,"PUU LUA","RAWS","RAWS","KA",1021.08,22.08916667,-159.6791667,NA,"PLRH1","487083CE",NA,NA,0,0,0,0,0,0,0,0,0,0,0,0.254000000000019,0.253999999999905,0,6.35000000000002,0,0,0,0,0,0,0,0,0,0,0.254000000000133,0,1.26999999999987,4.06400000000019,0,0
1074,"MAKAHA RIDGE","RAWS","RAWS","KA",544.9824,22.13055556,-159.7152778,"USR0000HMAH","MKAH1","3286026C",NA,NA,0,0,0,0,0,0,0,0,0,0,0,1.01599999999996,0,0,11.6840000000001,0,0,0,0,0,0,0,0,0,0.507999999999925,0,0,0,0,0.508000000000038,0.253999999999905
1076,"Kokee","NWS","HydroNet-UaNet","KA",1279.2456,22.1485996,-159.6448,NA,"KOKH1","1900E616",NA,NA,0,0,0,0,0,0,0,0,0,0,6.05294033481442,3.92414496512143,3.02068260934995,0,0.253999999999451,0,0,0,0,0,0,0,0,0,11.5593328998428,0,0,0,0.25400000000036,0,0
1082,"WaiakoaliRainGagenrWaimea","USGS","USGS","KA",1042.416,22.1245,-159.6220833,"519130","WKRH1","17B79574",NA,NA,0,0,0,0.508,0.0355581238383674,0,0,0,0,0,4.572,3.81,3.302,1.27,9.398,2.032,0.254,0,0,0,0,0,0.254,0.508,10.922,0.254,0,0.762,4.318,0,0.254
1083,"MoCrsgRainGagenrWaimea","USGS","USGS","KA",1042.416,22.11708333,-159.6009722,"USC00516433","MCRH1","D109224A",NA,NA,0,0,0,0.508,0.0352008620570205,0,0,0,0.254,0.254,5.588,4.572,3.302,2.032,5.588,1.778,0.254,0,0,0,0,0,0.508,1.524,7.874,1.778,0,2.032,5.842,0.508,0
1084,"KilohanaRainGafenrHanalei","USGS","USGS","KA",1219.2,22.15408333,-159.5946111,"USC00514610","KLOH1","DDCC972A",NA,NA,0,0,0,1.26999999999998,0.253999999999905,0,0,0,0.253999999999905,0.762000000000171,19.5580000000004,8.38200000000006,6.09599999999955,10.4140000000002,19.8119999999999,4.57200000000012,0.762000000000171,0,0,0.253999999999451,0.25400000000036,0.253999999999905,5.07999999999993,4.82600000000002,38.8620000000001,3.04799999999977,1.01600000000053,8.63599999999951,5.8420000000001,6.34999999999991,0.762000000000171
1094.2,"Kapahi","NWS","HydroNet-UaNet","KA",158.496,22.1021004,-159.3856,"USC00513171","KPIH1","15608488",NA,NA,0,0.25400000000036,8.1279999999997,2.53999999999996,0.508000000000266,0.253999999999905,0,0,0.508000000000266,4.82599999999957,8.12800000000016,6.096,1.01600000000008,3.04799999999977,6.60400000000027,5.58800000000019,1.26999999999953,0.762000000000171,0.253999999999905,0,0.508000000000266,0.253999999999905,1.01600000000008,4.31799999999976,3.30200000000013,1.01600000000008,0,2.79399999999987,8.12800000000016,0.761999999999716,0.25400000000036
1115.1,"PH Wainiha","NWS","HydroNet-UaNet","KA",35.052,22.1959991,-159.5563,NA,"WNHH1","15C03150",NA,NA,0,0,0,0,0,0,0,0,0,0,4.57200000000012,2.79399999999987,1.52400000000011,0.253999999999905,14.732,9.14400000000001,0,0,0,0,0,0,0.508000000000038,0.762000000000171,0.253999999999905,0,0,NA,NA,NA,0
1116.2,"Lower Limahuli 0603","HiMesonet","HiMesonet","KA",31,22.219805,-159.575195,NA,"024HI",NA,NA,NA,0,0,0,0,0,0,0,0,0,0,2.286,3.81,1.016,2.286,9.652,5.334,0,0,0,0,0,0,1.524,2.54,6.35,0,0,7.366,11.5824,4.826,2.032
1117.11,"Waipa 0601","HiMesonet","HiMesonet","KA",5,22.202647,-159.518833,NA,"014HI",NA,NA,NA,0,0,0,0.508,0,0,0,0,0,0,1.778,4.064,1.524,0.508,10.922,6.858,0.254,0,0,0,0,0,2.032,2.794,6.604,1.016,0.254,8.636,13.2334,1.524,0
1117.8,"Hanalei","NWS","HydroNet-UaNet","KA",4.8768,22.1982002,-159.4951,"USC00513386","HNIH1","B159849E",NA,NA,0,0,0,0.508000000000038,0.253999999999905,0.254000000000133,0,0,0,0.507999999999811,3.81000000000017,3.048,2.28599999999983,1.27000000000021,8.8900000000001,9.90599999999995,0.507999999999811,0,0,0,0,0,2.7940000000001,3.048,5.07999999999993,2.28600000000006,0.508000000000038,6.60399999999981,15.4940000000001,2.03199999999993,0
1117.9,"PRINCEVILLE AIRPORT NEAR KILAUEA 4W","NWS","STATE","KA",88.497,22.2114,-159.443,NA,"PRIH1","15D696F8",NA,NA,0,0,1.52400000000011,0.253999999999905,0,0,0,0,0,0,3.04800000000023,3.80999999999995,2.28599999999983,0.508000000000038,7.11200000000008,5.58799999999997,0.508000000000038,0,0,0,0,0,3.30199999999991,3.80999999999995,0.254000000000133,0.254000000000133,0,6.096,7.36599999999999,4.57199999999989,0.762000000000171
1132.11,"Common Ground 0602","HiMesonet","HiMesonet","KA",112,22.197439,-159.42123,NA,"015HI",NA,NA,NA,1.016,0,1.778,0.508,0.508,0,0,0,0.508,0.762,6.9088,6.8834,4.0894,3.0734,7.112,6.096,0.762,0,0,0,0.254,0.254,5.334,4.318,2.032,0.254,0,3.81,10.4648,2.54,0.254
1146,"Moloaa Dairy","RAWS","RAWS","KA",85.344,22.18333333,-159.3375,"USR0000HMOL","MLDH1","AAB6D15A",NA,NA,0.254000000000019,0,0,0.508000000000038,0.253999999999905,0,0,0,0,0,2.54000000000008,0.253999999999905,0.762000000000057,0.507999999999925,13.4620000000001,4.06399999999996,0.254000000000019,0,0,0,0,0,1.524,3.048,0,0,0.254000000000019,NA,2.28599999999994,2.79399999999998,0.254000000000133
54.2,"Glenwood","HELBUSH XL","HydroNet-UaNet","BI",802.2336,19.5076008,-155.1707,"USC00510744","GLNH1",NA,NA,NA,0,2.04711987714977,16.1492764368393,1.89762776320306,0.808041511996843,0.141569708665087,0,3.03337478876536,0.141569708665087,0.141569708665087,0.849418251990523,0,0.141569708665087,13.9790894584557,8.70648378425441,7.42766188970552,12.7054426545212,4.54979640346124,0,0.630359671751697,2.18975270456206,13.8206118204802,20.5675903068884,264.787078895588,508.810296507738,7.9582706343601,0.616109539309252,9.52463297553798,2.21772141007335,0.141569708665087,6.19384813296622
279,"POHAKAU PALAHA HN-161","HiMesonet","HaleNet","MA",2460,20.730574,-156.141316,NA,"043HI",NA,NA,NA,0.221944608241859,0.721319976786032,4.43889216483713,0.166458456181392,0.0739815360806183,0.147963072161239,0.0739815360806183,0.110972304120928,0.480879984524024,0.739815360806186,0.591852288644952,2.81129837106352,2.77430760302321,0.480879984524021,1.51471503667933,0.943264585027886,4.06898448443404,6.10347672665106,6.93939219826692,1.49812610563253,0.517870752564338,5.97763222921888,11.5554005809222,66.6318677620088,124.126751641413,1.6275937937736,0.55486152060465,NA,9.6706102438541,63.9046523376062,0.0554861520604683
752.6,"WAIAWA PHB","FWS","RAWS","OA",1.524,21.38694444,-157.9811111,NA,"WWFH1","3274C092",NA,NA,0.149363406793297,0.793466314891017,4.43804673307576,0,0,0,0,0,0,0,0,0,0,4.25468992307059,1.41688266447332,0.287674167789282,0.119076785422037,0.177580328101554,0.0443950820253886,2.70777529785329,0,0,0.282548652869463,2.73589474868618,5.34570199580364,1.9682405072304,0.370537200962567,1.09830475819124,6.63949979506655,17.9341927089535,2.09578059174058
782.3,"Nuuanu Upper","NWS","HydroNet-UaNet","OA",248.412,21.3502007,-157.8184,"USC00516938","NUUH1","156097FE",NA,NA,0.446439720365956,5.81414222756656,14.5994295179592,0.202098313616253,0.814253308672558,2.31445299839551,0.0650306611735121,0.394854853771551,0.383744502557601,5.66592637601928,10.6212507557059,6.29267344154286,4.71679118196256,1.97268919643099,3.07936577483827,7.14219439695637,1.89346236973989,8.83659789370088,3.80207113089579,5.12971307516747,0.197427426885775,2.02352369208684,8.92165094557994,7.83438351858312,21.8755959398075,10.1732210281913,2.3289288705352,15.6172696603383,15.3962448393506,10.3149255893074,0.267128974789765
842.9,"MAKUA RIDGE","RAWS","RAWS","OA",533.4,21.54277778,-158.1988889,"USR0000HMRG","MKGH1","3266C2F8",NA,NA,0,0,3.09559857134724,0,0,NA,0,0,0,0,0,0,0,4.12746476179632,0,0,0.34395539681636,0,3.09559857134724,3.78350936497996,0,0,1.37582158726544,3.09559857134724,13.0703050790217,2.40768777771452,0.68791079363272,3.4395539681636,7.22306333314356,10.3186619044908,0
