"SKN","Station.Name","Observer","Network","Island","ELEV.m.","LAT","LON","NCEI.id","NWS.id","NESDIS.id","SCAN.id","SMART_NODE_RF.id","X2018.02.01","X2018.02.02","X2018.02.03","X2018.02.04","X2018.02.05","X2018.02.06","X2018.02.07","X2018.02.08","X2018.02.09","X2018.02.10","X2018.02.11","X2018.02.12","X2018.02.13","X2018.02.14","X2018.02.15","X2018.02.16","X2018.02.17","X2018.02.18","X2018.02.19","X2018.02.20","X2018.02.21","X2018.02.22","X2018.02.23","X2018.02.24","X2018.02.25","X2018.02.26","X2018.02.27","X2018.02.28"
2.1,"KAHUKU MAUKA","COOP","COOP","BI",957,19.1089,-155.7467,"USC00512566",NA,NA,NA,NA,0,0,0,0,0,0,0,0,0,0,0,0,0,0,21.8175737032792,27.0277405577936,0,1.62817714203576,19.8637611328363,0,0,9.11779199540026,0,0,24.8568377017459,0,4.99307656890966,0
2.32,"SOUTH KONA 2 2.32","COOP","COOP","BI",647,19.10778,-155.78944,"USC00518652",NA,NA,NA,NA,0,0,0,0,0,0,0,0,0,0,0,0,0,0,20.1,24.9,0,1.5,18.3,0,0,8.4,0,0,22.9,0,4.6,0
2.34,"MILOLII 2.34","COOP","COOP","BI",280,19.186302,-155.886763,"USC00516304",NA,NA,NA,NA,0,0,3,0,0,0.8,0,0,0,0,0,7.4,0,0,0,25.4,5.6,0,16.5,0,0,1.8,17.5,0,10.2,0,0,4.3
2.36,"KAPUA 2.36","COOP","COOP","BI",533,19.14472,-155.84944,"USC00513376",NA,NA,NA,NA,0,0,0.8,0,0,0,0,0,0,0,0,7.6,0,0,0,38.1,24.1,0,0,6.9,0,2,13.7,0,0,11.4,16.8,0
3.22,"HAWAIIAN OCEAN VIEW 4.7 NNE","HAWAIIAN OCEAN VIEW 4.7 NNE","CoCoRaHS","BI",1273,19.135,-155.747,"US1HIHI0035",NA,NA,NA,NA,0,0,0,0,0,2.3,0,5.6,0,0,0,0.8,0,1.5,4.1,50.5,14.2,1,18.3,0,0.3,3.3,12.2,0,17.5,5.3,0.3,0
3.23,"CAPTAIN COOK 2.9 SSE","CAPTAIN COOK 2.9 SSE","CoCoRaHS","BI",238,19.4594,-155.8938,"US1HIHI0019",NA,NA,NA,NA,0,0,1.5,1.5,0,3.8,0,1.3,NA,0,0,0,0,0,0,16.3,5.1,0.5,23.4,NA,0,1,27.2,0,16.3,0.3,NA,NA
3.9,"LOWER KAHUKU CS","LOWER KAHUKU CS","RAWS","BI",953.7192,19.10083333,-155.6697222,NA,"LKHH1","32D620C2",NA,NA,0,0,0,1,0,3,0,0,0,0,0,0,1,9,35,19,13,17,0,0,3,13,7,54,12,13,15,8
4.12,"NAALEHU 4.6 WSW","NAALEHU 4.6 WSW","CoCoRaHS","BI",391,19.0424,-155.6354,"US1HIHI0001",NA,NA,NA,NA,0,0,0,0.5,1.5,4.8,0,0,0,0,0,0,1.5,1,7.9,53.8,32.3,4.1,3.8,0,0,2.3,17.5,10.2,56.4,17.3,17.3,9.9
4.13,"NAALEHU 5.0 WSW","NAALEHU 5.0 WSW","CoCoRaHS","BI",436,19.0424,-155.643,"US1HIHI0010",NA,NA,NA,NA,0,0,0,0.5,2.5,2.8,2.8,0.3,0.3,0,1.3,0.3,1.5,1,9.7,39.4,24.9,4.1,3.3,0.5,0,2,21.8,5.6,61.5,19.8,15.7,9.1
4.14,"NAALEHU 4.7 WSW, HI US","CoCoRaHs","CoCoRaHs","BI",393.18,19.0421,-155.6371,"US1HIHI0057",NA,NA,NA,NA,0,0,0,0.3,2,4.6,0,0,0,0,0.5,0,1.5,1,8.6,49.3,26.7,3.8,3.8,0,0,2,16.8,11.2,NA,11.7,13.5,7.4
5.1,"Kamaoa Puueo 5.1","COOP","COOP","BI",317,19.01361,-155.66194,"USC00513054",NA,NA,NA,NA,0,0,0,0.791877136094513,0.633501708875611,4.59288738934818,0,0,0,0,0,0,1.18781570414177,1.5,3.8,19.1,21.6,6.9,10.4527781964476,6.41420480236556,2.21725598106464,1.42537884497012,18.6883004118305,NA,NA,8.9,17.8,13.5
6,"KIOLAKAA A&F 6","STATE DIV FTRY","COOP","BI",587,19.07032619,-155.6355484,"USC00514625",NA,NA,NA,NA,0,0,0,1.14649980757153,0.917199846057224,6.64969888391487,0,0,0,0,0,0,1.7197497113573,2.23236883508191,8.42604225050537,33.3172290123482,35.2989856960012,9.63832174721244,15.1337974599442,9.28664844132939,3.21019946120028,2.06369965362875,27.0573954586881,NA,NA,16.3600462320553,24.9812187630028,13.8428955644724
6.2,"NAALEHU 5.7 W","NAALEHU 5.7 W","CoCoRaHS","BI",679,19.0732,-155.6632,"US1HIHI0012",NA,NA,NA,NA,0,0,0,0,1.5,2.5,1.5,4.1,0,0,0,0,2.3,0.3,12.2,46.2,28.4,5.6,5.8,0.3,0,3.3,21.1,1.5,49.3,19.8,13.5,13.7
9.2,"Nene Cabin","Nene Cabin","RAWS","BI",710.4888,19.34805556,-155.1258333,NA,"AHMH1","32D64524",NA,NA,0,0,0,0,0,2.29,0,0,0,0,0.25,0.25,0,2.8,2.54,10.67,8.63,11.69,0,0,5.08,31.25,12.4,51.3,3.90000000000001,10.4,7.60000000000002,7.39999999999998
12.15,"SEA MOUNTAIN 12.15","SEA MOUNTAIN","COOP","BI",21,19.13310292,-155.5152744,"USC00518600",NA,NA,NA,NA,0.112277179863727,0.561385899318636,0,0,0.3,5.6,0,0.3,0,1.5,0,0,1.20913821187757,1.72446146236715,8.1,33,27.9,11.4,10.7,0.5,4.54002731940057,1.71294594060177,20.4459521451476,NA,NA,14.9414866763593,13.8647831442267,3.55256205885508
14,"NAALEHU 14","KAU SUGAR","COOP","BI",206,19.06032754,-155.5855501,"USC00516588",NA,NA,NA,NA,0,0,0,1,0.8,5.8,0,0,0,0,0,0,1.5,2,9.9,34,34.3,8.1,13.2,8.1,2.8,1.8,23.6,5.40574355053112,49.0274881516992,17.3,21.1,7.1
21,"Pahala","KAU SUGAR","HydroNet-UaNet","BI",346.8624,19.2042999,-155.4872,"USC00517421","PPLH1","B16084B2",NA,NA,0.762,0,0,4.826,3.556,5.08,0.254,2.794,4.318,10.16,0.254,0.508,0.508,12.192,167.386,61.214,27.686,12.446,0,7.112,2.794,23.368,9.652,103.886,30.988,12.446,1.27,0
21.3,"PAHALA MAUKA 21.3","COOP","COOP","BI",332,19.20667,-155.48861,"USC00517437",NA,NA,NA,NA,0.3,1.5,0,2.63991538153287,2.10309022165802,8.9,0.8,0.3,3,5.41599050650283,0.17805003014166,0.356100060283319,1.5,2.3,16.5,175.5,38.5552051520145,14.0084042232214,9.84191120932179,0.3,8.9,2.5,27.4,145.644924655878,43.4442073545649,18.7052107201557,12.7,1.3
21.4,"HAWAIIAN OCEAN VIEW 1.7 NNE, HI US","CoCoRaHs","CoCoRaHs","BI",733.03,19.0908,-155.7552,"US1HIHI0059",NA,NA,NA,NA,0,0,0,0,0,1,0,0,0,0,0,0,0,0.5,2.5,27.7,30,1.5,20.6,0,1,1.5,12.7,NA,10.7,5.1,NA,NA
23,"KAHUKU","RAWS","RAWS","BI",1796.4912,19.23222222,-155.78,NA,"KRCH1","32639544",NA,NA,0,0,0,0,0,2.794,49.534,0,0,0,0,0,0,0,17.27,4.06,1.02,9.40000000000001,0,0,2.78999999999999,13.76,6.59999999999999,4.8,0.5,5.80000000000001,0,0
24.1,"OPIHIHALE 2 24.1","TRUMAN LORNA","COOP","BI",396,19.27032215,-155.8738768,"USC00517166",NA,NA,NA,NA,0,0,8.6,0,0,1.3,0,5.8,0,0,0,0.8,0,0,0,20.3,2.3,1.3,28.4,0.5,0,2,13.2,0,2.8,0,2,0.5
26.2,"KEALAKEKUA 26.2","GREENWELL ESTATE","COOP","BI",442,19.48975723,-155.9122125,"USC00513977",NA,NA,NA,NA,0,0,8.1,0,1.64140572065192,3.34441176035947,0,0,0,0,0,0,0,0,0,20.8,1.04992384986756,20.4003282423882,0,0,0,0.8,10.1925103279448,4.22075756739066,5.15870369347747,0.468973063043407,0.647293018195689,0
27,"HONAUNAU 27","TANAKA S","COOP","BI",332,19.4403158,-155.8788789,"USC00511665",NA,NA,NA,NA,0,0,5.1,NA,NA,3,0,1,0,0,NA,NA,0,0,0,16,1.5,NA,NA,0,0,1.3,8.1,0,NA,NA,0,0.5
27.6,"Honaunau No. 2","NWS","HydroNet-UaNet","BI",398.0688,19.4629002,-155.8824,NA,"HAUH1","15D12742",NA,NA,0,1.524,0.254,0,1.524,1.27,0,0,0,0,0,0,0,0,18.288,4.318,4.826,28.448,0,0,0,10.922,3.048,11.684,0,4.064,0,0
28,"NAPOOPOO 28","KONA EXP STATION","COOP","BI",122,19.46864784,-155.9055458,"USC00516697",NA,NA,NA,NA,0,0,5.23101598467256,NA,NA,2.5,0,0.283796325219584,0,NA,NA,NA,0,0,0,12.4206723394562,NA,NA,NA,0,0,0.400219939630659,9.36527873224627,NA,NA,NA,0.8,0
29.12,"Kealakekua","NWS","HydroNet-UaNet","BI",537.972,19.5181007,-155.9159,NA,"KLEH1","81708572",NA,NA,0,5.842,0,0,1.778,0.508,1.016,0,0,0,0,0,0,0,21.59,0.508,0.508,22.098,0,0,0,9.144,7.874,9.144,5.588,0.508,0,0
34,"Kapapala Ranch","NWS","HydroNet-UaNet","BI",638.556,19.2754993,-155.4514,"USC00513300","KAYH1","B16097C4",NA,NA,22.86,1.27,0.254,1.016,0.762,4.318,2.54,0,6.096,24.13,2.54,0,0,9.906,44.704,56.134,52.578,24.892,0,5.588,22.098,22.86,14.478,107.188,24.638,35.306,2.794,2.794
36.3,"KAPAPALA RANCH","KAPAPALA RANCH","RAWS","BI",1081,19.25811,-155.441781,NA,"KPRH1","AA10E258",NA,NA,7.87,0.769999999999996,0,0.5,2.54000000000001,4.36,2.5,0.299999999999997,5.8,24.1,1.30000000000001,0,0,8.40000000000001,142.7,53.9,44.9,22.1,0,19.8,4.40000000000003,19.8,15.7,81.6,33.6999999999999,20.9,2,5.30000000000007
38.9,"KAELAKOMO","KAELAKOMO","RAWS","BI",29.5656,19.29277778,-155.1075,NA,"KMOH1","32807432",NA,NA,NA,NA,0,0,1,0,0,2.59999999999999,0,0.5,0,NA,3.30000000000001,NA,NA,NA,NA,60.2,0,0,9.69999999999999,NA,NA,NA,NA,NA,NA,NA
39,"Mauna Loa Observatory","NWS","ESRL/GMD","BI",3397,19.5362,-155.5763,"USC00516198","MOBH1",NA,NA,NA,0,0,NA,NA,NA,2.3,0.3,0.3,0,NA,NA,NA,0,0,0,1,NA,NA,NA,NA,0,1.3,13.5,NA,NA,NA,0.5,0
39.1,"Mauna Loa Upper","NWS","STATE","BI",3341,19.53863295,-155.5722206,NA,NA,NA,NA,NA,0,0,NA,NA,NA,1.80072644530272,0.234877362430789,0.234877362430789,0,NA,NA,NA,0,0,0,0.782924541435964,NA,NA,NA,NA,0,1.01780190386675,10.5694813093855,NA,NA,NA,0.391462270717982,0
39.2,"MAUNA LOA 5 NNE","MAUNA LOA 5 NNE","USCRN","BI",3398,19.5354,-155.576,"USW00021514","MLBH1","CD07379A",NA,NA,0,0,0,0,2.6,3.7,0.4,0,0,0,0,0,0,0,0.9,0,0,4.5,0,0,0.3,8.9,6.2,1.2,6.4,0.2,0,0
43.3,"PUHE CS","PUHE CS","RAWS","BI",34.126,20.025,-155.8211111,NA,"PHRH1","32D61558",NA,NA,0,0,0,0,1.522,0.26,6.35,0,0,0,0,0,0,0,10.92,0,0,12.44,0.769999999999996,0,0,4.06,1.52,0,0,0,0,0
48,"PALI 2","RAWS","RAWS","BI",847.344,19.3175,-155.2922222,"USR0000HPAL","PLIH1","FA900222",NA,NA,8.90000000000001,7.09999999999999,0,1.10000000000002,0,1.69999999999999,0.5,1.30000000000001,0.5,7.39999999999998,0.5,1.80000000000001,0,21.3,425.2,70.4,57.6,15.3,0,1.5,3.30000000000007,16.5,15.1999999999999,70.4000000000001,18.5,19.0999999999999,5.10000000000002,5
49,"KEAUMO","RAWS","RAWS","BI",1682.496,19.47361111,-155.3588889,"USR0000HKMO","HKMO",NA,NA,NA,4.09999999999999,0.5,0,0,0.699999999999989,2.80000000000001,0,0.300000000000011,1.19999999999999,2.80000000000001,2.79999999999998,0.300000000000011,0,11.9,17.8,58.7,5.80000000000001,22.4,1.5,1.30000000000001,7.30000000000001,21.9,22.3,144.1,26.1,38.9,17.5,18.3000000000001
54,"HAWAII VOLCNS NP HQ 54","HAW VOL NATL PARK","COOP","BI",1210,19.429741,-155.257146,"USC00511303",NA,NA,NA,NA,0.262348002291171,1.53133811208343,0.394795007586117,1.18873672750873,8.13245595151677,4.46729717410735,1.26058493905594,2.92532238561839,0.489546302165203,2.1443332946544,3.00591887906806,0.660093265608942,0.0493493759482647,7.57294236402681,58.3435960793225,32.989432498874,19.2911447332655,16.9695566371126,8.88583792641929,1.30078530904481,1.85063216619332,18.6730628320166,30.0614114750542,92.8740548419293,41.6774651506913,58.8895073138674,50.8537161365934,30.2579393477146
54.2,"Glenwood","HELBUSH XL","HydroNet-UaNet","BI",802.2336,19.5076008,-155.1707,"USC00510744","GLNH1",NA,NA,NA,0,2.286,0,0,7.62,0.508,0,7.366,0.254,1.016,1.778,0.254,0,0.254,42.418,57.658,40.64,19.05,0.254,1.524,4.064,16.51,35.56,124.206,61.468,67.31,40.894,26.924
54.8,"Thurston","Thurston","HavoNet","BI",1202,19.41528,-155.23833,NA,NA,NA,NA,NA,0.762,2.794,0,1.016,0,1.778,0.508,0.508,1.27,5.334,2.794,0.762,0,21.844,135.636,48.006,24.13,21.842,0,0,0.508,17.272,29.21,91.698,41.148,42.926,35.814,23.622
54.9,"Ola a","Ola a","HavoNet","BI",1040,19.47833,-155.215,NA,NA,NA,NA,NA,0.316228223480909,1.84583959665641,0.475876785025135,1.43287579948629,9.80267459872108,5.38477684903945,1.51947997447306,3.52611604827976,0.590087807390789,2.58472983364641,3.62326520024507,0.795661178633842,0.0594845981281419,9.12824984137533,70.3260233679042,39.7647000993129,23.2531003653041,20.4547116873296,10.7107838331933,1.56793657209848,2.2307092759274,22.5080787150889,36.2353311748656,111.94824093814,50.2370540224774,70.984052163133,61.2978950509757,36.4722213340935
55.3,"VOLCANO 4.4 S","VOLCANO 4.4 S","CoCoRaHS","BI",1158,19.4338,-155.2417,"US1HIHI0040",NA,NA,NA,NA,0,0,2.5,0,3.3,1.5,NA,NA,NA,0,7.4,NA,NA,3.8,43.9,60.2,60.7,NA,NA,0,0,6.9,NA,NA,NA,NA,NA,NA
55.4,"GLENWOOD NO 2 55.4","COOP","COOP","BI",671,19.52194,-155.14389,"USC00510746",NA,NA,NA,NA,0,1.16186413002056,0,0,24.9684594784525,3.22337961999531,0,4.10638706876171,1.8922906056742,0.460608932224313,1.72643240355508,0.115152233056078,0,0.489286627291473,48.4776336801965,46.8475125597451,28.4848219530866,15.2267698888948,1.28432221504169,23.0454434539013,6.39759688549886,46.5088149320453,59.4803001798078,127.775650417242,78.4369313198794,81.2526524938192,63.6924149813098,25.5496681308668
63,"KALOKO-HONOKOHAU","RAWS","RAWS","BI",7.62,19.67277778,-156.0202778,NA,"KHOH1","FA667668",NA,NA,0,0,0,0.762,12.958,0,0.25,0,0,0,0,0,0,0,30.73,0,0,37.09,0.25,0,0,5.59,1.02,0,0,0,0,0
65.4,"PAHOA 2.1 E","PAHOA 2.1 E","CoCoRaHS","BI",137,19.5043,-154.9165,"US1HIHI0003",NA,NA,NA,NA,7.52120078135664,2.58598794987849,0.144123387102214,0.0864740322613281,0,2.53944072565977,1.97124817706927,0.369575170239911,1.1735787562768,0.0864740322613281,1,0.5,0.5,12.4,87.9,147.6,181.6,6.1,15.5,0.5,12.7,27.4,25.9,17,24.9,4.3,25.9,10.7
65.6,"KURTISTOWN 6.6 SSE, HI US","CoCoRaHs","CoCoRaHs","BI",339.63,19.5021,-155.029,"US1HIHI0055",NA,NA,NA,NA,0.5,40.1,0.3,0,0,1.3,0,0.3,2.5,0.3,0,0.3,0,19.1,52.8,141,111.3,8.4,19.3,0.5,0.8,21.1,31.2,70.4,66.3,17.5,53.3,15
66.6,"PAHOA 3.3 SEE","COOP","COOP","BI",254.2,19.459069,-154.921985,"US1HIHI0052",NA,NA,NA,NA,NA,NA,NA,NA,NA,NA,NA,NA,NA,NA,NA,NA,NA,NA,NA,NA,221,NA,NA,0.5,18,NA,NA,NA,34.3,NA,24.4,16.8
67.14,"PAHOA 3.0 SSE, HI US","CoCoRaHs","CoCoRaHs","BI",284.69,19.4573,-154.9338,"US1HIHI0056",NA,NA,NA,NA,28.7,2.8,0.5,0.3,0,0,0.8,0.3,4.3,0.5,0,1.3,0.8,4.3,54.4,171.5,215.6,5.1,18.8,0.8,20.6,36.1,32,33.8,41.1,5.3,24.4,16.5
67.7,"PAHOA 2.7 SSE","PAHOA 2.7 SSE","CoCoRaHS","BI",259,19.4654,-154.927,"US1HIHI0051",NA,NA,NA,NA,14.7,7.4,0.5,0.3,0,0,0.3,0.3,2.5,0.3,0,0.8,0.3,3,58.4,174.8,212.3,8.9,15.7,1,15,44.7,32.3,25.7,46.5,1.8,30,13
68.14,"HONOKOHAU HARBOR 68.14","COOP","COOP","BI",9,19.67944,-156.02333,"USC00511880",NA,NA,NA,NA,0,0,0,0,0,10.7,2.5,0,0,0,0,0,0,0,5.1,36.8,12.7,25.4,38.1,0,0,0.5,6.9,NA,NA,0,NA,NA
68.21,"KAILUA KONA KE AHOLE AIRPORT","KAILUA KONA KE AHOLE AIRPORT","NWS","BI",27,19.73556,-156.04889,"USW00021510","HKO",NA,NA,NA,0,0,0,0,1.5,0.8,0.8,0,0,0,0,0,0,0,48,0,0,41.9,1.5,0,0,3.8,1.3,0,0,0,0,0
68.22,"HOLUALOA 4.0 NW","HOLUALOA 4.0 NW","CoCoRaHS","BI",416,19.6799,-155.9699,"US1HIHI0049",NA,NA,NA,NA,0,0,NA,NA,NA,7.1,0,3,0,NA,NA,NA,0,0,0,36.6,NA,NA,NA,NA,NA,NA,NA,NA,NA,NA,1.3,1.3
69.25,"Palamanui","Hilo Forest Service","HIPPNET","BI",297,19.73756,-155.99582,NA,NA,NA,NA,NA,0,0,0,0,23.11,0,1.016,0,0,0,0,0,0,0,56.136,0.254,0,39.624,2.54,0,0,4.572,1.524,0.254,0,0.762,0,0
69.26,"KALAOA 2.2 ESE","KALAOA 2.2 ESE","CoCoRaHS","BI",398,19.7189,-155.9859,"US1HIHI0038",NA,NA,NA,NA,0,NA,NA,NA,NA,25.9,0,NA,NA,0,0,NA,NA,NA,NA,48.3,0.5,NA,49.3,NA,NA,NA,NA,NA,NA,NA,NA,NA
69.27,"KALAOA 1.7","KALAOA 1.7","CoCoRaHS","BI",304.5,19.7238,-155.9926,"US1HIHI0006","","",NA,NA,0,0,0,0,1.3,17,0,0,0,0,0,0,0,0,0,53.3,0,1.3,36.8,0,0,1,6.1,0,0.5,0,1,0.3
70.16,"Waiaha Stream","NWS","HydroNet-UaNet","BI",460.5528,19.6331997,-155.9486,NA,"WIHH1","9321011E",NA,NA,0,0,0.254,6.604,8.636,0.254,1.27,0,0,0,0,0,0,0,37.592,0,0.762,42.164,1.016,0,0,7.62,1.778,0,0,3.302,0,0
70.7,"Puuwaawaa","Hilo Forest Service","HIPPNET","BI",1659,19.72544,-155.87389,NA,NA,NA,NA,NA,0,0,0,0,9.144,0.254,3.048,0.508,0,0,0,0,0,0.508,25.908,2.54,3.302,55.372,4.064,0,0,12.446,3.302,3.81,0.254,0,0,0
73.29,"Kainaliu Upper","NWS","HydroNet-UaNet","BI",713.232,19.5310993,-155.9066,NA,"KNUH1",NA,NA,NA,0,1.74357927920816,4.41132104172422,0,1.59196368971179,2.1437760004492,0.303231178992723,0.284139554723795,0,0,0,0,0,0,6.44366255359536,12.5873097626769,1.01829829451778,19.7858344292752,0,0,0,3.1297845853438,9.88549396711988,4.09362091640176,5.00331445337993,0.454846768489084,0.227311643779036,0
73.34,"Kainaliu","SCAN","SCAN","BI",416,19.53333333,-155.9333333,NA,NA,NA,2096,NA,0,0,5.588,0,0.254,6.604,0,0.508,0,0,0,0,0,0,0,17.526,0.254,0,22.352,0.254,0,0,11.176,1.524,3.048,0,1.016,0.254
74.8,"KEALAKEKUA 4 74.8","COOP","COOP","BI",433,19.5106,-155.9217,"USC00513987",NA,NA,NA,NA,0,0,5.17506388250234,0,1.86758427123285,3.3,0,1,0,0,0,0,0,0,0,20.1,1.19459877794633,23.211404513894,0,0,0,0.5,16.5,4.80235955459876,5.86955056673181,0.533595506066528,0.8,0
75.1,"PTA KIPUKA ALALA","RAWS","RAWS","BI",1641.348,19.66694444,-155.7077778,"USR0000HPTK","PKAH1","32666200",NA,NA,0,0,0,0,2.544,0.5,0,0,0,0,0,0,0,0,13.97,2.29,NA,11.69,3.3,0,0.509999999999998,5.33,3.05,0.25,1.02,0.25,0,0
79,"KULANI CAMP 79","DEPT SOCIAL SVC","COOP","BI",1576,19.54863532,-155.3005575,"USC00515011",NA,NA,NA,NA,0,0.104742918442054,0.418971673768217,0.890314806757462,9.58382646010728,7.27938300400269,1.1521721028626,1.30928648052568,0.856565385281072,0.104742918442054,1.91972358707516,0.922976108788118,0.191465432781265,4.95857479052274,8.05076942794797,23.543607001402,7.37827447561114,13.7160781894046,13.0423587283723,11.8221200834825,6.50372350510807,36.9727849151987,29.4832144729471,81.6037864231003,38.5039582622589,59.9867511811655,56.1579222034565,24.8725710200173
79.6,"Kulani NWR","NWS","HydroNet-UaNet","BI",1623.3648,19.5543995,-155.3089,NA,"KNWH1",NA,NA,NA,0,0,0,0,0.508,1.27,0,0.254,0.254,0.508,1.524,0.508,0.254,0.254,3.556,114.554,5.842,19.304,2.032,2.54,2.286,22.098,17.526,114.3,22.098,72.136,48.006,27.686
83,"QuarryRainGageatSaddleRd","USGS","USGS","BI",1286.256,19.68586111,-155.2942222,NA,"SDQH1","DDF6B6E4",NA,NA,0,0.508,2.032,4.318,33.782,19.304,5.588,6.35,0,0.508,8.636,1.778,0.254,0,14.986,23.622,13.462,28.448,45.466,5.08,4.318,48.006,65.278,183.896,76.454,155.702,154.94,85.344
85.2,"Waiakea Uka","NWS","HydroNet-UaNet","BI",303.8856,19.6585999,-155.1277,"USC00519084","WKAH1",NA,NA,NA,0,0.254,0,0,12.446,9.652,0,0,0,0,0,0,0,0,12.954,32.258,11.938,4.318,17.78,2.032,6.096,11.684,57.658,88.138,30.226,64.262,27.686,14.986
87,"HILO INTERNATIONAL AIRPORT 87","NWS","HydroNet-UaNet","BI",11.6,19.7191,-155.053,"USW00021504","HTO",NA,NA,NA,0,0,0,0,2.794,4.064,0,0.508,0,0,0,0,0,5.334,31.242,22.352,24.892,5.842,4.318,0,17.272,19.05,32.766,90.424,30.48,15.494,1.524,7.874
87.5,"HILO 5 S","HILO 5 S","USCRN","BI",189,19.645,-155.0827,"USW00021515",NA,NA,NA,NA,0.2,0,0,0,3,0,0,0,0,0,0,0,0,0.2,22.9,41.6,9.3,10.5,0.3,45.7,19.4,42.9,60.7,80.8,27,54,20.3,14.5
87.8,"HILO 0.4 SW","HILO 0.4 SW","CoCoRaHS","BI",107,19.692,-155.0925,"US1HIHI0039",NA,NA,NA,NA,0,0,0,0,0,9.4,5.3,0,0,0,0,0,0.3,0.5,0,23.9,17.3,9.9,4.8,11.9,50.5,50.3,39.1,65.3,89.9,40.9,58.2,12.4
87.9,"IPIF","Hilo Forest Service","HIPPNET","BI",111,19.69748,-155.0954,NA,NA,NA,NA,NA,0,0,0,0,8.128,5.334,0,0,0,0,0,0,0,0.254,13.97,21.59,8.636,3.302,8.382,40.646,10.16,71.628,62.484,76.708,60.452,49.53,13.208,10.16
88.1,"KAUMANA 88.1","HILO SUGAR","COOP","BI",343,19.68362898,-155.1405634,"USC00513510",NA,NA,NA,NA,0,0.109621375131237,0,0,11.5168603884341,8.66444717131705,0,0,1.55236347338085,0,0,0,0,0.326813362817021,11.8325266773853,23.1529165546552,11.3789543114741,3.69011060129198,10.8146570335079,22.2883974431608,15.049445205809,63.5307460919291,69.3196070569528,104.942215181984,82.3315587282647,80.9466118392854,51.9255771276712,17.7798893122933
88.2,"WAIAKEA SCD 88.2","SHINICHI KANESHIRO","COOP","BI",287,19.65529741,-155.1205634,"USC00519025",NA,NA,NA,NA,0,0.109919826163757,0,0,11.5482157593205,8.68803666927216,0,0,1.55658987978126,0,0,0,0,0.327703132585528,11.8647414694362,23.215951814369,11.4099342244627,3.70015715761141,10.8441006119536,22.3490789956605,15.0904182592408,63.7037125115274,69.5083340116663,105.227926909633,82.5557115331533,81.1669940398691,52.0669477507763,17.8282961701437
89.11,"Piihonua","NWS","HydroNet-UaNet","BI",296.8752,19.7098007,-155.1395,"USC00518053","PIIH1",NA,NA,NA,0,0,0,0,9.906,4.064,0,0,0,0,0,0,0,0,13.462,10.922,5.588,2.794,4.572,4.064,23.876,63.5,67.818,91.694,82.296,78.994,26.924,13.208
89.13,"KAIWIKI HOMESTEAD 89.11, HI US","COOP","COOP","BI",379.67,19.7509,-155.1362,"USC00512802",NA,NA,NA,NA,0,0,0,0,0,6.6,16.3,1.3,0,0,0,0,0,0,0,12.2,6.6,0,0,3,6.4,80,21.3,145,106.9,96.5,71.1,32.3
89.14,"HILO 1.8 WNW","COOP","COOP","BI",151.5,19.70799,-155.11258,"US1HIHI0066",NA,NA,NA,NA,NA,NA,NA,NA,NA,NA,NA,NA,NA,NA,NA,NA,NA,NA,NA,NA,NA,NA,NA,NA,NA,NA,NA,NA,NA,45.7,63.2,12.7
89.2,"AMAUULU 89.2","HILO SUGAR","COOP","BI",390,19.73529295,-155.1455638,"USC00510150",NA,NA,NA,NA,0,0,0,0,4.11160026623825,5.98050947816472,0,0.74756368477059,0,0,0,0,0,7.8494186900912,45.9751666133913,32.892802129906,36.6306205537589,8.59698237486179,6.35429132055002,0,25.4171652822001,28.0336381788971,48.2178576677031,133.066335889165,44.8538210862354,22.800692385503,2.24269105431177,11.5872371139441
91,"MOUNTAIN VIEW 91","PU SUGAR","COOP","BI",463,19.5487,-155.1101,"USC00516552",NA,NA,NA,NA,0,0.757435512773199,0,0,38.6,0,0,1.5,0,0,1.8,0,0,0.0750693548739351,57.2,31.2101833838538,17.789876470263,11.7,0,0,11.4265306029586,30.616098074832,52.5483307276881,96.8268431188143,56.3796878919141,67.9263897820676,30.3202660950776,17.3546594545561
91.11,"PUNA MACADAMIA O 91.11","COOP","COOP","BI",244,19.61861,-155.08667,"USC00518315",NA,NA,NA,NA,0,0,0,0.0586175657116525,12.0728368901719,15.7,0.254009451417161,0,0,0,0.516477337900852,0,0,2,5.1,35.6,9.31894502416804,3.99136092069412,5.11054724138696,0,15.7,24.9,26.2,57.9631313382437,42.680835621287,52.8959731563595,69.1,15.1432320779074
91.12,"HAWAIIAN BEACHES 91.12","COOP","COOP","BI",88,19.533,-154.917,"USC00511300",NA,NA,NA,NA,16.6144208512972,0.408381933664701,0.0941631160843318,0,0.950023292167619,2.20740378614219,1.63250244276102,0.443564940709102,0.408381933664701,0,0,0.0941631160843318,2.27680481258544,24.4912021350362,66.8545334578355,144.294605638167,46.5543622696341,15.2829999462906,4.45678475162956,6.07468126326243,12.3937408930589,29.3659678623902,24.1863623438334,54.8267660263695,31.0419186147133,18.4979408493161,3.53141423769914,10.3488056556173
91.14,"KURTISTOWN 91.14","COOP","COOP","BI",223,19.59,-155.083,"USC00515102",NA,NA,NA,NA,0,0,0,0,18.677341482833,7.46079889977333,0,0.242944952125236,1.43245174641828,0,0.741856126930224,0,0,10.8432476510059,23.2372506639207,41.9169187608614,20.8926598832485,8.10598105615608,8.19888169301768,18.0187351259983,17.6475461123215,54.3878060186165,40.2016671825633,93.2497763488818,54.429179357971,56.5426145558373,59.1828575564459,15.9330496573421
91.15,"Mountain View","Mountain View","HydroNet-UaNet","BI",346.5576,19.5674992,-155.0841,NA,"MTVH1",NA,NA,NA,3.302,2.286,0,0,38.354,0.254,0,1.524,0,0,1.778,0,0,2.54,56.134,63.246,30.734,11.43,0,0,0,29.718,48.514,100.584,34.29,86.106,23.368,12.7
91.16,"MOUNTAIN VIEW 4.5 NNE, HI US","CoCoRaHs","CoCoRaHs","BI",482.19,19.5808,-155.1216,"US1HIHI0060",NA,NA,NA,NA,0,3.6,0,0,0,36.6,0,0.3,0.3,0,0,0,0,0.5,0,40.4,75.7,8.1,7.4,0,8.6,27.4,57.2,68.6,119.1,33.3,123.2,25.4
91.17,"PAHOA BEACON 91.9, HI US","COOP","COOP","BI",148.5,19.5407,-154.9728,"USC00517460",NA,NA,NA,NA,NA,0.3,0,0,0,0,3.3,0.5,0,0,0,0.5,NA,NA,NA,NA,NA,NA,0,0,NA,NA,44.2,NA,NA,NA,9.1,NA
91.6,"KURTISTOWN 6.1 SSE","KURTISTOWN 6.1 SSE","CoCoRaHS","BI",295,19.5145,-155.0206,"US1HIHI0037",NA,NA,NA,NA,17.8,18.5,NA,NA,NA,NA,NA,0.8,3.8,0.3,0.3,NA,NA,NA,NA,NA,125.5,1.5,17.3,0.3,NA,24.4,36.8,67.3,NA,12.7,63.8,15.2
91.8,"S GLEWNWOOD 91.8","COOP","COOP","BI",694,19.488,-155.149,"USC00518638",NA,NA,NA,NA,0,0.993073665014963,0,0,25.0780668891013,4.2728338767534,0,3.5098293776167,0.0984234276288682,0.393693710515473,1.4756239650575,0.0984234276288682,0,0.0984234276288682,46.9054218140726,40.9196699601719,23.3243061997511,14.3185147659629,7.6068205724893,1.4486430966144,14.9813237337388,40.1407647395786,68.8961139346386,126.949669438885,73.9194061316583,89.0582864343613,39.7528994448979,22.7536931910178
91.9,"Pahoa Beacon","NWS","HydroNet-UaNet","BI",187.1472,19.5149994,-154.9644,NA,"PHAH1",NA,NA,NA,36.83,0,0.254,0,0,0,3.302,0.508,0,0,0,0.254,2.286,48.26,22.0509413074076,55.118,97.79,10.668,0,0,15.748,9.906,23.622,57.658,39.5233309936725,42.7037592234152,8.128,9.906
92,"KEAAU 92","PU SUGAR","COOP","BI",87,19.62918887,-155.0333418,"USC00513872",NA,NA,NA,NA,0,0,0,0.291412608688768,1.17441619052524,6.1,0,0,0.938146110512297,0,0,0.0919042144597175,0,15.7,16.3,53.8,9.34228357923705,1.79618238700066,10.2,0,16,36.3,19.9815145598386,49.549909506097,39.5550985555503,55.1542678206848,52.3475694482997,14.5
92.5,"KiholoRainGage","USGS","USGS","BI",283.96692,19.82580556,-155.8925833,NA,"KIRH1","DD60236E",NA,NA,0,0,0,0,24.892,0,0,0,0,0,0,0,0,0,48.26,0,0,37.338,3.302,0,0,5.08,1.524,0,0,0,0,0
93.11,"KAPOHO BEACH 93.11","ARRUDA GENVIEVE","COOP","BI",4,19.48892483,-154.8200037,"USC00513368",NA,NA,NA,NA,5.8,0.8,0,0,0,0,0.8,0.5,0.8,0,0,0,2.8,1.8,98.6,204.5,3.6,18.3,1.5,11.9,1.5,24.6,8.4,5.3,0.5,4.6,0,2.8
93.12,"PUUANAHULU","RAWS","RAWS","BI",830.58,19.83277778,-155.7697222,NA,"PULH1","48703040",NA,NA,0,0,0,0,12.7,NA,20.07,0,0,0,0,0,0,0,NA,0,0.509999999999998,NA,NA,0,0,NA,NA,2.03,0,NA,9.61,0.5
93.13,"Mamalahoa","Hilo Forest Service","HIPPNET","BI",636,19.80256,-155.85062,NA,NA,NA,NA,NA,0,0,0,3.302,18.542,0.254,0.508,0,0,0,0,0,0,0,32.258,0,3.556,29.21,3.302,0,0,5.842,1.778,0.762,0,0,0.508,0.254
93.61,"PAHOA 4.7 NE, HI US","CoCoRaHs","CoCoRaHs","BI",53.95,19.5473,-154.8988,"US1HIHI0065",NA,NA,NA,NA,1,3,0.5,0.3,0,0,0,0,0.5,0,0,0,0,5.6,44.2,100.3,138.7,6.1,7.4,0.3,11.7,10.2,20.1,41.1,19.3,1,11.4,8.6
94,"KAUPULEHU LAVA FLOW","RAWS","RAWS","BI",372.1608,19.80333333,-155.9180556,NA,"KPLH1","4870E628",NA,NA,0,0,0,0,17.78,1.02,0,0,0,0,0,0,0,0.5,49.79,0.25,0,45.95,4.90000000000001,0,0,5.30000000000001,2,0,0,0,0,0
94.5,"PUU WAAWAA","RAWS","RAWS","BI",708.9648,19.795,-155.8452778,"USR0000HPUW","PWWH1","487046D0",NA,NA,0,0,0,3.048,22.86,0.25,3.05,0,0,0,0,0,0,0,27.43,0,5.59,27.43,4.06999999999999,0,0,5.3,2.10000000000001,0.700000000000003,0,0,0.5,0
95.11,"WAIKOLOA VILLAGE 2.7 ENE","WAIKOLOA VILLAGE 2.7 ENE","CoCoRaHS","BI",265,19.9465,-155.7883,"US1HIHI0047",NA,NA,NA,NA,0,0,0,0,0,77.2,0,25.4,0.3,0,0,0,0,0,0,16,NA,0,17.8,0,0,0,7.6,0,0,0,1,2.3
95.6,"WAIKOLOA","RAWS","RAWS","BI",297.7896,19.92416667,-155.7936111,NA,"WKVH1","4870C0C4",NA,NA,0,0,0,0,84.072,0.259999999999991,43.72,0,0,0,0,0,0,0,21.3,0,0,15.2,2.59999999999999,0,0,4.60000000000002,3,0,0,3,1.09999999999999,0
95.8,"WAIKOLOA 95.8","BOISE CASCADE","COOP","BI",268,19.93389178,-155.7877744,"USC00519142",NA,NA,NA,NA,0,0,0,0,0,74.9,0,65.5,0,0,0,0,0,0,0,22.6,NA,0,12.8538405790271,0,0,0,7.1,0,0,0,9.7,1
95.9,"WAIKOLOA BEACH RT 95.9","COOP","COOP","BI",24,19.91278,-155.87778,"USC00519144",NA,NA,NA,NA,0,0,0,0,0,15.2,15.2,2.5,0,0,0,0,0,0,0,0,26.4,0,34.3,0,0,0,6.4,0,0,0,7.6,0
98.1,"PUUKOHOLA HEIAU 98.1","ROSE FUJIMORI","COOP","BI",43,20.02666416,-155.81944,"USC00518422",NA,NA,NA,NA,0,0,0,0,0,5.8,0,10.7,0,0,0,0,0,0,0,16.5,0,0,23.9,0,0,0,11.2,0,0,0,0,0
98.2,"PUHO CS","PUHO CS","RAWS","BI",29.5656,19.42194444,-155.9075,NA,"PERH1","32D6803A",NA,NA,0,0.254,0,0,1.27,2.028,4.07,0,0,0,0,0,0,0,9.14,0,5.08,27.43,0,0,0,14.99,4.83,0.5,0,0,0,0
99,"PTA WEST","RAWS","RAWS","BI",1307.592,19.77166667,-155.7022222,"USR0000HPTW","PKWH1","32667176",NA,NA,0,0,0,0,NA,0,6.854,0,0,0,0,0,0,0,14.23,1.52,3.3,11.18,1.77999999999999,0,0,5.08000000000001,2.28,0,0,0,0,0
100,"Waikii","PARKER RANCH","STATE","BI",1417,19.82,-155.6508,NA,NA,NA,NA,NA,0,0,0,0,5.08,1.016,0.508,2.286,0,0,0,0,0,0,27.102078130289,2.794,0.378414941780076,19.558,2.032,0,0,4.318,3.556,0,0,0.508,0,0.38598324061567
101.1,"PTA KEAMUKU","RAWS","RAWS","BI",1025.9568,19.90222222,-155.6786111,NA,"PKMH1","328FB7BE",NA,NA,0,0,0,0,10.924,0.25,6.61,0.25,0,0,0,0,0,0,35.81,0.770000000000003,0.5,17.02,1.53,0,0,3.3,2.79000000000001,0,0,2.03,0,0.509999999999991
102.8,"AUHMOA","RAWS","RAWS","BI",2001.9264,19.83638889,-155.6130556,NA,"AHMH1","4870D3B2",NA,NA,0,0,0,0,2.54,0,1.016,3.812,0,0,0,0,0,0,12.95,1.27,0,12.96,5.33,0,0,4.83,4.31,0,0,1.52999999999999,1.01000000000001,1.52999999999999
103.3,"Mana House","Mana House","SCAN","BI",1288,19.96,-155.54,NA,NA,NA,2097,NA,0,0,0,0,0,11.684,0,1.016,6.35,0,0,0,0,0,0,59.69,0,34.544,137.668,0,0,0,1.27,1.016,0,0.254,1.778,0.254
104.1,"Silversword","Silversword","SCAN","BI",2835,19.77,-155.42,NA,NA,NA,2101,NA,0,0,0,0,0,3.048,0,0.762,0,0,0,0,0,0,0.254,3.048,0.254,2.794,21.082,0,0,0,34.798,19.812,65.024,12.7,34.798,7.62
107.4,"PTA EAST","RAWS","RAWS","BI",1959.864,19.68277778,-155.5452778,"USR0000HPTA","PTAH1","3266D18E",NA,NA,0,0,0,0,2.79,2.29,0.510000000000005,0,0,0,0,0,0,0,4.05999999999999,0.510000000000005,0,3.05,0.5,0,1.27000000000001,5.86999999999999,4.30000000000001,5.09999999999999,0,2.5,0.799999999999997,0.200000000000003
109,"PTA RANGE 17","RAWS","RAWS","BI",1734.312,19.74583333,-155.6261111,NA,NA,"3279630C",NA,NA,0,0,0,0,2.286,0.508,3.048,2.032,0,0,0,0,0,0,10.16,2.03,1.02,11.68,2.29,0,0,NA,2.54,0,0,0,0,0
113.2,"PUU MALI","RAWS","RAWS","BI",2165,19.92666,-155.44,NA,"PMLH1","3181742E",NA,NA,0,0.510000000000002,0,0,10.16,0.760000000000005,3.31,6.85,0,0,0,0.259999999999998,0,0,16.25,6.1,1.27,12.95,2.54000000000001,0,0,3.81,3.80999999999999,2.04000000000001,5.8,14.3,0,0
125.12,"Pua Akala","SCAN","SCAN","BI",1949,19.8,-155.3333333,NA,NA,NA,2098,NA,0,0,0,0,0,0.254,0,2.54,1.016,0,0,1.016,2.032,0,0.254,7.874,7.112,4.572,12.7,6.096,0,0.508,40.894,21.844,84.836,23.368,53.848,30.226
127.5,"Laupahoehoe","Hilo Forest Service","HIPPNET","BI",1145,19.93217,-155.29129,NA,NA,NA,NA,NA,0,4.572,0.254,0,0.254,4.064,1.27,8.636,0,0,6.35,0.254,0,1.016,5.842,6.096,1.016,6.604,1.016,0,4.318,9.144,4.064,49.784,6.35,48.006,42.926,17.78
128.1,"Hakalau","Hilo Forest Service","HIPPNET","BI",1665,19.83873,-155.30797,NA,NA,NA,NA,NA,0,0.91287795955078,0.394274780240285,0.740346179163127,7.30307857275144,4.1594725306024,2.45978590120652,2.84132197516875,0,0.0870995504897796,2.74327117484753,0.813382442963796,0.159214134736995,0.569054178098337,5.47522779178895,8.96809083976208,4.65071244495639,12.3547960618088,11.6801755857072,0.870995504897797,1.52024800994296,20.36936626669,19.2902817114325,65.6595674166922,18.881971185425,50.9428192651942,41.8366879958865,21.9694471171829
129,"HAKALAU","RAWS","RAWS","BI",1950.72,19.82111111,-155.3305556,"USR0000HHAK","HKUH1","8374D370",NA,NA,0,0,0,0,3.79999999999995,0.300000000000011,3.30000000000001,0.5,0,0,0.300000000000011,1.19999999999999,0.300000000000011,1,4.80000000000001,9.89999999999998,5.60000000000002,16.3,9.60000000000002,0,0,27.2,19.1,65.2,12,40.4,19.5,10.7
132.2,"Spencer","Hilo Forest Service","HIPPNET","BI",454,19.96358,-155.25014,NA,NA,NA,NA,NA,0,15.748,0,0,0.254,1.778,0,17.78,0,0,0.762,0.762,0,0,0,0,0,0,0,0,0,0,0,0,0,0,0,0
132.3,"POHAKUPUKA","COOP","COOP","BI",82,19.9522,-155.185,"USC00518067",NA,NA,NA,NA,0,0,0,0.243685394512745,1.21127513350241,2.1544856732813,0.243685394512745,0.093725151735671,3.19041007590966,0,0,0,0,0.403082989564423,0,22.3961807170595,13.3431937960871,1.5681895451968,2.66835077869624,12.6320478852647,1.01988732873129,38.2070602436712,21.6328727771339,49.1800491354692,27.973298291254,33.1881244676252,41.8892527553597,10.4492766769767
132.4,"KAPEHU MAUKA 132.4","COOP","COOP","BI",335,19.95,-155.217,"USC00513329",NA,NA,NA,NA,0,0,0,0.380609879896942,1.89187901066591,16.4010121897451,0.380609879896942,0.146388415344978,4.84892500063446,0,0,0,0,0.405994971474139,0,34.9803798045204,9.81211149483614,2.44934020623783,1.9604195483617,106.897034957279,2.97308239909369,36.8257242976398,19.7028580297472,52.7570173705608,43.6912262396533,51.8362132161635,65.4264220146203,12.3409636001709
132.5,"KIHALANI 132.5","COOP","COOP","BI",302,19.97278,-155.23944,"USC00514459",NA,NA,NA,NA,0,4.65564923270966,0,0.297470731964384,0.372561848620991,11.3547582350053,0.297470731964384,5.37078998594882,2.60858949568767,0,0.225273349969822,0.225273349969822,0,0.0686470919917809,0,24.1689206113318,4.90240307898136,1.51023602381918,0.75511801190959,68.6891486148955,1.29791448265889,6.68165028720001,5.51464972333973,22.676422721285,10.462243900589,27.8936017126603,30.2160599076562,5.69770863531781
133.1,"LAUPAHOEHOE 133.1","BARNARD EW","COOP","BI",140,19.98027372,-155.2305601,"USC00515427",NA,NA,NA,NA,0,0,0,0.204264161662195,1.01532592949141,9.19392106519389,0.204264161662195,0.0785631391008442,2.60230133932846,0,0,0,0,4.57154675475567,4.69731621669498,32.1000926697115,5.26592407210078,1.31450193565166,3.45794158986243,47.1667624725901,5.50210119446265,15.0489817201781,7.9167063003975,28.3134214169989,23.4480295210745,27.819247990119,35.1127859502545,8.09103850771757
133.3,"Laupahoehoe","NWS","HydroNet-UaNet","BI",499.872,19.9792,-155.2372,NA,"LPHH1","B159741A",NA,NA,0,3.0236511207612,0,0,4.88526212728948,3.27236787799586,0,3.35371633548031,0,0,0.143730700092013,0.143730700092013,0,0.254,5.74420322678859,9.2169416302524,3.75898241210294,1.53358296679749,3.302,1.34049667866025,6.65143498669181,16.7411450808258,27.3452953051808,39.1055289023929,24.8567416985745,31.2445277802682,11.8609230189276,6.11276372801214
137.4,"WAILEA 137.4","WAILEA 137.4","COOP","BI",61,19.8875,-155.12528,"USC00519432",NA,NA,NA,NA,0,0,0,0,0,0,0,0,0.3,0,0,0,0,0.5,0,8.71264414803459,25.4,2.15697142740755,2.41054325344571,0.3,0.3,51.1,31.5,53.8,47.5003084375419,66.2327949821706,57.4831286589993,8.9
138.2,"KAHUNA FALLS 138.2","COOP","COOP","BI",424,19.86139,-155.16361,"USC00512595",NA,NA,NA,NA,0,0,0,1.3,1.3,2.8,1.3,0.5,11.4,0,0,0,0,0.3,0,11.4,20.3,6.6,3.3,2,0.5,29.2,24.1,99.1,40.1,121.9,86.4,24.9
138.3,"HONOMU 2.8 SW","HONOMU 2.8 SW","CoCoRaHS","BI",385,19.8494,-155.15,"US1HIHI0014",NA,NA,NA,NA,0,0,0,0.3,0,4.1,1.3,0,14,0,0,0.5,0.5,0,0,14.5,18.8,1.5,4.3,1.5,1,31.2,21.3,91.4,73.2,125,84.6,26.4
140.1,"PAPAIKOU MAUKA NO 2 140","MAU KEA SUGAR","COOP","BI",427,19.78695738,-155.1388973,"USC00517724",NA,NA,NA,NA,0,0,0,0,3.8,6.4,0,0,3.8,0,0,0,0,0.8,0,10.2,8.9,1.3,2.5,47.8,3.3,71.1,31.8,59.7,76.2,40.6,67.3,12.7
140.5,"KAUKU 140.5","COOP","COOP","BI",457,19.835,-155.149,"USC00513473",NA,NA,NA,NA,0,0,0,0.431761041337055,7.21852689956176,5.89829303404504,0.431761041337055,0.16606193897579,5.50058476728481,0,0,0,0,0.46055770204585,6.89325243277332,13.9805878427801,13.618705781448,4.20918850302065,4.5649900803637,24.3102318073582,13.8806276266233,74.2901717736522,57.0771617675619,106.799324865384,89.8357316098358,99.251703089359,72.8444482353674,20.7626891783451
144.1,"PAPAIKOU 144.1","MAU KEA SUGAR","COOP","BI",61,19.78362447,-155.0922318,"USC00517711",NA,NA,NA,NA,0,0,0,0.0524059283144621,0.891588017390797,3.6,0,0,0,0,0,0.0873432138574368,0,1.5,0,15.7,12.0728754714913,1.7070418726393,4.5689883079972,11.477268386646,3.6,33.6318016709016,18.9898766847132,44.1662185960563,37.5920674867824,52.4170848718141,40.1,13
144.11,"PEPEEKEO 0.2 SSE","PEPEEKEO 0.2 SSE","CoCoRaHS","BI",178,19.8313,-155.1077,"US1HIHI0002",NA,NA,NA,NA,0,0,0,0.285518563766446,1.41921323243495,2.52434355501963,0.285518563766446,0.109814832217864,3.73810381422792,0,0,0,0,0.472279746142522,4.08289405487906,15.714060101946,15.6338033156801,3.19836338320103,7.07460188052781,14.8005758689043,1.19497012073789,44.7660188593722,25.3465611996146,57.622727136353,41.0674638524169,59.1398453893785,47.7805176037475,12.2430910361867
144.12,"PAPAIKOU 1.1 N","PAPAIKOU 1.1 N","CoCoRaHS","BI",108,19.8095,-155.0988,"US1HIHI0011",NA,NA,NA,NA,0,0,0,0.337415889091569,1.67717674225999,2.98318124661853,0.337415889091569,0.129775341958296,4.41756082461256,11.9,0,0,0,0.558123746289827,5.50530991211901,15.0632842092899,18.4754839617291,3.47262882322855,5.04112481812275,17.4908048009046,1.4121740471364,52.9029211105191,29.9536827650115,68.0965309299386,61.0966906554346,65.4723414316586,51.3580692178462,14.4684583471887
147.1,"MIDDLE PEN 147.1","KAHUA RANCH","COOP","BI",421,20.10027112,-155.8322151,"USC00516270",NA,NA,NA,NA,0,0,0,0,0,0,33,2.5,0,0,0,0,0,0,0,0,0,0,61,0,0,0,0,0,0,0,0,0
147.2,"KOHALA RANCH","KOHALA RANCH","RAWS","BI",328.8792,20.08305556,-155.8325,NA,"KHRH1","4870B654",NA,NA,0,0,0,0,9.906,0.25,9.66,0,0,0,0,0,0,0,29.21,0,0.25,37.85,2.54000000000001,0,0,3.25999999999999,3.10000000000001,0,0,0,0,0
160.3,"Upolu Airport","NWS","HydroNet-UaNet","BI",34,20.265,-155.8582,NA,"UPLH1","B15017A0",NA,NA,0,0,NA,NA,NA,NA,NA,NA,NA,NA,NA,NA,NA,NA,NA,NA,NA,NA,NA,NA,NA,NA,2.6488680719421,NA,NA,NA,NA,NA
168,"HAWI 168","KOHALA SUGAR","COOP","BI",183,20.23692665,-155.8272119,"USC00511339",NA,NA,NA,NA,0,0,NA,NA,NA,21.5511340316084,NA,NA,NA,NA,NA,NA,NA,NA,NA,NA,NA,NA,NA,NA,NA,NA,5.6,NA,NA,NA,NA,NA
175.1,"KOHALA MISSION 175.1","BOND ESTATE","COOP","BI",163,20.2252605,-155.7922137,"USC00514680",NA,NA,NA,NA,0,0,NA,NA,NA,NA,NA,NA,NA,NA,NA,NA,NA,NA,NA,NA,NA,NA,NA,NA,NA,NA,6.54537131912675,NA,NA,NA,NA,NA
176.3,"Kahua Ranch HQ","KAHUA RANCH","HydroNet-UaNet","BI",987.552,20.1249008,-155.7884,NA,"KASH1","15D293C2",NA,NA,0,0,0,0,8.128,0.254,9.398,2.794,0.508,0,0.508,0,0,0,60.452,0.254,0.508,95.758,1.524,0,0,0,6.604,2.032,0,5.334,7.112,0
178.12,"PONOHOLO RCH 178.11","PONOHOLO RCH 178.11","COOP","BI",762,20.12554592,-155.7774941,"USC00518101",NA,NA,NA,NA,0,0,0,0,0,54.6,0,5.8,0,0,0,0,0,0,0,54.4,0,0,106.4,0,0,9.4,0,0,0,0,14.5,0
179.3,"POLOLU LOOKOUT 179.3","POLOLU LOOKOUT 179.3","COOP","BI",149,20.20694,-155.73778,"USC00518086",NA,NA,NA,NA,0,0,NA,NA,NA,30.5,NA,NA,NA,NA,NA,NA,NA,NA,NA,NA,NA,NA,NA,NA,NA,NA,7.92533700312441,NA,NA,NA,NA,NA
185.7,"KawainuiRainGagenearKamuela","USGS","USGS","BI",1237.488,20.08533333,-155.6811667,NA,"KWSH1","DDF6A592",NA,NA,0,0,0,0,16.002,2.032,0.254,3.81,1.016,2.54,1.016,0.254,0,0,31.75,2.794,2.54,34.036,0.762,0,0,2.794,3.302,3.556,0.254,15.748,22.606,0.254
189,"Waimea Plain","SCAN","SCAN","BI",927,20.01666667,-155.6,NA,NA,NA,2099,NA,0,0,0.254,0,0,21.59,1.27,4.318,0.254,0,0,0,0,0,0,48.514,0.508,0.254,22.352,0,0,0,3.048,2.286,3.556,0.254,0.254,0
191.1,"LALAMILO FLD OF 191.1","DOWALD","COOP","BI",799,20.01083015,-155.6763867,"USC00515260",NA,NA,NA,NA,0,0,NA,NA,NA,38.4,6.6,1.5,0,NA,NA,NA,0,0,1.3,24.4,NA,NA,NA,NA,0.3,0.8,6.1,NA,NA,NA,0.3,0
192.7,"Kamuela Upper","NWS","HydroNet-UaNet","BI",948.5376,20.0319996,-155.6667,"USC00513080","KUUH1","817075F6",NA,NA,0,0,0,0,25.146,1.524,0.508,0,0.254,0,0,0,0,0,25.654,0.508,0,27.686,1.27,0,0,2.54,3.302,0.508,0,3.048,4.826,0
199,"KUKUIHAELE HIC 199","HONOKAA SUGAR","COOP","BI",299,20.11526922,-155.5822202,"USC00514928",NA,NA,NA,NA,0,0,0,0,0,25.4167582289984,0,0,0,0,0,0,0,0,0,53.7859681714662,0.64183732901511,0,0,170.215259654807,2.95245171346951,0,0,0,3.20918664507555,0,26.0585955580135,0
201.3,"Kamuela 1","NWS","HydroNet-UaNet","BI",877.824,20.0394993,-155.6084,NA,"KMUH1","81706680",NA,NA,0,0,0,0,28.702,2.286,1.016,2.286,0,0,0,0,0,0,25.908,0.254,4.572,20.828,1.524,0,0,2.54,3.048,0.254,0,0.254,0,0.254
206.1,"KUKUIHAELE 206.1","COOP","COOP","BI",226,20.12167,-155.57417,"USC00514927",NA,NA,NA,NA,0,0,0,0,0,14.5188244488581,0.986892894667175,1.45377942871511,30.0671290390928,0.110240968877755,0,0,0,0,0,40.5513152739639,0.132450301156566,85.4925975130691,40.8194260340073,35.1258198667212,0.609271385320202,0,1.45350674809134,0,0.84598645391242,0.55147752501254,8.26994275693887,0
214,"HAINA 214","HONOKAA SUGAR","COOP","BI",140,20.09193527,-155.4738903,"USC00510840",NA,NA,NA,NA,0,0,0,0,0,18.5505324052132,0,0,0,0,0,0,0,0,0,39.2559246352745,0.468447788010435,0,0,124.232353380367,2.154859824848,0,0,0,2.34223894005218,0,19.0189801932237,0
215,"HONOKAA TOWN 215","HONOKAA SUGAR","COOP","BI",326,20.08026947,-155.4672231,"USC00511856",NA,NA,NA,NA,0,0,0,0,0,10.7,1.8,4.1,25.1,0,0,0,0,0,0,30.2,0,10.2,144.3,0,0,0,2.8,0,0,1.3,3.6,0
215.5,"Honokaa","NWS","HydroNet-UaNet","BI",591.9216,20.0656,-155.49,NA,"HNKH1","B15047DC",NA,NA,0,0,0,0,0,8.67565633685972,0.367294072522115,0.836614276300374,12.2002825002328,0,0,0,0,0,0,21.7021274470944,0.0955418842323595,2.08133307762532,70.3739073244646,25.3377076984217,0.439492667468854,0,0.966797212753645,0,0.675434860021419,0.265267941265972,5.97789417300942,0
216.6,"HONOKAA 2.5 SSW","HONOKAA 2.5 SSW","CoCoRaHS","BI",757,20.0417,-155.4777,"US1HIHI0033",NA,NA,NA,NA,0.3,0.3,0.3,0.3,0.3,23.1,2,4.6,4.8,0.5,0.5,0.3,0.3,0.3,0,41.1,0.5,0,104.4,0.3,0.3,0.3,3.8,0.3,0.3,2,1.8,0.5
216.8,"KALOPA 216.8","COOP","COOP","BI",396,20.06111,-155.43528,"USC00512982",NA,NA,NA,NA,0,0,0,0,0,13.7,0,0,35.8,0,0,0,0,0,0,38.1,0,0,207,0,0,0,2,0,1,0,6.9,0
216.9,"HONOKAA 2.7 ESE","HONOKAA 2.7 ESE","CoCoRaHS","BI",333,20.0606,-155.43,"US1HIHI0034",NA,NA,NA,NA,0,0,0,0,0,13,0,0,51.6,0,0,0,0,0,0,40.9,0,0,225,0.5,0,0,2.8,0.5,3,5.8,9.9,0
217,"PAAUHAU 217","PAAUHAU SUGAR","COOP","BI",122,20.08360173,-155.4372236,"USC00517204",NA,NA,NA,NA,0,0,0,0,0,17.3054996052632,0,0,0,0,0,0,0,0,0,36.621234013158,0.437007565789476,0,0,115.894406447369,2.01023480263159,0,0,0,2.18503782894738,0,17.7425071710527,0
217.2,"PAAUHAU MAUKA 217.2","COOP","COOP","BI",341,20.07306,-155.44722,"USC00517209",NA,NA,NA,NA,0,0,0,0,0,17,1.3,0.8,62.5,0.3,0,0,0,0,0,56.9,0,224.8,0,0,0,0,1.8,0,0.5,0.5,5.1,0
221,"PAAUILO 221","HAMAKUA MILL","COOP","BI",244,20.03860487,-155.3688913,"USC00517312",NA,NA,NA,NA,0,0,0,0,0,19.8,0,0,0,0,0,0,0,0,0,41.9,0.5,0,0,132.6,2.3,0,0,0,2.5,0,20.3,0
221.7,"PAAUILO 2.4 SW","PAAUILO 2.4 SW","CoCoRaHS","BI",613,20.019,-155.3988,"US1HIHI0050",NA,NA,NA,NA,0,0,0,0,0,15.2,0.5,2.8,6.6,0.5,0,0.3,0,0,0,19.6,0.5,0,73.9,0.5,0,0,2,0.5,2.5,6.6,8.4,0.3
222,"KUKAIAU 222","HAMAKUA MILL","COOP","BI",256,20.02693892,-155.3422253,"USC00514815",NA,NA,NA,NA,0,0,0,0,0,28.2797672622928,0,0,0,0,0,0,0,0,0,59.8445579944478,0.714135536926585,0,0,189.38874439293,3.28502346986229,0,0,0,3.57067768463293,0,28.9939027992194,0
223,"OOKALA 223","LAUPAHOEHOE SUG","COOP","BI",131,20.01527222,-155.2838932,"USC00517131",NA,NA,NA,NA,0,0,0,0,1.55184258558609,16.6074170259388,0,0.282153197379289,0,0,0,0,0,2.96260857248253,17.3524216388263,42.7820650091987,14.1878852434767,3.24476176986182,2.39830217772396,96.1027972656331,11.2601501415968,10.5807449017233,18.1988812309641,50.2232691335134,18.741084702215,8.60567252006831,15.5590296109339,4.37337455937898
249.1,"MAKENA GOLF CRS 249.1","MAKE GC","COOP","MA",30,20.6420893,-156.4388486,"USC00515842",NA,NA,NA,NA,NA,NA,NA,NA,22.6,29.2,0,0,0,NA,NA,NA,0,28.7,1.3,0,2.5,16.5,0,0,0,2.3,0,NA,NA,NA,0,NA
250,"ULUPALAKUA RANCH 250","ULUPALAKUA RANCH","COOP","MA",579,20.648174,-156.398497,"USC00518760",NA,NA,NA,NA,0,0,NA,NA,NA,15.2,4.6,0,0,NA,NA,NA,0,0,26.4,36.8,NA,NA,NA,0,0,0,NA,NA,NA,NA,NA,NA
250.2,"Ulupalakua Ranch","NWS","HydroNet-UaNet","MA",581.5584,20.6487999,-156.3981,NA,"ULUH1","8170531A",NA,NA,0,0,0,0,36.83,4.318,0,1.27,0,0,0,0,0,11.43,54.102,0,4.318,21.082,0,0,0,1.778,1.778,0.254,0.254,0,0,0
253,"AUWAHI HN-141","HaleNet","HaleNet","MA",1166,20.64422222,-156.3420556,NA,NA,NA,NA,NA,0,0,0,0,29.718,2.032,0,0.254,0,0,1.27,0,1.016,16.256,42.164,5.588,0,28.442,0,0,0,2.54,3.048,4.572,0.508,0,0,0
255,"KepuniGulchRainGage","USGS","USGS","MA",225.552,20.6195,-156.2518889,NA,"KPNH1","F000D4EA",NA,NA,0.254,0,0,0,31.242,0.254,0,0.254,0,0,0,30.734,17.272,0,13.462,0.762,0,27.432,0.254,0,0,7.366,5.08,10.16,6.858,0.508,0.254,2.54
258.6,"OHE'O 258.6","HALEAKALA TL PK","COOP","MA",24,20.662925,-156.04248,"USC00517000",NA,NA,NA,NA,NA,0,0,0,2.5,19.8,1.3,1.8,1.3,0,0,0,6.1,0.5,14,24.1,2.5,3,27.7,2,0,8.6,14.2,0,9.7,8.9,NA,NA
266,"KAUPO GAP","RAWS","RAWS","MA",1228.344,20.68416667,-156.1519444,"USR0000HKAU","KPGH1","FA45A6E0",NA,NA,0,0.0525967559650839,0,0,86.4557298338449,2.06001802111509,65.9870421612002,0.788951339476258,0,0,0,0.262983779825419,1.01193208563187,37.7068227119842,148.691898913468,19.9529785842149,0.504186737455355,41.9133896651907,2.28847526812366,0,0.55856279878102,29.9339872307218,25.4063361391112,63.2808739919503,40.4529939417709,24.4177859509146,4.83683167032983,19.8442554406172
267,"KULA HOSPITAL 267","KULA SATORIUM","COOP","MA",916,20.70013977,-156.3555187,"USC00515004",NA,NA,NA,NA,0,0,0,0,11.4,21.1,1.8,2.8,5.8,0,0,0.3,0,0,46.2,50.8,2,13,72.4,0,0,0,5.3,0,1.5,1.3,0,0
267.8,"KULA 1","KULA 1","RAWS","MA",1998.5736,20.68305556,-156.3216667,NA,"KLFH1","AA10F12E",NA,NA,0,0,0,0,41.15,1.02,5.58000000000001,4.58,0,0,0,0,0.25,49.78,96.8,10.4,0.800000000000011,30.2,0.199999999999989,0,0,7.69999999999999,7.30000000000001,2.59999999999997,3.30000000000001,4.30000000000001,0,0.199999999999989
276,"BIG BOG HN-164","HaleNet","HaleNet","MA",1650,20.72655556,-156.09225,NA,NA,NA,NA,NA,0,0,0,0,36.318,2.032,16.508,3.048,0,0,0.762,13.208,10.16,14.226,45.212,22.606,6.096,71.634,0.508,0,8.382,138.948,127.512,265.186,253.22,208.54,69.596,59.182
277,"HORSHOE PU'U HN-163","HaleNet","HaleNet","MA",1930,20.73630556,-156.1071389,NA,NA,NA,NA,NA,0,0.215311504037744,0,0,40.101112274599,6.75468803995141,24.7102363796031,4.32692994399432,0,0,0.186421196320831,4.30785825641646,4.63873099132186,16.4302585799444,89.9572612078231,39.0858561483943,19.7949843998519,48.4820832209773,3.54327088985374,0,15.2959705206797,94.1202110107374,98.2243658192527,206.266041838156,170.674016592861,111.478656952706,34.8754843733478,70.7416031384037
278,"TREE LINE HN-162","HaleNet","HaleNet","MA",2195,20.73422222,-156.1228889,NA,NA,NA,NA,NA,0,0.28980921248237,0,0,33.2279636392379,7.29151153780733,17.8176052552796,3.93676793051736,0.202717682947029,0,0.133911399258655,3.22959649503645,3.53484391157259,9.15058681857747,61.0476188884097,17.0996335701235,2.18247445156937,65.8431628786268,0.398602447207803,0,2.4010099349513,59.7604358444901,56.0250151609586,112.944083702839,118.731743122824,89.2011132784401,29.1595979167318,56.4289084697725
278.1,"Lakes - Subalpine","Lakes - Subalpine","Little HaleNet","MA",2228,20.73492113,-156.1234398,NA,NA,NA,NA,NA,0,0.268730890202926,0,0,30.8112367164522,6.76118736770341,16.521700192077,3.65044003062746,0.187973677343138,0,0.124171792962886,2.99470238945629,3.27774863658996,8.48504890708084,56.6075206103027,15.8559478219578,2.02373933247916,61.0542764413539,0.369611405923593,0,2.22638035443675,55.4139566021617,51.9502194870798,104.729466315582,110.096179315496,82.7133629503429,27.0387702274973,52.3247369411486
278.11,"Puu Alaea - Cloud forest","Puu Alaea - Cloud forest","Little HaleNet","MA",1993,20.745673,-156.1425145,NA,NA,NA,NA,NA,0,0.191863080248078,0,0,21.9979875711616,4.827216675844,11.7958314631915,2.60626780943639,0.134205668404473,0,0.0886536812340243,2.13809742688488,2.34018109797576,6.05798469293496,40.4154999125625,11.3205109657338,1.44486873710513,43.5903052734659,0.263887723446208,0,1.58954630144484,39.5633430693271,37.0903736553257,74.7726395907502,78.6042574825129,59.0540245721152,19.304597763399,37.3577641004287
278.12,"Puu Alaea - Forest line","Puu Alaea - Forest line","Little HaleNet","MA",2033,20.74567736,-156.1424321,NA,NA,NA,NA,NA,0,0.2181198889582,0,0,25.0084518612003,5.48782998767067,13.4101122821245,2.96294026164157,0.152571956272645,0,0.100786097468561,2.43069991751901,2.66043910361783,6.88703082857282,45.9464339972026,12.8697433169698,1.64260163075175,49.5557172000406,0.300001234531915,0,1.80707858081279,44.9776579524256,42.1662582121443,85.005410230869,89.3613919445,67.135674385868,21.9464667985675,42.4702415221117
278.2,"Lakes - Forest line","Lakes - Forest line","Little HaleNet","MA",2182,20.735063,-156.1222481,NA,NA,NA,NA,NA,0,0.179806239018048,0,0,20.615615083538,4.52387022186051,11.0545712533377,2.44248769530145,0.125772068599703,0,0.0830826075406685,2.00373754286262,2.19312210199108,5.67729571659712,37.8757550849073,10.6091203053723,1.35407194108275,40.851052942214,0.247304791596938,0,1.48965784265683,37.0771485117327,34.7595826258763,70.0738625111253,73.6646982340862,55.3430187999799,18.0914802113304,35.010170025084
278.3,"Lakes - Cloud forest","Lakes - Cloud forest","Little HaleNet","MA",2143,20.73575551,-156.1214124,NA,NA,NA,NA,NA,0,0.311432261731563,0,0,35.7071460229427,7.83554087259827,19.1470003860885,4.23049540079024,0.217842717808758,0,0.14390270614775,3.47056096772879,3.79858329836933,9.83332422275561,65.6024626025322,18.3754598824166,2.34531176149188,70.7558084824439,0.428342703816615,0,2.58015246677959,64.2192411265937,60.2051157576086,121.370991403228,127.590475759363,95.8565265035112,31.3352341445778,60.6391440812245
278.4,"Lakes - Alpine","Lakes - Alpine","Little HaleNet","MA",2304,20.73450891,-156.1273482,NA,NA,NA,NA,NA,0,0.26402494066026,0,0,30.2716778841002,6.64278711019337,16.2323762241317,3.58651441872743,0.184681928336321,0,0.121997326931591,2.94225989455202,3.22034950511799,8.33646080843081,55.6162235713713,15.5782823464892,1.98830010486016,59.9851089032265,0.363138861493152,0,2.18739252686378,54.4435609638621,51.0404799649428,102.895469547517,108.168201983572,81.2649067931268,26.5652739045019,51.4084389610674
278.5,"Frisbee - Alpine","Frisbee - Alpine","Little HaleNet","MA",2320,20.73857613,-156.1365744,NA,NA,NA,NA,NA,0,0.14301906821366,0,0,25.3524539553116,2.61851548015725,16.4135910811835,2.64060160631294,0,0,0.12382889577701,2.86146286786981,3.08124262583007,8.46161766458337,45.3913794286649,15.6871923046654,1.70572650728438,29.5182747604218,0.368590733611993,0,2.22023226282907,53.7612956548979,50.1821538314219,95.4424381509109,99.3571792330977,66.9262209323393,22.4651931349657,43.3698776704382
278.6,"Frisbee - Subalpine","Frisbee - Subalpine","Little HaleNet","MA",2191,20.74071537,-156.1350318,NA,NA,NA,NA,NA,0,0.209267517738567,0,0,23.9934866484401,5.26510702337278,12.8658643798111,2.84268966357403,0.146379840546371,0,0.0966957050113152,2.33205023409864,2.5524654811071,6.60752145514163,44.08170312876,12.3474262284761,1.57593682787274,47.5445039777836,0.287825718089516,0,1.73373849937038,43.1522447510605,40.4549453537907,81.5554751945225,85.7346698790606,64.4109805737505,21.0557719060099,40.746591535231
278.7,"Frisbee - Forest line","Frisbee - Forest line","Little HaleNet","MA",2135,20.74195056,-156.1342138,NA,NA,NA,NA,NA,0,0.274004270424592,0,0,31.4158540947629,6.8938640083118,16.8459100622389,3.72207362006466,0.191662336549925,0,0.126608450232189,3.05346825868111,3.34206880022554,8.65155335713748,57.7183455674132,16.1670934501249,2.06345172639727,62.2523613120245,0.376864392270744,0,2.27006922890194,56.501359924234,52.9696529424132,106.784601457944,112.256626944144,84.3364700368429,27.5693594575936,53.3515196555621
278.71,"Frisbee - Cloud forest","Frisbee - Cloud forest","Little HaleNet","MA",2087,20.73622225,-156.1341472,NA,NA,NA,NA,NA,0,0.268010676138017,0,0,30.7286608502252,6.74306700113881,16.477421096192,3.64065664379322,0.187469897200285,0,0.12383900549774,2.98667641678349,3.26896408388176,8.46230849357754,56.4558092365473,15.8134529802773,2.01831559600486,60.8906475091431,0.368620826340814,0,2.2204135285021,55.2654440478103,51.8109899451337,104.448785391279,109.801115295219,82.4916864348227,26.9663047859509,52.1845036711317
278.8,"Puu Alaea - Alpine","Puu Alaea - Alpine","Little HaleNet","MA",2320,20.74402239,-156.1421477,NA,NA,NA,NA,NA,0,0.239450099424314,0,0,22.1806999546629,5.72944600627014,12.3245485971251,2.81012143793131,0.167492154307157,0,0,0.750604752302484,1.44537878650258,5.49491251844032,43.8748277304672,10.8459091466463,0.918096906609641,44.0006033898405,0.255577326439085,0,0.766731979317254,29.2008844461573,27.7750570839412,54.8132927749359,61.3327096435056,43.4210300112084,13.9873274344961,38.0302557722484
278.9,"Puu Alaea - Subalpine","Puu Alaea - Subalpine","Little HaleNet","MA",2075,20.74489428,-156.1421289,NA,NA,NA,NA,NA,0,0.214641195411099,0,0,24.6096035923511,5.40030711730392,13.1962405839289,2.91568569344126,0.150138656483756,0,0.0991787064664106,2.39193380518326,2.61800898692184,6.77719274908143,45.213655504504,12.664489714268,1.61640453464719,48.7653759135621,0.295216653154797,0,1.77825831766208,44.260330022221,41.493768000231,83.6496981339519,87.936208303512,66.0649584672881,21.596452717786,41.7929032205361
279,"POHAKAU PALAHA HN-161","HaleNet","HaleNet","MA",2460,20.73061111,-156.1413056,NA,NA,NA,NA,NA,0,0.254,0,0,34.544,4.064,24.386,3.81,0,0,0,1.27,2.54,10.922,67.566,21.336,1.27,31.75,0.508,0,1.524,55.378,52.322,92.97,103.376,58.674,19.812,59.944
280.1,"OheoGulchRGatdamnearKipahulu","OheoGulchRGatdamnearKipahulu","USGS","MA",128.016,20.66836111,-156.0522222,NA,NA,NA,NA,NA,NA,0.128498680091791,0,0,19.0563656554275,14.5738965719853,13.1587685741734,3.06547271869656,0.821883484730893,0,0,0.642493400458953,5.14151699850133,5.8415522765358,43.0327136175335,26.0303444984908,2.22303856340298,17.9589892070066,17.7694377656034,1.26443613035522,0.770992080550743,33.4528230224297,35.4472128238003,47.0335523154873,58.4304662289509,35.3099358812843,NA,NA
307.2,"POHAKEA BRIDGE 307.2","WAILUKU SUGAR","COOP","MA",50,20.81346495,-156.5071787,"USC00518060",NA,NA,NA,NA,0,1.28402936348115,NA,NA,2.81801147160557,11.0211798994779,9.6550204857581,0.376146773366369,0.944459879636293,NA,NA,0,0,0,49.2268349585664,2.84923297086671,NA,7.14143290370063,18.4552549180894,0,0,0.575890170509935,0.759566196872381,NA,NA,3.87764938534385,0,0
311.2,"Kealia Pond NWR","Kealia Pond NWR","RAWS","MA",3.6576,20.7975,-156.4772222,NA,"KPDH1","32B2C438",NA,NA,0,0,0,0,NA,4.57,0,0.509999999999998,0,0,0,0,0,11.18,55.34,0,0.299999999999997,30.7,0,0,0,1,0.800000000000011,0.199999999999989,3.30000000000001,2.59999999999999,0,0
311.5,"Kihei 2","NWS","HydroNet-UaNet","MA",54.5592,20.7061005,-156.437,NA,"KHIH1","93202508",NA,NA,0,0,0,0,58.166,6.604,0,0.508,0,0,0,0,0,0,56.388,0,0.254,12.192,0,8.128,8.128,0,1.778,0,13.462,2.794,0,0
324.6,"KULA AG HN-119","HaleNet","HaleNet","MA",965,20.75788889,-156.3200278,NA,NA,NA,NA,NA,0,0,0,0,52.324,0,0.762,10.668,0,0,0.254,0,0,0.508,62.476,0.508,11.938,51.052,0,0,0,2.794,1.778,0.254,3.302,21.594,0,0
324.7,"Kula Branch Stn","NWS","HydroNet-UaNet","MA",944.88,20.7577991,-156.3217,"USC00515000","KBSH1","93220610",NA,NA,0,0,0,0,51.562,0,0.508,9.906,0.254,0,0,0,0,0,59.182,0.508,8.382,47.498,0,0,0,0,3.302,0.254,1.778,22.606,0,0
328.4,"PU'U PAHU HN-106","HaleNet","HaleNet","MA",960,20.75763889,-156.2775,NA,NA,NA,NA,NA,0,0,0,0,39.9875035007023,0.565731082175763,1.73981121904276,6.47067749735266,0,0,0.106881078175684,0,0.165687221190055,12.8743682977836,57.1370071213317,3.72669405113842,6.19686766703001,35.7487922555701,0.0508662360041443,0,0,4.81876497814256,3.72793384941474,2.24865632591022,4.06662658168,11.2012431474564,0,0.152970662189015
337,"south rim","south rim","CraterNet","MA",2898,20.703948,-156.241101,NA,NA,NA,NA,NA,0,0.2,0,0,38,0.6,10.4,0.2,0,0,0,0,0,31.2,77.4,9.8,0.4,25.6,13.2,0,0,14.4,9.8,38,29.6,13.2,0,4.2
337.1,"Sliding Sands","Sliding Sands","CraterNet","MA",2697,20.714563,-156.2394,NA,NA,NA,NA,NA,0,0,0,0,59.2,1.4,8.8,1.6,0,0,0,0,0.8,48.4,147.2,8.69332775961549,0.750330434973183,23.9698377495726,7.98459702401568,0,0,14.1132559652659,10.8680519272406,31.1648438573472,22.5869019497816,11.5724599217468,0,3.28016978257765
337.11,"Pohaku Palaha","Pohaku Palaha","CraterNet","MA",2461,20.7300298,-156.140176,NA,NA,NA,NA,NA,0,0.2,0,0,41,5.2,27.4,6,0,0,0,1.6,2.8,11.6,81.2,21,0.8,51.4,0.4,0,1.6,68.4,77,163.8,137.8,80.6,34,106.6
337.12,"Puu Alaea","Puu Alaea","CraterNet","MA",2282,20.73782363,-156.1453106,NA,NA,NA,NA,NA,0,NA,0,0,43.2,3.8,16.6,5.8,0,0,0,1.2,1.8,19.4,86.4,32.4,1,69.2,0.4,0,1,39.6,37,100,79.4,40.6,10.6,46.4
337.13,"Paliku","Paliku","CraterNet","MA",1927,20.71236611,-156.1437572,NA,NA,NA,NA,NA,0,0,0,0,44.2,3.6,24,0.2,0,0,0,1.4,2.8,5.8,53.2,7.6,0.4,20.8,0.2,0,1.4,69,54.4,115,115,82.2,39,87.6
337.2,"Puu o Pele","Puu o Pele","CraterNet","MA",2424,20.709651,-156.224485,NA,NA,NA,NA,NA,0,0,0,0,68.8,0.6,42.2,0,0,0,0,0,0.4,32.6,114.6,14.6,0.4,30.8,2.2,0,0.2,15.2,12.8,44.4,18.8,10.4,0,3.8
337.3,"Lava lake","Lava lake","CraterNet","MA",2270,20.718443,-156.212261,NA,NA,NA,NA,NA,0,0,0,0,61.8,1.4,58,0,0,0,0,0,0.4,25.8,107.2,11,0,27.4,1.4,0,0.2,15.2,11.2,28.2,12.6,9.8,1.2,8.4
337.4,"Silversword loop","Silversword loop","CraterNet","MA",2186,20.731704,-156.205387,NA,NA,NA,NA,NA,0,0,0,0,50.4,0.4,45.4,0.2,0,0,0,0,0.6,14.2,74.2,10.8,0,35.6,0.8,0,0,16,9,24.6,14.2,8.8,1.4,9.8
337.5,"Leleiwi","Leleiwi","CraterNet","MA",2722,20.74337371,-156.2288651,NA,NA,NA,NA,NA,0,0,0,0,30.8,1.8,0.6,3.6,0,0,0,0,0.8,7.4,37.4,3,0.6,33.8,0.4,0,0,14,10.8,21.2,28.8,16.4,0,6
337.6,"Puu Nole","Puu Nole","CraterNet","MA",2261,20.717807,-156.188007,NA,NA,NA,NA,NA,0,0,0,0,57,5.4,50.4,0,0,0,0,0.6,1.6,19.4,112.6,17.4,0.2,22.2,0.8,0,0.6,27.2,13.2,42,20.2,11.4,3,14.4
337.7,"Hanakauhi","Hanakauhi","CraterNet","MA",2645,20.73567887,-156.1754875,NA,NA,NA,NA,NA,0,0.2,0,0,43.8,2.4,30,1.2,0,0,0,0.6,1.2,6.2,53,12.2,0.2,35.4,0.4,0,0.4,25.4,14.2,26.2,21,11.6,4.8,17.6
337.8,"Aloha Park","Aloha Park","CraterNet","MA",2455,20.73555054,-156.1587809,NA,NA,NA,NA,NA,0,0,0,0,46.4,2.8,17.6,5.2,0,0,0,0.4,1.2,20.2,93.4,41,0.8,49.2,0.4,0,1,36.6,19.6,54,38.4,21.2,4.8,32.2
337.9,"Laie","Laie","CraterNet","MA",2051,20.7229056,-156.1544823,NA,NA,NA,NA,NA,0,0,NA,0,46.2,4.2,23,1,0,0,0,0.8,1.8,15.6,85.2,20.6,1,28.8,0.2,0,1.6,50.8,29.8,64.6,66.6,40.6,13.8,46.4
338,"HALEAKALA RANGER STATION 338","HAWAII T PARK","COOP","MA",2143,20.75846738,-156.2455233,"USC00511004",NA,NA,NA,NA,0,0,0,0,11.4,35.1,0,0,0,0,0,0,6.6,0,2.5,NA,NA,6.4,44.5,0,0,0,0,17.8,11.9,14.7,0,1.3
338.4,"HALEAKALA SUMMIT 338","SMITHSONIAN INST 1","COOP","MA",3037,20.71667,-156.26667,"USC00511008",NA,NA,NA,NA,0.5,0,0,NA,NA,0.8,0,0,0,NA,NA,0,0,NA,NA,0,18.8,NA,0,0,0,0.5,0,1.5,2.3,0.3,0,0
339.4,"PARK HQ HN-151","HaleNet","HaleNet","MA",2120,20.75980556,-156.2481667,NA,NA,NA,NA,NA,0,0,0,0,37.336,1.524,0,4.064,0,0,0,0,0.508,0,30.988,4.318,4.826,32.766,0,0,0,8.382,5.588,7.366,9.144,5.08,0,0.508
339.5,"NENE NEST HN-152","HaleNet","HaleNet","MA",2590,20.73819444,-156.2458333,NA,NA,NA,NA,NA,0,0,0,0,27.94,2.032,1.27,3.048,0,0,0,0,0.254,3.556,25.654,1.27,0.508,31.242,0,0,0,13.97,12.7,26.162,20.8877254407116,10.9115611733318,0.42790717930761,4.064
339.6,"SUMMIT HN-153","HaleNet","HaleNet","MA",2990,20.71036111,-156.25675,NA,NA,NA,NA,NA,0.254,0.508,0,0,37.084,2.794,3.048,0.254,0,0,0,0,0.254,42.164,116.084,17.272,1.524,18.542,12.7,0,0,16.51,11.938,35.052,23.368,13.208,0,2.032
348.5,"WestWailuaikiRainGagenrKeanae","USGS","USGS","MA",472.44,20.81436111,-156.1429722,NA,"WWKH1","DD5E710A",NA,NA,0,0.508,0,0,21.844,16.764,0.254,4.064,0.762,0,0,0.508,0.762,0,44.958,0.508,1.27,127.508,0,0,0,6.096,6.604,36.576,42.418,63.246,18.288,35.814
350,"PAAKEA 350","EMI","COOP","MA",390,20.81179461,-156.1171956,"USC00517194",NA,NA,NA,NA,0,0,NA,NA,NA,NA,38.109525768252,23.2729928355738,5.2364233880041,NA,NA,NA,0,0,NA,NA,NA,NA,NA,NA,0,0,36.9458761264733,NA,NA,NA,21.0911497572387,4.36368615667008
353,"Hana AP","NWS","HydroNet-UaNet","MA",19,20.7946,-156.0157,"USC00511125","HNAH1","B150314C",NA,NA,0,0,0.5,0,21.8,3.8,2.8,1.5,0,0,0,0.5,0.5,0.5,34.5,58.2,5.6,48.8,0,0,16.5,25.1,1,14.5,2.8,2.5,0,NA
355,"HANA AIRPORT 355","HAWN AIRLINES","COOP","MA",24,20.792,-156.017,"USC00511125",NA,NA,NA,NA,0,0,0.5,0,21.8,3.8,2.8,1.5,0,0,0,0.5,0.5,0.5,34.5,58.2,5.6,48.8,0,0,16.5,25.1,1,14.5,2.8,2.5,0,NA
361.1,"Lahainaluna","NWS","HydroNet-UaNet","MA",238.0488,20.8909,-156.6556,NA,"LAHH1","81700366",NA,NA,0.254,0.254,0,0,51.308,4.318,0,0,0,0,0,0,0,17.272,15.748,0,0,0.762,0,0,0,0,NA,0,6.35,1.524,0,0
364,"WAHIKULI 364","PIONEER MILL","COOP","MA",177,20.89679257,-156.6621736,"USC00518955",NA,NA,NA,NA,0.309524529927182,0.193452831204489,0,0,13.7738415817596,13.8512227142414,0.967264156022443,0.116071698722693,0,0.116071698722693,0.309524529927182,0,0,0,12.7678868594962,0.773811324817954,0.116071698722693,0.116071698722693,5.41667927372568,0,0,0,0.50297736113167,0,0.967264156022443,3.75298492536708,0.116071698722693,0
380,"PuuKukuiRainGageatalt","BALDWIN PKRS","USGS","MA",1759,20.89083333,-156.6008333,"USC00514887","PKKH1","DD73556E",NA,NA,1.27,0.508,0,0,24.892,14.986,1.016,8.128,3.81,0,0,0.254,0,70.358,145.034,0.254,2.286,132.588,0,0,0,3.048,1.016,4.064,22.352,109.474,1.27,0.762
386,"WAILUKU 386","WAILUKU SUGAR","COOP","MA",55,20.89345755,-156.4971783,"USC00519484",NA,NA,NA,NA,0,2.06392877421723,NA,NA,3.3063911716435,13.9170149013649,14.4318054581675,2.51854095314636,4.70238209503955,NA,NA,0,0,0,75.741846055617,3.32844176392808,NA,31.0858347635288,NA,0,0,3.42592230736822,1.27944648716146,NA,NA,8.74991683307214,0.199853946126597,0
386.6,"Wailuku","NWS","HydroNet-UaNet","MA",146.9136,20.8831005,-156.5124,NA,"WUKH1","9321D776",NA,NA,NA,0,0,0,5.334,39.37,2.54,1.524,0,0,0,NA,0,0,0,0,0,0,0,0,0,0,0,0,0,0,0,0
390,"WAIKAPU 390","WAILUKU SUGAR","COOP","MA",130,20.8491,-156.5092,"USC00519376",NA,NA,NA,NA,0,2.5,NA,NA,7.6,30.5,21.1,0.3,0,NA,NA,0,0,0,106.7,6.1,NA,6.4,36.1,0,0,0,1.8,NA,NA,7.6,0,0
390.4,"Waikapu Country Club","NWS","HydroNet-UaNet","MA",145.9992,20.8346996,-156.5135,NA,"WCCH1","9320E016",NA,NA,1.778,0.254,NA,0,22.606,16.51,0.508,0,0,0,0,0,0,1.27,8.636,0,10.16,70.358,0,0,0,0,0,0,0,0,0,0
396,"PUUNENE 396","HC&S","COOP","MA",18,20.8717927,-156.4538466,"USC00518543",NA,NA,NA,NA,0,1.32983025430441,NA,NA,4.04268397308541,16.2239291025138,11.2237673463292,0.159579630516529,0,NA,NA,0,0,0,56.7571552537123,3.24478582050277,NA,3.4043654510193,19.2027488721557,0,0,0,0.957477783099177,NA,NA,4.04268397308541,0,0
398,"KAHULUI AIRPORT","NOAA-NWS","NWS","MA",12,20.8887,-156.41,"USW00022516","HOG",NA,NA,NA,0.5,0,0,0,16.5,0.8,0,0,0,0,0.5,0,0,26.4,54.6,0,0,37.8,0,0,0,0.5,0,0.3,1.5,2.3,0,0
406,"PAIA 406","HC&S","COOP","MA",50,20.9051221,-156.3738494,"USC00517566",NA,NA,NA,NA,0,1.0413443387913,0,0,11.8113957362007,15.9970920857646,7.37132217490673,1.03180497225948,1.12684871925951,0.0918631470256695,2.18674260851253,0,0,0,32.9986240039501,12.9402507912675,0.0551178882154017,6.56870350982985,19.4629091228848,0.101920918455888,0,1.80039328968305,0.935827553725631,0.102248313830895,0.639241703985046,7.99737403319348,0.654389208517728,0.102248313830895
423,"HALIIMAILE 423","MAUI PINE","COOP","MA",326,20.86679262,-156.3405177,"USC00511075",NA,NA,NA,NA,0.424524103042576,0.66210283982056,0,0,30.3824350491251,40.0047526546533,3.05103746605082,0.470861728096619,0.761751326103971,0.259426976286225,2.81044463554406,0.0902073938807334,0,0,24.480422938188,17.1396737779426,0.219334801228122,0.219334801228122,24.1354482941989,0.111204314165134,0,0,1.38731825579891,0,2.02410441036278,11.9885254215929,0.319565238873381,0
426.6,"Pukalani","NWS","HydroNet-UaNet","MA",495.9096,20.8355007,-156.3307,NA,"PUKH1","15D2B52E",NA,NA,0,0,0,0,26.162,2.286,0,5.334,0,0,0,0,0,0.254,36.83,0,0,30.734,0,0,0,2.032,0.762,0.254,1.524,11.176,0,0
432,"HALEAKALA RANCH 432","HALEAKALA RANCH","COOP","MA",564,20.83346191,-156.3138527,"USC00510999",NA,NA,NA,NA,NA,0,NA,NA,NA,NA,NA,NA,0,NA,NA,NA,NA,NA,NA,94,NA,NA,NA,NA,NA,NA,0,NA,NA,NA,NA,57.2
446,"KAILUA 446","EMI","COOP","MA",213,20.89012208,-156.2121892,"USC00512679",NA,NA,NA,NA,0,0,0,0,20.0538317020496,13.1027821535998,26.2,16,3.6,0,0.224706963526047,0.0875747032391199,0,0,48.8092359691462,11.9713127221143,1.45168966462012,50.2006826604455,13.6589022042673,0.986202325217853,0,0,25.4,6.30537863321663,13.4438107789294,21.5834458792192,14.5,3
457.1,"PUUKOLII 457.1","COOP","COOP","MA",128,20.93194,-156.67611,"USC00518407",NA,NA,NA,NA,0.8,0.5,0,0,35.6,35.8,2.5,0.3,0,0.3,0.8,0,0,0,33,2,0.3,0.3,14,0,0,0,1.3,0,2.5,9.7,0.3,0
462.4,"KAPALUA W.MAUI AIRPORT 462.4","KAPALUA W.MAUI AIRPORT 462.4","NWS","MA",73,20.9625,-156.6753,"USC00513317",NA,NA,NA,NA,0,0.8,0,0,31,29.2,3.3,0.3,0,0,3.3,0.0540790733153146,0,0,18.8,15.2,0,0,18.3,0.3,0,0,0.8,0,0.8,9.1,0,0
465.1,"Mahinahina","NWS","HydroNet-UaNet","MA",223.1136,20.9552002,-156.6562,NA,"MABH1","190524C8",NA,NA,NA,NA,0,NA,NA,NA,NA,NA,NA,NA,NA,NA,NA,NA,NA,NA,NA,NA,NA,NA,NA,NA,NA,0,NA,NA,NA,NA
466,"MAHINAHINA 466","PIONEER MILL","COOP","MA",257,20.94678808,-156.6555055,"USC00515715",NA,NA,NA,NA,0,0.5,0,0,0,50.8,2.5,1,3.8,0.5,5.8,0.3,0,0,0,52.1,0.3,0.3,49.5,0,0,0,2,0,2,17.3,0.8,0
474,"FIELD 46 474","MAUI PINE","COOP","MA",319,20.9951177,-156.6391163,"USC00510541",NA,NA,NA,NA,0,0.635362811158537,0,0,27.6013626753292,50.4590031260079,6.53530861153973,2.80380679995623,1.7383697376561,0.240750986406729,5.73092101743375,0.288901183688075,0,0,16.7388909127803,38.6198241598716,0.144450591844037,0.144450591844037,40.1280552980895,0.267109961374153,0,0,4.77562711522062,0,1.67529717595799,16.4323196246888,2.34546458772249,0.432137283218341
482,"WAIHEE VALLEY 482","WAILUKU SUGAR","COOP","MA",91,20.94012106,-156.5255102,"USC00519315",NA,NA,NA,NA,0,1.5,0.132147320246917,1.585767842963,3.3,16.5,11.9,4.6,6.4,0,1.77910737440192,0,0,0,64.8,1,0,46.5,33.9245975504244,0,0,5.3,1.5,0.24338486050933,2.98614694887116,10.9,0.5,0
482.4,"KAHAKULOA MAUKA 482","NWS","COOP","MA",334,20.9539,-156.5342,"USC00512450",NA,NA,NA,NA,0.5,0,0.3,3.6,22.4,3,9.00510125953738,7.6,0,0,0,0,0,0,49.0361816485733,0,NA,35.188000720041,0,0,4.1,4.0106753508864,1.13509679742068,NA,5.8,0,0,0
482.5,"Kahakuloa","Kahakuloa","HydroNet-UaNet","MA",335.28,20.9540997,-156.5342,NA,"KHKH1","781001B6",NA,NA,0.508,0,0.254,0,25.908,3.048,2.032,9.652,0,0,0,0,8.636,35.306,27.178,0,26.416,89.408,1.524,0,4.064,1.016,0.508,0.762,7.112,5.334,0,0
484,"WAIEHU CAMP 484","WAILUKU SUGAR","COOP","MA",98,20.91623388,-156.5088444,"USC00519275",NA,NA,NA,NA,0,2.8,0,0,3.8,14,18.5,1.3,4.1,0,2.0395965065218,0,0,0,95.3,5.6,0,23.9,25.927792646491,0,0,2.5,1.3,0.186013472590248,0.49444763794468,8.4,0,0
485,"HAMAKUAPOKO 485","HC&S","COOP","MA",98,20.91345401,-156.3455169,"USC00511086",NA,NA,NA,NA,0,0.413213056398285,0,0,24.5543205452005,27.7067164885427,6.76070265548993,3.03100948463043,0.45124194357252,0,2.55675578646439,0.125697257841421,0,0,15.5217940347377,26.0004895704214,0,0,23.645439374726,0.232432344224035,0,0,4.06333360787993,0.23317897480443,0.619819584597428,12.9731937348283,2.81239923188822,0.53148760284672
486.7,"HAIKU 3.2 SE","HAIKU 3.2 SE","CoCoRaHS","MA",416,20.92011989,-156.3071849,"US1HIMI0001",NA,NA,NA,NA,0,0,0,0,2.3,21.8,11.4,5.6,0,0,0,0,0,0,4.1,61,0,0,40.6,0,0,0,3,1,0,25.4,6.4,1
489,"Haiku","NWS","HydroNet-UaNet","MA",99.3648,20.9288998,-156.3225,"USC00510822","AIKH1","50A30568",NA,NA,0,0,0,0,17.018,0.508,0,1.524,0,0,0.254,0,0,0,38.608,0,0,30.226,0,0,0,0.762,0.508,0,1.524,7.112,0.508,0.762
490.7,"KUIAHA 490.7","COOP","COOP","MA",341,20.89306,-156.30306,"USC00514806",NA,NA,NA,NA,0,0.759721846561483,0,0,29.6775496140992,51.6968835796696,8.52283608471648,4.12760688622717,0.852518374384932,0.237827818377007,5.66133689921659,0.198773881577186,0.0841157858264732,0,21.4984807800087,38.2069843296346,0.282889667403659,14.2180715193227,39.6408255255639,0.263866746003938,0,0.672926286611785,6.85415528578017,4.03755771967071,6.33740134052553,23.2144107015612,5.11373373041803,4.59377742430962
492.2,"HALEHAKU 492.2","COOP","COOP","MA",210,20.91,-156.282,"USC00511016",NA,NA,NA,NA,0,0.060099935274977,0,0,19.3745266997002,3.43757607594611,6.02347899057101,5.06616736885162,0.913674501483484,0,0.231314639917376,0.0901499029124655,0.0901499029124655,0,43.1380916751943,0.0901499029124655,0.225374757281164,50.1540677811965,0,0,0,1.18382850313448,6.90014223504894,6.49079300969752,8.91540473269512,17.7004728302885,5.78899126736672,5.38594521552981
493,"HONOKOHUA 493","MAUI LAND&PINE CO","COOP","MA",38,21.00011804,-156.655505,"USC00511887",NA,NA,NA,NA,0,0.541762635094819,0,0,15.6901292852691,28.6836665263816,2.35451993354867,0.425552106613839,1.04010615399689,0.136856072894327,3.25777001465123,0.164227287473193,0,0,9.51530421171156,21.9536274773982,0.0821136437365963,0.0821136437365963,22.8109888268747,0.151839960825185,0,0,0.952330853777801,0,0.952330853777801,9.34103226717432,0.218969716630924,0
494,"HONOLUA FIELD 49 494","MAUI LAND&PINE CO","COOP","MA",61,21.010978,-156.633839,"USC00511914",NA,NA,NA,NA,NA,NA,0,0,18.6452975702099,34.0861115970009,NA,NA,NA,0.162632324884715,3.87135696807214,0.195158789861659,NA,NA,11.3074707845144,26.0884986745096,0.0975793949308293,0.0975793949308293,27.1073403421301,0.180438363582676,NA,NA,NA,0,1.13169826909267,11.1003754696857,NA,NA
497,"NAKALELE FIELD 60 497","MAUI LAND&PINE CO","COOP","MA",104,21.02511528,-156.6005068,"USC00516645",NA,NA,NA,NA,NA,NA,0,0,0,28.504802118962,NA,NA,NA,0.280559075974036,3.25448528129881,0.168335445584421,NA,NA,0,29.2342557164945,0.168335445584421,0.168335445584421,27.7753485214295,0,NA,NA,NA,0,1.12223630389614,9.70734402870163,NA,NA
499.11,"LUA MAKIKA","RAWS","RAWS","KO",335.28,20.5625,-156.5630556,"USR0000HLUA","HLUA",NA,NA,NA,0.940116078673108,0.212997661000706,0,0,24.9053371752845,1.88122126239524,0.212997661000706,0.434515228441433,0,0,0,0,0,12.074303596617,34.0681520736339,0.151680255069508,0,13.2287543030178,0.322078383870064,0.101120170046329,0,2.0176693676207,1.78079004815089,0,0.151680255069508,0,0.15168025506948,0
499.12,"KEALIALALO","RAWS","RAWS","KO",251.46,20.54361111,-156.6408333,"USR0000HKLL","KLLH1","32792006",NA,NA,0.631602468191536,0,0,0,28.6747520558957,0.189480740457468,0,0,0,0,0,0,0,7.51606937147928,28.2326303281617,0.189480740457468,0,13.7689338065755,0.189480740457468,0.1263204936383,0,1.13688444274477,0.947403702287304,0,0.189480740457468,0,0.189480740457432,0
499.13,"HAKIOAWA","RAWS","RAWS","KO",365.76,20.58027778,-156.5711111,"USR0000HHAI","HKIH1","3279159C",NA,NA,1,0,0,0,45.4,0.300000000000011,0,0,0,0,0,0,0,11.9,44.7,0.300000000000011,0,21.8,0.300000000000011,0.199999999999989,0,1.80000000000001,1.5,0,0.300000000000011,0,0.299999999999955,0
499.9,"KANELOA","RAWS","RAWS","KO",248.412,20.52222222,-156.5658333,"USR0000HKAN","KAOH1","32793370",NA,NA,0.509999999999991,0.25,0,0,2.29000000000001,2.03,0.25,0.509999999999991,0,0,0,0,0,7.11,13.46,0,0,2.59,0.199999999999989,0,0,1.30000000000001,1.19999999999999,0,0,0,0,0
511,"MAUNALOA 511","MOLOKAI RANCH CO","COOP","MO",314,21.13348648,-157.2121842,"USC00516190",NA,NA,NA,NA,0.3,0,NA,NA,NA,41.7,1.5,NA,NA,NA,NA,NA,0,0,0.8,35.8,NA,NA,NA,NA,0,0,1.3,NA,NA,NA,0,0
524,"MOLOKAI KAUNAKAKAI MOLOKAI AIRPORT","ALOHA AIRLINES","NWS","MO",141,21.15514996,-157.0924625,"USW00022534","HMK",NA,NA,NA,0,0,0,0,NA,NA,0,0,0,0.8,0.3,0,0,26.7,3,0,NA,17,0,0,0,0.5,0,15.7,9.7,1.5,0,0
536,"KAUNAKAKAI 536","MOLOKAI RANCH","COOP","MO",3,21.08876308,-157.0216311,"USC00513541",NA,NA,NA,NA,0,1.8,0,0,13.5,41.1,1.3,0,0,0,0,0,0,NA,NA,4.6,0,0,16.5,0,0,0,0,0,0,10.7,0,0
536.5,"Kaunakakai Mauka","MOLOKAI GEN HOSP","HydroNet-UaNet","MO",28.3464,21.0946007,-157.0174,NA,"KACH1","50A0F2E2",NA,NA,0,1.778,0,0,57.912,0.508,0.254,0.508,0,0,0,0,0,22.098,7.366,0,0,16.002,0,0,0,0.762,0.508,0,8.636,1.27,0,0
536.6,"KAUNAKAKAI 3.5 ESE","KAUNAKAKAI 3.5 ESE","CoCoRaHS","MO",13,21.068,-156.963,"US1HIMI0002",NA,NA,NA,NA,0,0.8,0,0,11.9,38.9,0.3,0,0.5,0,0,0,0,0,22.9,6.6,0,0,23.4,0,0,0,1,0,0.5,3.8,0,0
538,"MOLOKAI 1","RAWS","RAWS","MO",833.0184,21.115,-156.9475,"USR0000HMLK","MLKH1","487016AC",NA,NA,0,6.35,0.25,0,55.63,0.509999999999991,0,6.35000000000001,1.78,0,0.5,0,0,23.37,27.98,0,0,21,0,0,0,1.79999999999998,3.80000000000001,1.29999999999998,1.80000000000001,2.80000000000001,0,0
541.2,"Puu ALII WEST","Puu ALII WEST","RAWS","MO",1159.764,21.14083333,-156.9022222,NA,"PAFH1","32D6062E",NA,NA,2.80000000000001,2.10000000000002,0,0,59.7,0.5,0.5,20.3,1.80000000000001,0.5,1.5,0,0,20.1,23.1,0,8.09999999999997,68.8000000000001,0,0,0,2.29999999999995,0.299999999999955,10.6,26.5,19,1,10.4
550.3,"MAUNALOA 3.2 NNW","MAUNALOA 3.2 NNW","CoCoRaHS","MO",93,21.1804,-157.2319,"US1HIMI0006",NA,NA,NA,NA,0,NA,3.8,0,12.7,25.4,14.2,0,3,NA,1.8,0,0,NA,74.4,5.8,0,19.3,12.4,0,0.3,0.3,NA,0.5,0,4.6,0,0
553,"MAKAPULAPAI","RAWS","RAWS","MO",22.86,21.20333333,-156.9661111,"USR0000HMAK","MKPH1","FA9024CE",NA,NA,0,11.43,0,1.01,53.34,0,0,1.53,0,0,0,0,0,23.11,13.7,0,48.8,63.7,0,0,0.299999999999983,0.200000000000017,0,6.09999999999999,16,1.59999999999999,0,0
563,"KALAUPAPA 563","CIVIL AIR PATROL","COOP","MO",9,21.19014673,-156.9824624,"USC00512896",NA,NA,NA,NA,0.8,0.5,NA,NA,NA,NA,0.8,0,0,NA,NA,NA,0,0,39.6,10.2,NA,NA,NA,NA,10.2,12.7,0.5,NA,NA,NA,0.8,0
672.1,"Lanai City","NWS","HydroNet-UaNet","LA",498.0432,20.8262997,-156.9182,"USC00515286","LANH1",NA,NA,NA,0.254,0.508,0,0,76.454,2.794,NA,0.254,0,0,0,0,0,18.796,23.114,0,3.81,31.75,0,0.254,0,5.1,0,5.334,2.54,5.08,0,0
679,"LANAI 1","RAWS","RAWS","LA",387.096,20.87333333,-157.0063889,"USR0000HLAN","LNIH1","48702336",NA,NA,0.25,0.76,0,0,38.36,1.78,0.5,0,0,0,0,0,0,6.09999999999999,18.29,0,0,21.08,0,0,0,2.80000000000001,0.199999999999989,3.40000000000001,9.59999999999999,5.10000000000001,0,0
702.2,"HONOLULU OBSERV 702.2","USC&GEODETIC SURVEY","COOP","OA",2,21.313926,-157.999529,"USC00511918",NA,NA,NA,NA,NA,NA,NA,NA,NA,0,0,0,0,0,0,NA,NA,NA,NA,0,1.8,NA,0,0,0,0.3,0,0,6.1,0,0,0.8
702.7,"Kapolei-Kalaeloa AP","NWS","NWS","OA",15,21.31667,-158.06667,"USW00022551","HJR",NA,NA,NA,1.8,3.3,2,9.9,2.8,0,0,0,0,0,0,0,17.3,39.1,9.7,0,0,18.3,0,0,0,0.5,0,0,3,0,0,0
702.8,"PTWC","NWS","HydroNet-UaNet","OA",1.524,21.3150005,-157.9992,NA,"PTWH1",NA,NA,NA,4.572,4.572,2.286,11.684,9.652,0.762,0,0,0,0,0,0,24.13,29.21,10.414,0.254,0.254,48.768,0,0,0,0.254,0,0,5.842,0.508,0,0
703,"HONOLULU INTERNATIONAL AIRPORT","USWB","NWS","OA",2.1,21.324,-157.9294,"USW00022521",NA,NA,NA,NA,0.8,1,0,5.8,13.7,0.5,0,0,0,0,0,0,12.2,37.1,6.9,0,0,21.1,0,0,0,0.3,0,0,3,0,0,2.3
703.1,"HONOLULU FIRE STATION 703.1, HI US","COOP","COOP","OA",1,21.3287,-157.9298,"USC00511925",NA,NA,NA,NA,0.939911655797518,6.9925131851869,0.24911864768139,0.0848444023920596,14.4609193545002,12.7,0,0,0,0,0,0,5.1,33.5,27.7,1.5,0,0.0848444023920596,15.9363414316685,0,0,0,0.3,0,1.01271826920993,4.3,0,0
705,"BERETANIA PUMP STN 705","BWS","COOP","OA",6,21.305169,-157.8522571,"USC00510211",NA,NA,NA,NA,3.6,6.6,0,6.1,17.3,0.8,0,0,0,0,0,0,5.1,36.6,20.1,0,0,27.9,0,0,0,0.3,0,0,29.7,1.5,0,0.3
705.12,"Aloha Tower","NWS","HydroNet-UaNet","OA",38.1,21.3034,-157.8627,NA,"ALOH1",NA,NA,NA,1.016,3.48651566285118,0,6.35,23.114,0.762,0,0,0,0,0,0,6.604,34.036,21.59,0,0,25.4,0,0,0,0,0,0,15.494,0,0,0
706.5,"Niuhelewai HCC JD","J_Delay","PrivateObs","OA",2,21.32180556,-157.8694722,NA,NA,NA,NA,NA,0.8,4.9,0,7.8,22.4,1.2,0,0,0,0,0,0,1.6,38.4,17.7,0,0,29.7,0,0,0,0,0,0,17.7,1.8,0,0
707.2,"EWA KALAELOA AIRPORT","LYDECKER RC","STATE","OA",14,21.30489073,-157.8305905,"USW00022551",NA,NA,NA,NA,1.8,3.3,2,9.9,2.8,0,0,0,0,0,0,0,17.3,39.1,9.7,0,0,18.3,0,0,0,0.5,0,0,3,0,0,0
707.5,"HONOLULU 2.0 SW","CoCoRaHS","CoCoRaHS","OA",12,21.3004,-157.8293,"US1HIHN0023",NA,NA,NA,NA,1,18.8,0.3,0.3,15.7,13.2,0,0,0,0,0,0,2.5,2.8,69.6,3.6,0,0.3,36.6,0,0,0,0.8,0,3,35.6,2,0.5
709,"PUNCHBOWL CRATER 709","T MEM CEMETERY","COOP","OA",108,21.31016855,-157.846146,"USC00518316",NA,NA,NA,NA,2.8,11.4,0.3,2.5,12.4,12.7,0,0,0,0,0,0,3,12.2,51.1,2.5,0,43.2,43.2,0,0,0,0.3,0.3,2.3,35.1,3.3,0.8
711.6,"ManoaRGatKanewaiFld,Honolulu","USGS","USGS","OA",11.5824,21.29322222,-157.8127222,NA,NA,NA,NA,NA,2.52155143421197,5.53206748657491,0.15034993834857,3.19139271288523,12.3662824251283,6.16268287370533,0,0,0,0,0.0357648196605436,0.621228509056458,0.637164573054824,34.7838042249017,16.1650154006931,0.069025389895162,0,21.0454685524771,11.0657554624548,0,0,1.22459949643858,0.0902099630091421,0.919268672894322,10.8181073756703,13.1266842610601,0.300167934125285,2.61479651635266
711.7,"H-1RainGageatKapiolaniAve","USGS","USGS","OA",6.096,21.28944444,-157.8155556,NA,NA,NA,NA,NA,2.14106349874747,6.08190751546984,0.119675962404285,3.70829935406259,13.8731934746833,5.09963939297253,0,0,0,0,0,0.494487197739632,2.2010062011164,34.7902374364014,17.3395594243843,0.0549430219710702,0,18.7721106352753,8.80815083295539,0,0,0.715475063173285,0.0718055774425711,0.741730796609448,14.6363815343642,9.53176515453372,0.191481539846856,0.83515102557757
712.1,"MANOA 712.1","BEAUMONT MRS J","COOP","OA",61,21.31044568,-157.8147571,"USC00516122",NA,NA,NA,NA,0.5,12.4,0.8,0,15.2,10.2,0,0,0,0,0,0,1.3,5.8,73.7,3,0,0,40.9,0,0,0,1,0,1.8,40.6,6.1,1
713,"UNIV OF HAWAII 713","UH MET DEPT","COOP","OA",24,21.29933514,-157.8167017,"USC00518815",NA,NA,NA,NA,1.8,9.9,0.5,0,14.5,18.8,0,0,0,0,0,0,2,43.9,31,0,0,0.5,36.8,0,0,0.5,0.3,0.0908166990334137,1.8,36.1,0.8,1
715,"WAIALAE KAHALA","TINKER SPENCER","COOP","OA",15,21.27433592,-157.7880917,"USC00519185",NA,NA,NA,NA,7.4,10.7,1,0,18,26.2,0,0,0,0,0,0.8,1.8,3.3,72.1,2.5,0,0,73.7,0,0,0,0.8,0,3.3,2.3,0.8,0
716,"MANOA TUN 2 716","BWS","COOP","OA",198,21.32794416,-157.7914236,"USC00516130",NA,NA,NA,NA,6.00308218270992,8.1873793400632,0,10.944628081658,37.2985337651906,0.764382253384482,5.9155403751947,0.492024528109349,0.5250275237263,0.0942547017467655,1.43064744777884,1.12917701345939,0.691599334183146,76.7464855754438,23.2901039501062,0,16.279220042262,99.1307940350623,0,0.0942547017467655,3.23479367468303,26.4870227448548,1.34247684015888,12.2315588760256,59.3272509922323,18.9424174646053,0.471273508733828,48.6089468622506
717.2,"WAIKIKI 717.2","PURINTON J","COOP","OA",3,21.27183682,-157.8180917,"USC00519397",NA,NA,NA,NA,2.92222465187633,5.67003416068869,0.233399356105482,0.0556403184801216,11.7115501768769,12.4886326981519,0.3,0,0,0,0,0,1.24219981842743,3.3,50.8,2.8,0,0.165905008847179,30.4947942822584,0,0,0,0.5,0,1.8,15.1262146646285,0.659849539885275,0
718,"PALOLO VALLEY 718","BWS","COOP","OA",302,21.32183297,-157.7717015,"USC00517664",NA,NA,NA,NA,2.5,10.9,0,8.4,26.4,0.8,0,0.5,0.8,0,1.3,1.8,1.8,73.4,16.5,0,1.3,77.7,0,0,2.5,17.3,0,7.1,32.5,19.1,0,12.4
720.6,"HONOLULU 2.7 SSE","CoCoRaHS","CoCoRaHS","OA",113,21.285,-157.7816,"US1HIHN0010",NA,NA,NA,NA,10.4,0,0.3,0,24.9,26.2,0,0,0,0,0,0,1.5,4.8,70.6,1.5,0,0,69.3,0,0,0,1.8,0,2.8,2.5,0.5,0
721,"WILHELMINA RISE 721","BWS","COOP","OA",335,21.29766804,-157.7853133,"USC00519980",NA,NA,NA,NA,0,0,0,0,0.3,0,0,0,0,0,0,0,0.3,0,0,0.3,0,0,0.3,1.5,0,1.8,0,2.8,12.2,1.5,0,1.5
721.4,"Palolo Fire Stn","NWS","HydroNet-UaNet","OA",59.436,21.2996006,-157.7944,"USC00517662","PFSH1","19014414",NA,NA,2.286,6.858,0,7.62,21.082,1.524,0,0,0,0,0,2.286,0,55.118,14.478,0.254,0,42.672,0,0,0,2.286,0,2.286,19.304,1.778,0,2.286
723.4,"PAIKO DRIVE 723.4","GRUBB DL","COOP","OA",3,21.28172556,-157.7282194,"USC00517540",NA,NA,NA,NA,11.2,1.3,0,9.9,46.5,0.3,0,0,0,0,0,2.5,45.5,0,2.5,0,0,36.6,0.3,0,0.3,1.8,0.5,0,1,3.3,0,0
723.8,"Niu Valley","NWS","HydroNet-UaNet","OA",19.812,21.2896996,-157.7332,"USC00516865","NIUH1","1900D38C",NA,NA,3.048,8.128,0,3.81,15.9145088618931,0.3,0,0,0.762,0,0,0,0,24.4466772338046,10.16,0.508,0,41.148,0,0,0,4.826,0,4.318,1.27,1.778,0,0
724.19,"HAWAII KAI GC 724.19","UNOAA-NWS","COOP","OA",9,21.29889,-157.66444,"USC00511308",NA,NA,NA,NA,1.016,18.288,0,11.43,18.034,73.406,0,0.762,0,0,0.254,0.254,1.27,39.116,15.748,0,0,73.66,0,0,0,1.016,0,0,1.55558945198068,0.254,0,0
724.21,"Kamehame","NWS","HydroNet-UaNet","OA",242.316,21.3085995,-157.6791,NA,"KMHH1","190046EE",NA,NA,0.254,18.796,0,10.414,14.986,12.192,3.048,0.508,0,0,0,0,0,0,51.816,0,1.016,56.388,0.254,0,0.254,0,2.794,0.508,1.524,0.254,0,0
728.2,"PALEHUA","RAWS","RAWS","OA",722.376,21.385,-158.1041667,NA,"PLHH1","4870F55E",NA,NA,5.34,5.33,2.79,23.37,6.1,0,0,0,0,0,0.25,0,11.43,49.75,21.1,0.300000000000011,0,21.3,0,0,0,1,0.300000000000011,4.29999999999998,4.60000000000002,4.29999999999998,0,0.700000000000017
740.5,"Kunia","NWS","HydroNet-UaNet","OA",85.0392,21.3869991,-158.0358,NA,"KUNH1",NA,NA,NA,5.08,7.112,1.016,10.414,2.286,0,0.508,0,0,0,0,0,19.558,34.544,3.81,0,0,14.986,0,0,0,2.032,0.254,0,2.794,0,0,0.254
741,"EWA PLANTATION 741","EWA PLANTATION","COOP","OA",12,21.3401713,-158.0339215,"USC00510507",NA,NA,NA,NA,2.75965491948162,2.53888252592309,NA,NA,NA,1.37982745974081,0,0,0,0,0,NA,3.31158590337795,36.9793759210538,1.43502055813045,0,2.61773921488536,NA,0,0,0,0.21814493457378,0,0,8.87122733933372,0,0,0.58171982553008
742.4,"HONOULIULI PHB","FWS","RAWS","OA",1.524,21.35666667,-158.0205556,NA,"HOFH1","327BF39A",NA,NA,0.300000000000011,5.30000000000001,0.199999999999989,8.69999999999999,9.39999999999998,0,0,0,0,0,0,0,15.7,29,4.79999999999995,0,0,20.6,0,0,0,0.5,0,0,2.29999999999995,0,0,0.700000000000045
750,"WAIPAHU 750","OAHU SUGAR","COOP","OA",18,21.38683459,-158.0072536,"USC00519738",NA,NA,NA,NA,2.5,2.3,NA,NA,NA,2.5,0,0,0,NA,NA,NA,3,33.5,1.3,NA,NA,NA,NA,0,0,0,NA,NA,NA,NA,0,0
752.6,"WAIAWA PHB","FWS","RAWS","OA",1.524,21.38694444,-157.9811111,NA,"WWFH1","3274C092",NA,NA,2.5,7.09999999999997,0.300000000000011,8.10000000000002,8.09999999999997,0,8.90000000000003,0,0,0,0,0,13.6999999999999,23.7,6.29999999999995,0,0,16.3000000000001,0,0,0,1,0,0,14,0.699999999999932,0,0
764.6,"AIEA HEIGHTS 764.6","G FOWLER","COOP","OA",238,21.39488776,-157.91031,"USC00510123",NA,NA,NA,NA,2,2.8,0.8,0,33.5,7.6,0.3,6.9,0,0,0,0,4.3,36.1,41.1,2.5,0,0,20.3,0,0,0,1,0.5,2.3,9.7,3,3
764.7,"AIEA 0.7 ENE","CoCoRaHS","CoCoRaHS","OA",175,21.393,-157.9186,"US1HIHN0014",NA,NA,NA,NA,0.5,3.8,1,0.5,6.4,0,0,6.1,0,0,0,0,0,27.4,40.9,15.2,0.3,0,19.1,0,0,0,0.5,0,1.3,7.1,3.3,0.8
770,"MOANALUA 770","ROXBURGH J","COOP","OA",6,21.34794527,-157.8950332,"USC00516395",NA,NA,NA,NA,2,5.1,0.5,0,30.5,14.2,0,0,0,0,0,0,4.1,35.6,34.5,0,0,0,17,0,0,0,0,0,0.5,5.6,1.8,0
771.11,"N.HalawaValleyRGattunnel","USGS","USGS","OA",335.28,21.40488889,-157.8504444,NA,"TNLH1","DD75A524",NA,NA,3.81,4.572,0,9.398,27.178,0,19.812,0,0.508,0,1.524,0,0.762,73.152,15.494,0,6.096,89.662,0,0,3.048,23.114,0.508,25.4,36.322,9.144,0.254,83.82
771.9,"NHalawaRainGagenrHonolulu","USGS","USGS","OA",210.312,21.382,-157.9033333,NA,NA,NA,NA,NA,4.59855704705821,3.78609326182337,0.121779314177194,6.32617478533988,15.4699178259438,0.278147725139894,0.408094149818747,0.0715787089103882,0,0,0.0506213652446691,0,6.69408329558606,36.5598286342967,9.63716444760796,0,0,23.9481825224829,0.0608896570885972,0.608896570885972,0,0.906140691763779,0,1.6247490561849,10.7320266966219,6.54043105151054,0.420884382982807,6.81448998430551
772,"MoanaluaRaingagenrHonolulu","USGS","USGS","OA",103.058976,21.37823611,-157.8700306,NA,NA,NA,NA,NA,4.09240623409416,4.60044125018569,0,10.8802705100763,24.8975148916235,0.545950557601408,3.12039016567969,0.272975278800704,0.315793093009163,0,0.682552291218208,0.0658497304591105,1.80009815693524,69.7938762849598,18.5211936706653,0,2.78117527007271,62.8602192538805,0.0523941711727207,0,0.628730054072648,10.4289002554482,0.236487803263662,6.76267590233369,29.606824659654,14.0198587174322,0.54207135527928,26.1044138912024
772.1,"N.HalawaRaingagenrAiea","USGS","USGS","OA",97.536,21.39295833,-157.8908639,NA,NA,NA,NA,NA,5.04752590217146,4.15573920504381,0.133668939271133,6.94381536727793,16.980285366008,0.305303997081394,0.447937422686211,0.0785671208537694,0,0,0.0555636582651956,0,7.34764372388925,40.1292579655207,10.5780653963846,0,0,26.2863046723517,0.0668344696355666,0.668344696355666,0,0.994609519004483,0,1.78337745116552,14.941813516661,7.17899001926812,0.461976398941101,7.47980602477772
772.3,"MoanaluaRGNo.1atalt1000","USGS","USGS","OA",304.8,21.39338889,-157.8401111,NA,"MOGH1","1689664A",NA,NA,3.048,4.826,0,14.224,20.828,0,11.43,0,0.254,0,2.032,0,0.508,69.596,19.558,0,9.652,104.14,0.254,0,3.048,18.542,0.508,20.828,49.276,9.652,0.254,91.186
772.5,"Moanalua Stream","USGS","HydroNet-UaNet","OA",72.2376,21.3736,-157.8801,"USC00516400","MOAH1","1900B66A",NA,NA,2.794,3.048,0,9.906,27.686,0.508,1.016,0.254,0,0,0,0,3.048,59.182,13.97,0,0,23.368,0,0,0,0.508,0,2.54,10.922,9.906,0.762,6.604
772.6,"MoanaluaRaingagenrKaneohe","USGS","USGS","OA",350.52,21.38823333,-157.8486389,NA,NA,NA,NA,NA,4.66007267793585,4.30423166623164,0.0749358368661153,7.95693250649616,14.0728684302488,0.390250839025167,3.7859033265564,0.56980460384316,0.542813680275449,0,1.23607438469685,0.996792752149676,0.23018984563445,74.5691785443003,24.6961686460581,0.826064343405996,4.12057868367386,95.9077357411082,0.152562841250283,0.0749358368661153,1.00645988947612,16.6064440308366,0.500251102013149,10.3243644953181,73.1570815696406,18.0039146868315,0.32506138787269,36.2432780043482
773,"KAPALAMA 773","KAMEHAMEHA SCH","COOP","OA",188,21.33933391,-157.8567005,"USC00513268",NA,NA,NA,NA,3.3,6.9,0.658029368030372,0,28.8970542995601,25.4,0.3,0.3,0.5,0,0,0,0.8,7.6,51.1,1,0,0.230980598194482,29.7829432567186,0,0.3,0.5,0.3,0.125861372812717,1.63616304177417,21.6460202435664,11.4,16.5
775,"NUUANU RES 5 775","BWS","COOP","OA",125,21.339125,-157.835905,"USC00516933",NA,NA,NA,NA,11.4,5.8,0,9.4,19.1,0.8,0,0,0,0,0.3,0,0.3,55.4,24.4,0,0,78,0,0,0,3.8,0,2.5,42.2,15,0.5,14.2
777,"KALIHI RES SITE 777","BWS","COOP","OA",277,21.37516437,-157.8222555,"USC00512960",NA,NA,NA,NA,7.6,4.3,0,11.2,47,0.5,14,0.5,0.3,0,1.5,0.3,0,69.9,24.1,0,37.6,98,0,0,5.3,32.5,2.5,17.3,47.5,6.9,0,76.5
777.3,"Wilson Tunnel","NOAA-NWS","HydroNet-UaNet","OA",314.5536,21.3771,-157.8166,NA,"WITH1",NA,NA,NA,6.80648562794669,4.11586462008478,0.0591797762796665,8.59416167901038,30.2485365266455,0.407219613894835,12.5100222154888,0.549020280658398,0.565422574799797,0.0990231846252955,0.68378212735913,0.886229607298678,3.02987531503853,75.6614747809121,28.1511726955091,0.652375486547505,31.6217765216502,102.990284146796,0.0591797762796665,0.0591797762796665,0.653318884031439,14.5808806818597,1.46073598269765,11.2464396973017,64.0030772507678,12.9780605474353,0.195408659876718,8.39662892670597
780.5,"TANTALUS 2 780.5","NEWMAN N","COOP","OA",404,21.32711168,-157.8239234,"USC00518738",NA,NA,NA,NA,3.17291525150019,4.0412139078321,0.58991848670124,2.75596367934364,31.6345028544181,5.82692975936632,0.360409517328301,5.1715609986874,0.0835140508892013,0.0835140508892013,0.278380169630671,0.278380169630671,3.17081186601916,44.1580223991257,36.5427780540032,1.84349527094137,0.278380169630671,25.6666516399479,14.969181600044,0.0835140508892013,0.0835140508892013,5.73463149439182,1.01577827800722,1.65625889558758,25.8872523901714,14.9195683839483,2.62976457957566,13.1803730085781
781,"KANEOHE MAUKA 781","STATE HOSPITAL","COOP","OA",61,21.40849568,-157.8105878,"USC00513113",NA,NA,NA,NA,7.70355919829529,14.6867915580235,2.15527830680417,2.6804811416854,30.4145199975653,21.8315174177918,20.8104530534845,8.46157647793791,0.250044587933694,0.106947591554558,0.358993010047152,1.13528202603734,3.53481051228161,27.2202722247393,51.2846303339453,5.14981087033179,9.10570571006984,142.404158497645,173.063705307521,0.869510211542403,2.13795218037567,25.0650462732497,7.61791153114787,8.44554942045292,20.9137073422423,19.579917784439,0.53473795777279,18.8403852244187
781.11,"LulukuRaingageatalt","USGS","USGS","OA",67.056,21.39184444,-157.809475,NA,NA,NA,NA,NA,9.906,4.826,0,14.732,61.976,0.254,31.496,0.254,0.508,0.254,0.508,0.254,7.62,86.106,34.29,0,78.74,134.366,0,0,1.524,15.24,3.048,20.828,46.482,2.794,0,4.572
781.13,"KANEOHE 0.8 SW, HI US","CoCoRaHs","CoCoRaHs","OA",20,21.4039,-157.8017,"US1HIHN0027",NA,NA,NA,NA,2.5,7.6,0.3,0,18.5,34.8,0.3,NA,0.3,0.3,0.8,0,3.8,5.8,70.1,6.9,0,114.6,170.2,0.3,0,6.4,4.6,3.3,13.7,29.2,1.8,0
781.7,"LULUKU 781.7","NWS","COOP","OA",84,21.3873,-157.8098,"USC00515655",NA,NA,NA,NA,NA,NA,0,NA,NA,0,NA,NA,0.5,0.8,NA,7.9,NA,NA,NA,0,86.6,NA,0,0,NA,NA,NA,NA,NA,2.5,0,6.9
781.9,"RBKamooaliiRaingagenrKaneohe","USGS","USGS","OA",59.484768,21.38628889,-157.7928083,NA,NA,NA,NA,NA,6.66364943997414,3.24639331691048,0,9.91004275688461,41.6905247013767,0.170862806153183,21.1869879629947,0.170862806153183,0.341725612306366,0.170862806153183,0.341725612306366,0.170862806153183,5.12588418459549,57.922491285929,23.0664788306797,0,52.9674699074867,90.3864244550338,0,0,1.0251768369191,10.251768369191,2.0503536738382,14.010750104561,31.2678935260325,1.87949086768501,0,3.07553051075729
782.3,"Nuuanu Upper","NWS","HydroNet-UaNet","OA",248.412,21.3502007,-157.8184,"USC00516938","NUUH1","156097FE",NA,NA,7.366,7.366,0,9.398,20.066,1.016,0.762,0.508,1.016,0,1.016,0.254,0,86.868,25.908,0,3.048,109.474,0,0,0,24.384,0.508,4.064,51.562,25.146,0.254,13.97
783,"NUUANU RES 4 783","BWS","COOP","OA",320,21.35266525,-157.807534,"USC00516928",NA,NA,NA,NA,9.14755123081127,6.8577877144908,0,9.84760214808816,21.4683869560057,0.903975440530295,0.38421566876592,0.248349785058148,0.426553623044105,0.0701459470721907,0.725419464183085,0.322921742566948,0.135191964637202,70.1689546504287,25.3215729091665,0,1.30304285148971,95.1110256251662,0,0.0701459470721907,0.0701459470721907,15.0829041410209,0.412023661559926,4.32926106835984,57.4236352497856,22.1042612898787,0.665151595415935,20.5121929195891
784,"PAUOA FLATS 784","BWS","COOP","OA",549,21.33516641,-157.8105899,"USC00517810",NA,NA,NA,NA,6.1,7.1,0,9.9,24.9,0.8,0.5,0.3,0.3,0.3,1,1,0,63,22.4,0,1,92.2,0,0.3,0.3,20.6,1,7.6,86.9,27.9,1.5,39.4
785.4,"Manoa Lyon Arbo","NWS","HydroNet-UaNet","OA",151.7904,21.3330002,-157.8024,"USC00516128","MNLH1",NA,NA,NA,3.048,0,0.254,0,0,0,0,1.27,0.254,0,0.762,3.048,0.254,67.564,29.718,2.8,0,74.676,0.254,0.254,0.254,5.334,0.508,8.128,129.794,18.288,0.508,10.2
787.1,"MAUNAWILI 787.1","HSPA","COOP","OA",127,21.351,-157.7668,"USC00516222",NA,NA,NA,NA,7.62394730903747,3.36939977202088,0.0760663189292561,8.63254291156587,29.9949650560225,2,5.6,0.148361873782405,0.3,0.0722955548531487,0.445667681962722,2.05751796779444,4.29872357561363,64.2844758655894,24.6256196365286,0.3,28.2,101.663357561885,0,0.3,4.2370892755817,14.6062237825133,1.28431706061839,9.33846503593232,94.5,6.6,0,3.3
787.2,"Maunawili","NWS","HydroNet-UaNet","OA",127.1016,21.3509998,-157.7668,NA,"MAUH1","19007374",NA,NA,8.128,8.128,0.508,8.636,25.908,2.54,5.334,0.508,0.254,0,0.762,0.762,6.096,83.82,19.558,0.254,26.162,144.018,0,0.254,3.048,12.954,1.27,7.874,103.632,6.858,0,0.254
788,"ST STEPHENS SEMINARY","ST STEPHEN SEMIN","COOP","OA",143,21.3666,-157.7785,"USC00518601",NA,NA,NA,NA,6.53854900953814,3.74005467883016,0.069282336723594,7.93835478997476,31.54519123614,1,6.52006972804788,0.223140293367096,0,0,0.3,0.8,3.91534148674004,53.3324686824353,21.4454289129152,0.3,63.8,129.5,0,0,4.79211098096731,14.1055973890578,1.50735421042375,10.7309913841412,73.1477251682488,3.3,0,5.6
788.1,"PALI GOLF COURSE 788.1","C&C PARKS & RECR","COOP","OA",146,21.37183016,-157.7839226,"USC00517656",NA,NA,NA,NA,1,19.6,0.871300561238045,NA,NA,47.3987505313496,2.5,5.8,0.3,NA,NA,NA,2.8,13.7,69.6,14.7,0,217.825140309511,244.835457707891,0,0.5,13,5.8,9.23578594912328,NA,NA,3,0.3
788.2,"St Stephens Seminary","NWS","HydroNet-UaNet","OA",142.9512,21.3666992,-157.7786,NA,"STVH1","19005598",NA,NA,9.652,6.35,0.254,7.874,26.416,1.524,8.636,0.254,0,0,0.254,0.762,7.112,68.58,30.48,0.254,62.484,130.81,0,0,12.7,16.256,1.016,8.382,132.334,3.556,0,0
790.11,"Olomana Fire Stn","NWS","HydroNet-UaNet","OA",45.1104,21.3777008,-157.7507,"USC00517052","OFSH1","19011468",NA,NA,7.112,4.318,0,5.08,23.368,4.572,7.62,0.254,0,0,1.016,0.254,1.27,61.722,18.288,0,11.176,107.188,0,0.254,0.508,3.556,2.794,6.35,56.134,2.032,0,0
793.1,"WAIMANALO EXPERIMENTAL FARM","CoCoRaHS","CoCoRaHS","OA",38,21.3727,-157.725,"US1HIHN0022",NA,NA,NA,NA,3.3,10.9,1.3,0,12.2,9.7,0.8,12.7,0.5,0,0.3,0,0.5,10.2,41.1,2.8,0,0,104.1,0,0,0,0,2.8,1.3,4.1,0.5,0
795.1,"WAIMANALO EXP F 795.1","HAES","COOP","OA",18,21.33516407,-157.7105906,"USC00519523",NA,NA,NA,NA,5.6,17.3,2.5,0,11.4,23.1,0,5.3,0,0,0,0,0,61.5,19.8,0,0,15.2,71.4,0,0,1.3,0.8,5.1,1.3,1.8,1.3,0.820966377857683
795.3,"Waimanalo Nonokio","NWS","HydroNet-UaNet","OA",20.1168,21.3356991,-157.7116,NA,"WMLH1","224185AC",NA,NA,7.366,9.906,0,6.604,21.082,3.302,4.572,0.254,0.254,0,0,0,0.254,63.754,15.24,0,10.922,71.628,0,0,0,1.524,2.286,2.54,1.524,1.016,0,0
798,"WAIANAE 798","CAPITAL INVESTMENT","COOP","OA",3,21.44683495,-158.1855845,"USC00519231",NA,NA,NA,NA,5.1,3.8,7.4,1.3,52.8,0,0,0,0,0,0,0,7.9,NA,17.3,0,0,NA,24.1,0,0,0.5,0,0,0,1.8,0,0
799,"WAIAWA PHB","RAWS","RAWS","OA",453.8472,21.48,-158.1072222,NA,"SCSH1","328FC12E",NA,NA,6.68918602311361,6.9797512897061,1.76631568580853,56.2898499153518,20.1620338631702,1.71853659082795,9.80602510662773,4.45119143636847,0,1.85704558403189,1.96684239480449,0,13.4644944389826,54.9690780933647,24.3403472146161,0.137418452819384,0,55.1837353244918,0,0.124422900243074,0,1.42513331188125,1.63049325573627,17.1925753942627,30.4663748801116,2.25918523195612,0,2.25443862769635
800.3,"MAKAHA CTRY CLUB 800.3","Alan Mair","COOP","OA",80,21.47833333,-158.1963889,"USC00515758",NA,NA,NA,NA,6.4,8.9,2.5,8.9,34.3,3.8,0,0,0,0,0,0,0,25.4,50.8,3.8,0,0,36.8,0,0,0,0.8,0,0,0,0,0
801.1,"Waianae Kawiwi","MT VIEW DAIRY","HydroNet-UaNet","OA",19.812,21.4566994,-158.18,NA,"WAIH1",NA,NA,NA,0,0,0,0,0,0,0,0,0,0,0,0,0,NA,10.922,0,0,42.672,0,0,0,0.254,0,0,1.524,0,0,0
803.2,"WAIANAE VALLEY","RAWS","RAWS","OA",291.6936,21.48055556,-158.1552778,"USR0000HWVA","WNVH1","487005DA",NA,NA,9.4,6.35,2.54,39.62,3.81,0,0.260000000000005,4.30999999999999,0,0.260000000000005,0.760000000000005,0,11.68,52.33,18.5,0,0,24.9,0,0,0,1.30000000000001,0.299999999999983,4.5,2.80000000000001,1,0,0
804,"Lualualei","US VY","HydroNet-UaNet","OA",35.9664,21.4211006,-158.1352,"USC00515647","LUAH1","8170406C",NA,NA,2.032,9.652,4.572,26.416,7.874,0,0,0,0,0,0,0,10.922,58.928,19.812,0,0.254,16.764,0,0.254,0,1.524,0.508,7.112,1.778,0,0,1.27
810.1,"WHEELER ARMY AIR FIELD 810.1","COOP","NWS","OA",255,21.48722,-158.02806,"USW00022508","WAFH1","B14101B2",NA,NA,6.03042466621771,1.76553354754635,0.201501548277945,9.15192289015823,5.2797954495045,11.1062170136776,0.530267232310379,1.48474825046906,0,0.062798216621698,0.901454294927644,0.418654777477987,0.159080169693112,12.1431196199077,15.8549902460803,0,28.3162702053742,64.37444200248,0,0.167461910991195,0,0.795400848465568,0.424213785848279,2.38620254539671,23.1078784485236,0.979604627681625,0,0.22048863422223
820.6,"Mililani","NWS","HydroNet-UaNet","OA",226.7712,21.4638004,-157.9991,"USC00516261","MITH1",NA,NA,NA,3.556,17.78,0.508,18.796,22.86,0,0.254,1.016,0,0,0,0,17.272,32.512,6.096,0,7.62,19.558,0,0,0,1.016,0,2.794,29.972,6.35,0.254,8.128
821.3,"SFKaukonahuaRainGage,nrWaawa","USGS","USGS","OA",262.23468,21.48880556,-157.9960556,NA,NA,NA,NA,NA,7.85492090325935,21.6904258567349,2.08626637151123,22.5197665977737,29.5173775993482,0,1.53941335596693,0.829340741038757,0,0,0,0,36.0593588120756,64.1221107447861,11.4593553536178,0,5.54101989722146,31.2877382855345,0.125897082628106,1.25897082628106,0,1.20459593548937,0,3.93603410215204,48.0160451504113,9.02852734789418,0.551725122411703,15.8889099938942
824.2,"Waipio","NWS","HydroNet-UaNet","OA",124.968,21.4199009,-158.0058,NA,"PECH1",NA,NA,NA,2.286,6.096,0.254,12.7,7.366,0,7.112,0.254,0,0,0.254,0,11.176,29.21,5.588,0,5.842,16.002,0.254,0.254,0.254,1.524,0,0,14.478,3.048,0,3.11867325477996
828,"SCHOFIELD EAST","RAWS","RAWS","OA",381,21.49944444,-157.9933333,"USR0000HSCH","SCEH1","325AB384",NA,NA,6.37228793122958,17.5963119950386,1.69247917124088,18.2691129130981,23.9459100039855,0,1.24884582164681,0.672800918059577,0,0,0,0,29.2530783945539,52.0189264101207,9.29637773809146,0,4.49514064528848,25.3821113576907,0.102133741394545,1.02133741394545,0,0.977225899059276,0,3.19309932142589,32.1716017570797,7.3243736715273,0.44758583596194,11.9924052498941
832.2,"KipapaRaingagenrWaawa","USGS","USGS","OA",210.312,21.47027778,-157.9708333,NA,NA,NA,NA,NA,6.38743392085098,17.6381358362912,1.69650194488808,18.3125359030133,24.002825904257,0,1.25181414417987,0.674400066722065,0,0,0,0,29.3226086522164,52.1425677345597,9.31847385839509,0,4.50582493236011,25.442440896993,0.102376498251085,1.02376498251085,0,0.979548621052485,0,3.20068884809267,32.2480689148064,7.34178262868829,0.448649681553873,12.0209094304036
834.13,"Waiawa CF","NWS","HydroNet-UaNet","OA",235.6104,21.4440994,-157.9669,"USC00519257","WAWH1",NA,NA,NA,3.048,10.922,3.048,11.176,9.144,0,2.286,0.254,0,0,0,0,24.892,40.64,8.128,0,0.508,18.542,0,0,0,0.508,0,2.032,25.654,4.318,0.254,10.1376032345506
835.2,"Palisades","NWS","HydroNet-UaNet","OA",261.8232,21.4298,-157.9452,NA,"PACH1",NA,NA,NA,7.874,8.128,0.508,8.128,18.542,0,0.508,0,0,0,0,0,24.13,43.942,6.604,0,0,17.526,0.254,2.54,0,0.508,0,2.032,26.6695633089274,5.08,0.508,10.668
837,"WAIAHOLE 837 ","OAHU SUGAR","COOP","OA",227,21.47016136,-157.8833636,"USC00518964",NA,NA,NA,NA,11.2251510785022,36.3166652539777,1.1005050076963,0,62.068482434071,25.0915141754755,71.5328255002592,0,0,0,0,4.40202003078518,9.02414106310962,5.50252503848148,110.050500769629,1.1005050076963,0,165.515953157523,494.126748455636,2.86131302001037,2.86131302001037,2.20101001539259,28.6131302001037,6.16282804309925,6.16282804309925,2.20101001539259,0,2.20101001539259
837.11,"WaiaholeRGatKamehamehaHwy","USGS","USGS","OA",4.2672,21.48197222,-157.8458333,NA,NA,NA,NA,NA,16.51,1.524,0,8.636,61.722,0.254,33.782,0.508,0,0,0,0,2.54,44.704,13.716,0,81.788,292.608,0.254,0,2.032,5.334,5.08,10.922,47.752,0.508,0,0
837.5,"WAIHEE 837.5","COOP","COOP","OA",34,21.45167,-157.84889,"USC00519281",NA,NA,NA,NA,8.9,13.7,5.3,0,11.7,43.9,0.5,23.4,0.5,0.3,0,0,3.8,25.7,53.1,13.7,0.3,221.5,150.6,0.5,0.5,47,0.3,7.9,22.6,48.8,1.5,0
837.6,"KANEOHE 3.9 NW","CoCoRaHS","CoCoRaHS","OA",24,21.4551,-157.8294,"US1HIHN0011",NA,NA,NA,NA,6.83183286788111,17.0007333464519,2.01151637156232,3.55962767337157,24.6782856701751,24.0685138094637,14.0027695328404,8.40345073199317,0.130797455623731,0.0784784733742386,0,0.7803874249374,4.18142344650729,12.8911456738837,45.3402139755698,3.77894714032458,0.0784784733742386,144.339085239023,179.516742030605,0.73727231699837,1.39875921810056,14.4380948290202,5.15099673546734,5.34204896740454,24.6732847496584,13.9326714191714,0.491615402036522,0.555565437744248
838.1,"KANEOHE 838.1","DL AH YOU","COOP","OA",18,21.42349474,-157.803921,"USC00513117",NA,NA,NA,NA,5.1,16.5,0.5,0,28.2,11.4,32.5,0,0,0,0,2,4.1,2.5,50,0.5,0,75.2,224.5,1.3,1.3,1,13,2.8,2.8,1,0,1
839.12,"AHUIMANU LOOP 839.12","MITCHELL DON","COOP","OA",73,21.432,-157.8373,"USC00510055",NA,NA,NA,NA,6.1,0.3,0,10.1986970210537,35.725849878217,0,23.6,0,0,0.0768070010220473,0.410214924832281,5.6,5.00508562943297,62.8695454200216,18.4255273595929,0,51.8486129504508,111.567604440718,0.3,0,17.5444542954047,12.8887112520778,2.59616112039769,16.3253182020626,40.8276015871349,1,0,0.5
839.15,"Ahuimanu Loop ","NWS","HydroNet-UaNet","OA",74.0664,21.4319992,-157.8373,NA,"AHUH1","15CE7632",NA,NA,3.556,4.064,0,14.478,43.942,0,23.622,0,0,0,0.508,0,5.842,80.264,27.432,0,84.582,221.234,0.254,0,5.334,12.7,1.016,10.414,59.182,1.016,0.254,0
839.31,"HaikuRaingagenrHeeia","USGS","USGS","OA",134.112,21.40628611,-157.829475,NA,NA,NA,NA,NA,3.87340033859913,2.64012837643448,0.132021915242417,7.7754109346329,24.1643923180739,0.125537619517468,12.3811469854249,0.0815303144366628,0.213535917657298,0.0815303144366628,0.566862939145102,0.0815303144366628,2.63487462082944,41.9530860767259,14.9812042954769,0,27.4124949745604,64.5725289247969,0.050475288783972,0,1.09488535202764,9.28063182872262,1.1233216558887,11.9246420911122,26.3405238539897,3.03493095799826,0.138489898945583,20.9083934857301
839.8,"Waihee Pump","USGS","HydroNet-UaNet","OA",64.3128,21.4463997,-157.8584,"USC00519286","WPPH1","195042AC",NA,NA,11.938,4.318,0.254,13.97,41.656,0,25.908,0.508,0.762,0,0,0,8.636,82.296,18.288,0,90.678,187.452,0.254,0,55.626,14.732,5.334,19.304,69.342,3.048,0,0
840,"KANEOHE BAY MCAS","USMC","NWS","OA",3,21.44404851,-157.7730876,"USW00022519",NA,NA,NA,NA,11.4,5.8,0,8.4,21.3,0,2.3,0,0,NA,0.3,0,0.8,24.9,10.4,0,0.8,48.5,0,0,0.3,0.3,0.8,3.3,18.5,0,0,0
840.1,"COCONUT ISLAND 840.1","UH MARINE LAB","COOP","OA",5,21.43321608,-157.7869766,"USC00510350",NA,NA,NA,NA,10.2,0,0,17.5,20.3,0.5,13.7,0,0.3,0.8,0,1.5,5.3,30.5,15.2,0,30.5,94.7,0,0,0,0,9.1,2.3,9.9,0.5,0.5,0
841.2,"KUAOKALA","S&PF","RAWS","OA",267.0048,21.57027778,-158.26,NA,"KKRH1","48710720",NA,NA,2.29,2.28,8.13,43.69,7.62,0.25,0,0,0,0,0.510000000000005,0,11.68,36.29,8.69999999999999,1,3.30000000000001,27.2,0,0,0,0.200000000000017,0,0,6.59999999999999,0,0,0
841.3,"KAENA POINT 841.3","LOCKHEED BALLISTIC","COOP","OA",378,21.56322317,-158.2430755,"USC00512410",NA,NA,NA,NA,NA,NA,NA,NA,0,11.2,0.5,NA,NA,NA,NA,NA,8.6,NA,NA,1.3,NA,NA,NA,NA,0,NA,NA,NA,NA,NA,1,0
842.1,"MakahaRainGage","USGS","USGS","OA",286.097472,21.50158333,-158.1801667,NA,"MKHH1","DD1423F8",NA,NA,1.016,8.89,7.874,26.67,5.588,0.254,0.508,6.35,0,2.286,1.778,0,23.876,67.056,17.018,0,0,40.64,0,0,0,1.016,0.254,0,6.096,0.762,0,0
842.7,"MAKUA VALLEY","RAWS","RAWS","OA",158.496,21.52611111,-158.2041667,"USR0000HMAP","MAPH1","324C075A",NA,NA,0.254,0,0,0,0,0,0.254,0,0,0,0,0,0,0,0,0,0,0,0,0,0,0,0,0,0,0,0,0
842.8,"MAKUA RANGE","RAWS","RAWS","OA",6.096,21.52861111,-158.2261111,"USR0000HMAR","MKRH1","3266B468",NA,NA,1.27,NA,NA,NA,NA,0,0.509999999999998,0.759999999999998,0,1.01000000000001,0.259999999999998,0,NA,NA,NA,0,0,NA,NA,0,0,NA,0,0,NA,NA,0,0
842.9,"MAKUA RIDGE","RAWS","RAWS","OA",533.4,21.54277778,-158.1988889,"USR0000HMRG","MKGH1","3266C2F8",NA,NA,0.259999999999998,1.01000000000001,6.86,20.83,5.08,0.25,1.02,2.29000000000001,0,2.79000000000001,1.52,0,6.27458520455438,36.27,16.3,1,4.79999999999998,58.7,0,0,0,0.299999999999983,0,0.200000000000017,15.5,2.79999999999998,0,0.800000000000011
844.5,"MT Kahala JD","J_Delay","PrivateObs","OA",1204.01,21.50675,-158.1448611,NA,NA,NA,NA,NA,11.7,6.6,1.5,23.4,5.1,0.3,7.9,5.8,0,2.3,2.3,0,15.7,43.9,11.9,0,0.5,26.2,0,0,0,2.8,0.5,5.3,7.9,1.8,0.3,0.8
845.1,"Makaha Valley 1","Mair_Fares","NREM","OA",341.26,21.50638889,-158.1766667,NA,NA,NA,NA,NA,9.66829003688354,10.4560891095954,5.13868017237873,48.0178809001442,7.02465160983647,1.22189395177014,1.46546425471941,6.35800918078341,0,1.68496122751054,1.8572999693717,0,21.641986146018,71.5460194278882,22.8408725639372,0,0,64.7056053843369,0,0,0,1.92882058756801,0.264064068893196,12.5995500461228,24.5617155015112,0.843426621539463,0,0.930840550086708
845.2,"Makaha Valley 2","Mair_Fares","NREM","OA",469.57,21.50972222,-158.1819444,NA,NA,NA,NA,NA,7.93407004050385,8.58056006065171,4.21694511106572,39.4048201703639,5.76462618208193,1.00272045609187,1.20260107986442,5.21756070267442,0,1.38272645355095,1.52415245994944,0,17.7600209802425,58.7126707095654,18.7438608085981,0,0,53.0992350430164,0,0,0,1.58284428569576,0.216698383042549,10.3395442382689,20.1560328000601,0.692139547302686,0,0.763873869397246
845.3,"Makaha Valley 3","Mair_Fares","NREM","OA",598.02,21.50138889,-158.1725,NA,NA,NA,NA,NA,1.40623986036014,12.3045987781512,10.8983589177911,36.9137963344537,7.73431923198077,0.351559965090035,0.70311993018007,8.78899912725088,0,3.16403968581032,2.46091975563025,0,33.0466367184633,92.8118307837693,23.5545176610324,0,0,56.2495944144056,0,0,0,1.40623986036014,0.351559965090035,0,8.43743916216084,1.05467989527011,0,0
