"SKN","Station.Name","Observer","Network","Island","ELEV.m.","LAT","LON","NCEI.id","NWS.id","NESDIS.id","SCAN.id","SMART_NODE_RF.id","X2020.05.01","X2020.05.02","X2020.05.03","X2020.05.04","X2020.05.05","X2020.05.06","X2020.05.07","X2020.05.08","X2020.05.09","X2020.05.10","X2020.05.11","X2020.05.12","X2020.05.13","X2020.05.14","X2020.05.15","X2020.05.16","X2020.05.17","X2020.05.18","X2020.05.19","X2020.05.20","X2020.05.21","X2020.05.22","X2020.05.23","X2020.05.24","X2020.05.25","X2020.05.26","X2020.05.27","X2020.05.28","X2020.05.29","X2020.05.30","X2020.05.31"
2.32,"SOUTH KONA 2 2.32","COOP","COOP","BI",647,19.10778,-155.78944,"USC00518652",NA,NA,NA,NA,0,0,0,1,NA,NA,NA,14.5,NA,2.8,0.3,NA,0,0,3.6,0.5,NA,NA,NA,4.3,NA,2.3,NA,NA,NA,9.9,NA,NA,2.8,NA,NA
2.34,"MILOLII 2.34","COOP","COOP","BI",280,19.186302,-155.886763,"USC00516304",NA,NA,NA,NA,0,3.8,2,0.5,NA,2,NA,2,0.5,NA,3.8,NA,1,0,0.8,1.8,1.5,1.8,NA,NA,9.4,7.1,3.3,7.9,4.3,1.5,NA,NA,NA,NA,NA
2.36,"KAPUA 2.36","COOP","COOP","BI",533,19.14472,-155.84944,"USC00513376",NA,NA,NA,NA,0,0,0,1,0.8,NA,5.6,5.3,4.6,3.3,8.9,0,0,0,NA,NA,0,5.3,4.6,7.6,NA,9.9,NA,6.6,2.3,2.8,7.1,NA,0.5,NA,0.5
3.22,"HAWAIIAN OCEAN VIEW 4.7 NNE","HAWAIIAN OCEAN VIEW 4.7 NNE","CoCoRaHS","BI",1273,19.135,-155.747,"US1HIHI0035",NA,NA,NA,NA,0.5,0.5,0.5,NA,0.8,NA,5.1,21.8,NA,NA,0.8,0.3,0.5,0.5,1.5,4.6,0.5,NA,1.3,1,1.8,1,1.3,1.5,6.6,7.4,6.4,1.3,2,2,2.3
3.9,"LOWER KAHUKU CS","LOWER KAHUKU CS","RAWS","BI",953.7192,19.10083333,-155.6697222,NA,"LKHH1","32D620C2",NA,NA,5.58799999999997,0.762000000000171,1.01599999999962,0,1.52400000000011,2.03199999999993,6.35000000000014,NA,NA,5.58799999999997,0.762000000000171,3.048,NA,2.7940000000001,1.77799999999979,2.28600000000006,2.28600000000006,10.9219999999998,NA,NA,NA,5.8420000000001,NA,5.8420000000001,2.53999999999996,NA,NA,NA,5.07999999999993,7.61999999999989,10.1599999999999
4.12,"NAALEHU 4.6 WSW","NAALEHU 4.6 WSW","CoCoRaHS","BI",391,19.0424,-155.6354,"US1HIHI0001",NA,NA,NA,NA,0,0,0,0,0,0.8,0,3,1.5,0,3,0,1,3.7735010785321,0.8,3.6,2.5,0,2.8,17.3,1,7.6,1.10985325839179,0.591921737808957,1.14392271530368,5.62394056240906,NA,3.92500878217303,NA,2.07172608233135,NA
4.14,"NAALEHU 4.7 WSW, HI US","CoCoRaHs","CoCoRaHs","BI",393.18,19.0421,-155.6371,"US1HIHI0057",NA,NA,NA,NA,0,0,0,0,0,0.8,NA,3,1.8,0,2.5,0.5,0.8,0,NA,3.3,2.8,0,3,14.5,0.8,5.6,0.5,0.8,NA,3.8,14.7,7.6,NA,1,4.8
4.15,"SOUTH POINT NEAR NAALEHU 12SSW","NWS","STATE","BI",295.78,18.9928,-155.668,NA,"SOPH1","B1507246",NA,NA,0,0,0,0,0,0,0,0.508,NA,0,0.254,0,0,0,1.016,NA,NA,0,2.286,9.398,1.016,NA,0,0.508,1.778,NA,NA,0.254,NA,1.778,0.254
6.2,"NAALEHU 5.7 W","NAALEHU 5.7 W","CoCoRaHS","BI",679,19.0732,-155.6632,"US1HIHI0012",NA,NA,NA,NA,0,1.3,1.8,0.8,0,2.3,1.5,8.4,2.02729503471505,0.8,8.1,2.3,2.3,5.1,2.8,3.6,5.1,7.6,6.9,20.1,8.1,9.29941402884544,3,0.8,2,5.1,NA,10.2,NA,2.8,NA
9.2,"Nene Cabin","Nene Cabin","RAWS","BI",1991.7737,19.2564,-155.6144,NA,"NENH1","32D64524",NA,NA,0,0,0,0,0,1.01599999999985,3.55600000000004,11.9380000000001,0.253999999999905,2.53999999999996,0.253999999999905,1.77800000000002,0,0.508000000000266,0.253999999999905,NA,0,3.80999999999995,NA,8.88999999999987,NA,4.57199999999989,6.60400000000004,0.508000000000038,1.524,5.58800000000019,4.57199999999989,0.761999999999944,0,0,0
14,"NAALEHU 14","KAU SUGAR","COOP","BI",206,19.06032754,-155.5855501,"USC00516588",NA,NA,NA,NA,0,0,0,0,0,0,0.3,3.85004801092286,1.48507300020361,0,0.8,0.3,0,1.99797498607759,1,2.8,2.3,0,3.6,7.6,2,6.1,0,0.586031327369122,0.8,7.4,6.41333975103326,0.3,0.260000260177024,2.05110964579193,NA
21,"Pahala","KAU SUGAR","HydroNet-UaNet","BI",346.8624,19.2042999,-155.4872,"USC00517421","PPLH1","B16084B2",NA,NA,0,0,0,0,0,2.28600000000006,3.04800000000023,3.02026192931679,1.01600000000008,0,0.762000000000171,1.06992399747664,0,4.82600000000002,11.4299999999994,1.01600000000053,0,0,2.54404150511111,1.52399999999943,1.27000000000044,2.03200000000015,0,10.1599999999994,5.84200000000055,7.36599999999999,1.52399999999989,0.190208710662513,0.0713282664984424,0,0
21.3,"PAHALA MAUKA 21.3","COOP","COOP","BI",332,19.20667,-155.48861,"USC00517437",NA,NA,NA,NA,0,0,0,0,0,1.60245027127498,2.3,2.8,1.42440024113339,0,0.995688090111315,1.5,0,0.3,4.6,2.32758311946877,1.32692174909787,0,10.7,2,0.5,1.5,0,14.2440024113319,4.55668869294477,9.43267737120562,7.4,0.8,0.3,0,0
21.4,"HAWAIIAN OCEAN VIEW 1.7 NNE, HI US","CoCoRaHs","CoCoRaHs","BI",733.03,19.0908,-155.7552,"US1HIHI0059",NA,NA,NA,NA,NA,NA,NA,NA,1,NA,4.3,NA,NA,5.8,NA,NA,0.3,NA,NA,5.1,0.3,NA,3.6,0.8,1.5,1.3,NA,NA,1.5,1.5,7.6,0.5,1.3,2.8,2
23,"KAHUKU","RAWS","RAWS","BI",1796.4912,19.23222222,-155.78,NA,"KRCH1","32639544",NA,NA,0,0,0,1.01600000000002,1.01599999999996,7.62,7.62,NA,7.36599999999999,4.572,4.82600000000002,6.09599999999995,3.30199999999996,0.254000000000076,NA,NA,1.01599999999996,4.06400000000002,7.36599999999999,NA,NA,NA,3.30200000000002,5.84199999999998,10.668,7.62,8.12800000000004,2.79399999999998,0.507999999999925,0.254000000000019,2.28600000000006
26.2,"KEALAKEKUA 26.2","GREENWELL ESTATE","COOP","BI",442,19.48975723,-155.9122125,"USC00513977",NA,NA,NA,NA,1.12984120770149,1.71605753650574,0,0.937946126086887,5.22406437939372,1.68198437658009,2.16047272198996,8.80672303813529,1,7.50356900869466,7.50356900869466,2.69458231852056,2.11037878369539,3.35746325715768,2.5,2,0,3.98627103586915,3.13138056698631,6.82353686816779,8.04564820767915,14,4.8029483082373,5.39319022499927,5.62767675652088,10.5518939184765,7.14107846800245,5.43399836708079,3.8,5.97538096584579,9.1
27,"HONAUNAU 27","TANAKA S","COOP","BI",332,19.4403158,-155.8788789,"USC00511665",NA,NA,NA,NA,1,1,NA,NA,8.1,1.8,2,8.1,2,NA,NA,2.8,0,1,0.5,1.83950374388407,NA,NA,3.6,5.6,7.4,12.8765262071885,5.6,NA,NA,NA,6.9,3,0,5.6,8.36974203467254
27.6,"Honaunau No. 2","NWS","HydroNet-UaNet","BI",398.0688,19.4629002,-155.8824,NA,"HAUH1","15D12742",NA,NA,1.27000000000044,3.55600000000049,0,2.53999999999996,0,7.8739999999998,0,NA,4.57200000000103,10.4139999999998,5.84199999999964,1.27000000000044,4.0639999999994,2.53999999999996,2.53999999999996,5.84200000000055,0,4.82600000000002,3.57926436976607,9.14399999999932,NA,12.4459999999999,0.507999999999811,5.8802200360443,2.79399999999987,2.28600000000006,8.38200000000052,1.26999999999953,0.254000000000815,7.8739999999998,8.1279999999997
29.12,"Kealakekua","NWS","HydroNet-UaNet","BI",537.972,19.5181007,-155.9159,NA,"KLEH1","81708572",NA,NA,1.26999999999998,2.53999999999996,0,1.01600000000008,1.77800000000025,1.52399999999989,0.762000000000171,NA,0.253999999999905,8.12800000000016,8.12800000000016,2.53999999999951,4.57200000000012,6.096,0.507999999999811,6.60400000000027,0,4.31800000000021,3.55600000000004,8.63602070954627,NA,33.7820000000002,3.80999999999995,5.8420000000001,6.096,11.4299999999998,11.9380000000001,7.36599999999999,1.68163111303854,6.34999999999991,8.96622624842093
34,"Kapapala Ranch","NWS","HydroNet-UaNet","BI",638.556,19.2754993,-155.4514,"USC00513300","KAYH1","B16097C4",NA,NA,0,0,0,0,0,4.57200000000012,0.253999999999905,7.87400000000025,4.57200000000012,0.253999999999905,2.79400000000032,NA,0.508000000000266,6.85799999999972,6.60400000000027,0.507999999999811,0,0,0,1.26999999999998,2.53999999999996,2.79400000000032,4.82600000000002,6.85799999999927,10.9220000000005,7.62000000000035,2.03199999999924,0,0,0,0
36.3,"KAPAPALA RANCH","KAPAPALA RANCH","RAWS","BI",1081,19.25811,-155.441781,NA,"KPRH1","AA10E258",NA,NA,0,0,0,0,0,4.31799999999987,3.30200000000013,2.03199999999993,5.08000000000004,0,4.82599999999991,NA,0.254000000000133,8.38199999999995,2.7940000000001,0.761999999999944,0,0,0,1.01600000000008,0.253999999999905,2.03200000000015,1.01599999999985,4.82600000000002,3.80999999999995,4.57199999999989,0.508000000000266,0,0,0,0
38.9,"KAELAKOMO","KAELAKOMO","RAWS","BI",29.5656,19.29277778,-155.1075,NA,"KMOH1","32807432",NA,NA,0,0,0,0,0,0,0,0,0,0,0,0,0,0,0,0,0,0,2.53999999999996,5.58799999999997,0.508000000000038,1.01599999999985,1.0160000000003,2.53999999999974,7.62000000000012,3.55600000000004,1.26999999999998,0,0,0,0
39,"Mauna Loa Observatory","NWS","ESRL/GMD","BI",3397,19.5362,-155.5763,"USC00516198","MOBH1",NA,NA,NA,0,0,0,0,0,0,4.064,2.286,1.27,0,0,0,0,0,0,0,0,0,0,0,0,0,0,0,0,0,0,0,0,0,0
39.2,"MAUNA LOA 5 NNE","MAUNA LOA 5 NNE","USCRN","BI",3398,19.5354,-155.576,"USW00021514","MLBH1","CD07379A",NA,NA,0,0,0,0,0,0,5,2.3,2,0,0,0,0,0,0,0,0,0,0,0,0,0,0,0,0,0,0,0,0,0,0
43.3,"PUHE CS","PUHE CS","RAWS","BI",34.126,20.025,-155.8211111,NA,"PHRH1","32D61558",NA,NA,0,0.253999999999905,0,0,0,1.01600000000008,0.508000000000038,0,0,5.58799999999997,0,0,0,0.253999999999905,0,0,0,0,3.30200000000013,4.06399999999985,2.28600000000006,1.52399999999989,0,0.254000000000133,1.52399999999989,5.33400000000006,0.253999999999905,0,0,3.30200000000013,0.508000000000038
47,"KEMOKU LAVA FLOW","RAWS","RAWS","BI",1706.88,19.47555556,-155.3627778,"USR0000HKEA","KKUH1","FA4447E8",NA,NA,0,0,0,0,0,0.254000000000133,1.01599999999985,0,8.12800000000016,0,1.01599999999985,1.01600000000008,5.8420000000001,0.253999999999678,0,0,0,0,0,1.26999999999998,0.761999999999944,0.762000000000171,2.54000000000019,0,3.30199999999991,1.52400000000011,0.253999999999678,0,0,0,0
48,"PALI 2","RAWS","RAWS","BI",847.344,19.3175,-155.2922222,"USR0000HPAL","PLIH1","FA900222",NA,NA,0,0,0,0,0,1.27,0,0,2.28594970703125,NA,0.2540283203125,0.508,3.302,NA,1.5240478515625,NA,0,0,0,0.25390625,0,0,1.0159912109375,0.508,5.333984375625,2.286,0,0,0,0,0
54.2,"Glenwood","HELBUSH XL","HydroNet-UaNet","BI",802.2336,19.5076008,-155.1707,"USC00510744","GLNH1",NA,NA,NA,4.572,0.508,8.382,0,0.762,4.67565194954551,2.794,1.778,8.382,0.508,5.588,0.254,0.508,0,5.08,3.556,1.016,6.604,42.0732614089229,26.4,7.50209887373267,16.51,0,0,0,15.1861758307406,5.334,3.81,0,12.3582728504312,4.064
55.3,"VOLCANO 4.4 S","VOLCANO 4.4 S","CoCoRaHS","BI",1158,19.4338,-155.2417,"US1HIHI0040",NA,NA,NA,NA,0,0,0,0,0,0,4.8,0,1,1.3,0,NA,NA,NA,0,0,0.5,0.3,0.5,18,5.8,NA,NA,3.3,NA,NA,NA,0,0,0,1.3
55.6,"VOLCANO 4.0","COOP","COOP","BI",1194.8,19.441359,-155.2487445,"US1HIHI0071",NA,NA,NA,NA,0,0.3,0,0.5,0,0.5,6.1,0.3,1.8,3.8,0.3,1.3,2.8,1,0,1.5,1,0.5,0.5,20.6,9.4,10.9,1.5,7.4,2,5.8,10.4,1,0.3,0.3,1.3
63,"KALOKO-HONOKOHAU","RAWS","RAWS","BI",7.62,19.67277778,-156.0202778,NA,"KHOH1","FA667668",NA,NA,0,0.253999999999991,0,0,NA,1.524,0,NA,NA,0,2.286,0.50800000000001,NA,0,0,0,1.27000000000001,NA,NA,1.77799999999996,0.508000000000038,11.43,0,18.288,0,0,3.04799999999997,2.03200000000001,0.253999999999991,NA,0.507999999999981
65.4,"PAHOA 2.1 E","PAHOA 2.1 E","CoCoRaHS","BI",137,19.5043,-154.9165,"US1HIHI0003",NA,NA,NA,NA,3.8,3.8,6.9,1,0.5,0.5,0.5,0.8,5.1,0.8,0.3,14,2.5,0.5,1.5,1.5,0,3.3,8.1,18.8,11.9,14,3,16.5,9.9,11.9,1.3,0.3,2.3,5.1,4.3
65.6,"KURTISTOWN 6.6 SSE, HI US","CoCoRaHs","CoCoRaHs","BI",339.63,19.5021,-155.029,"US1HIHI0055",NA,NA,NA,NA,4.1,10.7,2.8,4.1,1.5,4.1,9.4,2.5,11.2,4.1,1,9.7,0.5,0,0.3,0.8,1,1.3,24.9,37.3,10.3871610024567,21.8,4.6,7.25245175437052,4.8,4.8,4.3,1,1.3,4.48005578712868,9.1
66.6,"PAHOA 3.3 SEE","COOP","COOP","BI",254.2,19.459069,-154.921985,"US1HIHI0052",NA,NA,NA,NA,4.3,3.8,6.6,NA,NA,0.8,1,NA,NA,NA,0,10.4,1,0.3,2.3,4.8,0,2.3,NA,NA,NA,NA,NA,14.2,NA,NA,NA,NA,NA,NA,NA
67.7,"PAHOA 2.7 SSE","PAHOA 2.7 SSE","CoCoRaHS","BI",259,19.4654,-154.927,"US1HIHI0051",NA,NA,NA,NA,4.1,4.3,4.1,1.8,0.8,0.3,0.3,1.5,6.07640208179325,0.3,0.3,10.9,0.3,0.3,2,4.1,0.3,1.5,17.5,24.1,5.8,23.6,3,15.2,8.9,3.8,5.8,3.6,1.8,2.8,8.1
68.21,"KAILUA KONA KE AHOLE AIRPORT","KAILUA KONA KE AHOLE AIRPORT","NWS","BI",27,19.73556,-156.04889,"USW00021510","PHKO",NA,NA,NA,1.016,0,NA,NA,1.778,NA,0,NA,NA,NA,2.54,0.508,0.254,0,NA,0,6.35,NA,NA,NA,NA,5.842,0,NA,0,0.508,NA,1.016,0,NA,0.508
68.22,"HOLUALOA 4.0 NW","HOLUALOA 4.0 NW","CoCoRaHS","BI",416,19.6799,-155.9699,"US1HIHI0049",NA,NA,NA,NA,NA,NA,NA,NA,NA,NA,NA,NA,NA,NA,NA,NA,NA,NA,NA,NA,NA,NA,NA,NA,NA,NA,NA,NA,NA,NA,NA,NA,0.5,NA,NA
69.25,"Palamanui","Hilo Forest Service","HIPPNET","BI",297,19.73756,-155.99582,NA,NA,NA,NA,NA,0.762,0.254,0.254,0,0.508,0,0,4.318,2.794,0,3.81,7.874,NA,10.16,0,0,1.016,2.032,0.254,6.604,NA,3.556,0,25.654,0,0.254,3.556,0.508,1.524,0,0
69.27,"KALAOA 1.7","KALAOA 1.7","CoCoRaHS","BI",304.5,19.7238,-155.9926,"US1HIHI0006","","",NA,NA,0,2,0,0,NA,NA,NA,NA,7.6,7.1,NA,2,7.9,NA,0,0.5,0,NA,3.6,1,3,NA,2,NA,NA,1,NA,6.1,0.5,3,0
69.51,"Kailua Kona HI US E6648-EW6648 ","unknown","APRSWXNET","BI",164.05,19.61,-155.96,NA,"E6648",NA,NA,NA,3.30199983678589,1.01599997854233,NA,0,NA,NA,0.508000016212463,4.82599993181229,1.52399996621399,NA,3.81000018119812,1.01600005122681,NA,1.0160000486374,NA,6.60399961471558,NA,2.03200006484985,1.01599997806549,13.4620005407333,0.762001327514602,38.0999987419677,0.507999420166101,14.2239991500045,NA,1.0159997940064,2.28600001335144,1.77800001049042,NA,8.38199996948242,3.30199956893925
70.16,"Waiaha Stream","NWS","HydroNet-UaNet","BI",460.5528,19.6331997,-155.9486,NA,"WIHH1","9321011E",NA,NA,4.57200000000012,7.36599999999999,0.25400000000036,1.01600000000008,1.77799999999979,2.53999999999951,0.508000000000266,NA,0.286179666951761,0.253999999999451,8.38199999999961,7.36600000000044,8.12800000000016,4.57200000000012,0.507999999999356,5.08000000000038,0,7.11200000000008,4.82600000000002,NA,NA,63.2460000000001,0.253999999999905,6.58213233989308,6.86831200684484,3.30199999999968,6.85800000000017,2.53999999999996,0.761999999999716,7.15449167379661,NA
70.7,"Puuwaawaa","Hilo Forest Service","HIPPNET","BI",1659,19.72544,-155.87389,NA,NA,NA,NA,NA,0.762,0,0,0,0.254,1.524,0.254,11.43,3.81,0.762,NA,NA,5.334,NA,NA,0,0.508,9.652,5.588,8.89,NA,1.27,2.032,10.668,7.62,7.366,9.906,2.286,2.032,0.762,NA
74.8,"KEALAKEKUA 4 74.8","COOP","COOP","BI",433,19.5106,-155.9217,"USC00513987",NA,NA,NA,NA,1.28552839919186,1.95252278177501,0,1.06719101213314,5.94391767014711,1.91375448899541,4.1,10.0202510690611,1.29290981957979,8.53752809706462,8.53752809706462,3.06588401167045,2.40117977729944,3.82010705300788,4.1,4.60616642870396,0,4.53556180156571,2.5,8.6,9.15430344580891,25.7066200516118,5.46477364075823,6.13634831976518,6.40314607279834,12.0058988864967,3.3,7.1,5.6,6.79876240592453,10.3539403173696
75.1,"PTA KIPUKA ALALA","RAWS","RAWS","BI",1641.348,19.66694444,-155.7077778,"USR0000HPTK","PKAH1","32666200",NA,NA,0,0,0,0,0,0.50800000000001,0,0.507999999999981,0.254000000000048,0,1.26999999999995,2.03200000000001,0.253999999999991,0,0,0,0,1.77800000000002,0.253999999999991,0,2.53999999999999,0.254000000000048,0,0.253999999999991,3.04799999999997,3.81,0.762,0,0.253999999999991,0,0
79.6,"Kulani NWR","NWS","HydroNet-UaNet","BI",1623.3648,19.5543995,-155.3089,NA,"KNWH1",NA,NA,NA,0,0.254,0.508,0,0,4.318,6.858,4.318,3.81,0.254,3.556,5.334,1.27,1.01970156921902,1.27,0.508,0.254,1.016,1.778,18.7248342428555,6.55149543364894,5.588,0,0,0,12.446,4.318,0.254,0,0.762,0.254
83,"QuarryRainGageatSaddleRd","USGS","USGS","BI",1286.256,19.68586111,-155.2942222,NA,"SDQH1","DDF6B6E4",NA,NA,5.8420000000001,3.55599999999993,5.07999999999993,0.254000000000133,2.53999999999985,4.572,3.30200000000002,4.06399999999996,5.58800000000019,0.253999999999905,2.79399999999998,10.668,10.414,1.77799999999991,4.3180000000001,1.77800000000002,0.253999999999905,3.30200000000013,34.312658344421,32.5120000000001,8.66906384214383,16.002,10.6680000000001,0.507999999999811,7.87400000000002,4.57200000000012,9.90599999999995,0,1.52400000000011,5.33400000000006,2.03199999999993
85.2,"Waiakea Uka","NWS","HydroNet-UaNet","BI",303.8856,19.6585999,-155.1277,"USC00519084","WKAH1",NA,NA,NA,5.334,0.508,7.874,0.508,0,5.334,12.192,2.54,6.00228417918781,2.794,1.524,0,0,0.3,4.826,2.032,0.762,2.54,40.132,21.3,6.88386069519789,11.176,0,0,0,9.51036025035667,1.778,2.286,2.794,14.732,0
87,"HILO INTERNATIONAL AIRPORT 87","NWS","HydroNet-UaNet","BI",11.6,19.7191,-155.053,"USW00021504","PHTO",NA,NA,NA,8.636,1.778,2.794,1.27,0,3.302,5.08,3.556,3.048,0,2.54,0.508,0,0,0,0,3.302,2.54,18.542,21.586417126926,3.556,6.858,0.254,0.508,0.508,2.54,2.032,0.254,2.032,1.778,0
87.5,"HILO 5 S","HILO 5 S","USCRN","BI",189,19.645,-155.0827,"USW00021515",NA,NA,NA,NA,4.5,0.5,2.6,0.3,0.3,7,3.5,0,4.6,0,0.2,0.8,0,1.1,1.2,0,0.9,3.7,37.9,31.9,8.8,10.3,4.1,3,0,8.8,1.2,0,4,6.7,0
87.8,"HILO 0.4 SW","HILO 0.4 SW","CoCoRaHS","BI",107,19.692,-155.0925,"US1HIHI0039",NA,NA,NA,NA,5.6,1.8,4.1,1.5,0,1.81410201737032,8.9,2.5,2.5,2.8,0.3,0.5,0,0,0,0.5,0,1,16.3,29,14,10.4,2.3,4.1,0.3,6.4,9.1,0.8,1.32939442687411,4.1,9.9
87.9,"IPIF","Hilo Forest Service","HIPPNET","BI",111,19.69748,-155.0954,NA,NA,NA,NA,NA,6.35,1.27,5.588,1.016,0,6.35,5.842,0.254,3.302,0,0,0.254,0.254,0,0,0.508,1.524,1.778,27.432,18.542,7.366,6.604,3.048,0.254,2.032,10.414,2.032,0.254,4.064,5.334,0.762
88.8,"Waiakea Exp Farm","UNIV HAWAII","STATE","BI",183,19.644743,-155.0805636,NA,"WEXH1","CD07410A",NA,NA,4.318,0.254,2.54,0.508,NA,6.858,3.302,0,5.588,0,0.508,NA,0,NA,3.048,0.254,1.016,5.842,37.338,NA,8.89,9.652,4.318,4.318,0,8.89,1.27,0,3.81,5.334,0
89.11,"Piihonua","NWS","HydroNet-UaNet","BI",296.8752,19.7098007,-155.1395,"USC00518053","PIIH1",NA,NA,NA,6.096,0.508,8.382,0.508,2.032,0.762,17.018,6.35,6.35,1.27,0.254,0.762,0.254,0,0.508,1.778,0.254,5.842,43.434,34.3,6.26866725781737,12.192,0,0,0,13.462,12.954,1.524,1.016,12.7,1.016
89.13,"KAIWIKI HOMESTEAD 89.11, HI US","COOP","COOP","BI",379.67,19.7509,-155.1362,"USC00512802",NA,NA,NA,NA,6.4,3.3,3.3,6.4,0.8,2,13.5,3.7787568651822,6.19474077369143,0.5,4.1,3,3.3,0,0.3,1.3,4.3,0.5,27.4,52.3,16.5034635123208,23.1,2.5,0.5,0,3.3,11.607117146793,7.6,1,7.4,10.3247411804807
91.11,"PUNA MACADAMIA O 91.11","COOP","COOP","BI",244,19.61861,-155.08667,"USC00518315",NA,NA,NA,NA,4.11955335821702,1.07947788065752,5.67708778467528,0.685819731680223,0,1.47887922698772,0,0,4.71015357566252,1.54659902773111,1.23302343777283,0,1.8,0,0,1.09298835979299,0.286926432016961,2.44436153675792,20.7003780624393,37.8756755044427,5.60342463240634,12.1210551359377,0.341170395780323,0.209951012787891,0,8.14901521385271,0,0,0,8.86468944097764,1.33654176576084
91.15,"Mountain View","Mountain View","HydroNet-UaNet","BI",346.5576,19.5674992,-155.0841,NA,"MTVH1",NA,NA,NA,8.128,1.016,5.588,0.762,0,4.318,1.27,3.302,5.334,0,4.318,1.016,0,NA,0.254,0.508,1.778,7.112,31.496,NA,NA,18.796,0,0,0,NA,2.794,0.508,3.048,11.938,0.762
91.17,"PAHOA BEACON 91.9, HI US","COOP","COOP","BI",148.5,19.5407,-154.9728,"USC00517460",NA,NA,NA,NA,NA,NA,NA,NA,0.3,NA,NA,NA,NA,NA,9.7,NA,NA,NA,NA,NA,0.5,NA,NA,NA,NA,NA,0,NA,NA,0.5,NA,NA,NA,10.4,NA
91.9,"Pahoa Beacon","NWS","HydroNet-UaNet","BI",187.1472,19.5149994,-154.9644,NA,"PHAH1",NA,NA,NA,6.35,0.254,4.318,0.762,0.762,0,0.508,4.572,5.588,0,9.144,0.363731494788272,0.508,0.0763773689316528,0.508,0.762,0.508,4.826,25.4,20.9717571841386,6.28688847139102,11.684,0,0.155311353219889,0.155311353219889,7.26376293514416,0.254,0,2.794,10.668,0.254
92,"KEAAU 92","PU SUGAR","COOP","BI",87,19.62918887,-155.0333418,"USC00513872",NA,NA,NA,NA,3.68365153277875,2.46070357974025,2.74015859262918,2.24024098852231,1.5,0.145396972315654,3.6,0.617201388494932,3.60626442727884,1.98786215010861,1.54134104119141,1.13565055483068,0.8,0,0,0.0545238646183702,1.2159633232909,0.795551621458719,13.1680087453191,41.1,5.27123567353974,12.2678925266548,1.60002490576738,0.411138633228492,0.159110324291744,10.2,5.83080029582046,1.95001248899232,0.444384999716351,2.18566786403276,0.284690896717009
92.5,"KiholoRainGage","USGS","USGS","BI",283.96692,19.82580556,-155.8925833,NA,"KIRH1","DD60236E",NA,NA,0,0,0,0,1.77800000000001,0,0,1.27,6.60399999999998,0,2.70633366219299,2.03200000000001,0,0,0,0,0,0.253999999999991,0,0.253999999999991,7.62,0,0,27.432,2.79400000000001,0,0,0,2.03200000000001,0,0
93.12,"PUUANAHULU","RAWS","RAWS","BI",830.58,19.83277778,-155.7697222,NA,"PULH1","48703040",NA,NA,0,0,0,0,0,0.762,0,0.254000000000019,0,0,0.253999999999962,5.84200000000004,0.761999999999944,0,0,0,0,0.762,0,0.254000000000076,0,0,11.4299999999999,0.507999999999981,5.08000000000004,0.507999999999981,0,0,1.01599999999996,0,0
93.13,"Mamalahoa","Hilo Forest Service","HIPPNET","BI",636,19.80256,-155.85062,NA,NA,NA,NA,NA,0,0,0,0,0,0.254,7.112,10.922,0.762,0,0.508,4.064,0.254,0,0,0,0,2.54,0,3.048,3.048,0,2.54,20.828,26.67,1.016,0.254,0.254,0,0.254,0
93.61,"PAHOA 4.7 NE, HI US","CoCoRaHs","CoCoRaHs","BI",53.95,19.5473,-154.8988,"US1HIHI0065",NA,NA,NA,NA,1.5,2.5,7.4,0.5,0,0,0.8,1.8,7.9,1.3,0.3,8.6,0.8,0,0,0.5,0,0.5,9.4,14.7,3.8,21.1,4.1,11.2,6.4,5.8,1.5,0.5,4.8,3,2.3
93.62,"PAHOA 5.7 NE","COOP","COOP","BI",27.4,19.5565,-154.8865,"US1HIHI0070",NA,NA,NA,NA,1,1,6.9,0,0,0,1,1.3,6.6,2.8,0,6.9,0.3,0,0,0.5,0,0.5,7.1,NA,5.1,22.1,4.3,8.6,5.8,2.8,1,0,3.8,0.8,1
93.63,"HAWAIIAN PARADISE PARK 2.4 E","COOP","COOP","BI",10.1,19.594568,-154.936038,"US1HIHI0072",NA,NA,NA,NA,1.8,3.8,5.3,0.3,0.5,0,0.8,1.3,12.4,0.8,1,4.3,0,0,0,0,0,0.8,14.5,26.2,3.6,16.3,6.9,5.3,2.8,0.8,0.5,2.3,4.1,1.5,2.8
93.64,"KEAAU 5.5","COOP","COOP","BI",18,19.613803,-154.955684,"US1HIHI0068",NA,NA,NA,NA,1.5,5.8,5.6,1.3,0.8,2.3,0,0.5,6.4,7.4,1.5,4.1,1.5,0,0,0,0,1.5,NA,21.6,4.1,14.2,2.8,3.8,5.6,0.8,1.8,0.3,1.8,2.3,5.3
93.8,"KONA VILLAGE 93.8","KO VILLAGE RES","COOP","BI",12,19.8314012,-155.9858256,"USC00514765",NA,NA,NA,NA,0,0,0,0,0,0,0,0,1.3,1.3,0,2.5,1.3,NA,0.8,0,0,0,0,0,0.3,0,0,NA,0,0,0,0,0,1.3,0.8
94,"KAUPULEHU LAVA FLOW","RAWS","RAWS","BI",372.1608,19.80333333,-155.9180556,NA,"KPLH1","4870E628",NA,NA,0,0,0,0,0,0,2.54000000000002,0.253999999999991,3.048,0,2.53999999999999,0.253999999999991,0,1.27000000000001,0,0,0,0,0,5.33399999999997,3.04800000000003,0,0,23.114,4.06399999999999,0,0,0,1.01599999999999,0,0.253999999999991
94.5,"PUU WAAWAA","RAWS","RAWS","BI",708.9648,19.795,-155.8452778,"USR0000HPUW","PWWH1","487046D0",NA,NA,0,0,0,0,0,0.254000000000019,3.55600000000004,12.7,0.507999999999981,0,1.01599999999996,4.31799999999998,0,0,0,0,0,1.01600000000008,0.253999999999905,6.35000000000002,2.286,0,2.79399999999998,17.7800000000001,26.4159999999999,1.01600000000002,0,0,0.254000000000019,0,0
95.11,"WAIKOLOA VILLAGE 2.7 ENE","WAIKOLOA VILLAGE 2.7 ENE","CoCoRaHS","BI",265,19.9465,-155.7883,"US1HIHI0047",NA,NA,NA,NA,0,0,0,0,0,0,0,0,1,0,0,8.1,0.3,NA,0.3,0,0,0,0,0,0,0,NA,0.3,NA,3.6,0,0,0,0,0
95.6,"WAIKOLOA","RAWS","RAWS","BI",297.7896,19.92416667,-155.7936111,NA,"WKVH1","4870C0C4",NA,NA,0,0,0,0,0,0,0,0.253999999999905,0,0,6.09600000000012,6.35000000000002,5.58799999999997,2.03200000000004,0,0,0,0,0,0,0,0,0,0,5.842,0,0,0,0,0,0
98.2,"PUHO CS","PUHO CS","RAWS","BI",29.5656,19.42194444,-155.9075,NA,"PERH1","32D6803A",NA,NA,0,NA,0,0,NA,NA,0,NA,NA,NA,0.253999999999991,0.507999999999981,NA,NA,0,5.08000000000004,0,NA,NA,NA,0.253999999999991,NA,NA,NA,NA,NA,1.77799999999999,NA,0,NA,NA
98.91,"HOLUALOA 0.95","COOP","COOP","BI",527.3,19.6225861,-155.927558,"US1HIHI0067",NA,NA,NA,NA,6.4,4.6,NA,NA,7.4,NA,3.3,NA,NA,NA,7.1,10.9,NA,NA,NA,NA,5.3,NA,NA,NA,NA,45.7,NA,NA,NA,NA,NA,NA,NA,10.7,NA
99,"PTA WEST","RAWS","RAWS","BI",1307.592,19.77166667,-155.7022222,"USR0000HPTW","PKWH1","32667176",NA,NA,0,0,NA,0,0,0,0,0.50800000000001,0,0,0,8.12799999999999,0.762,0,0,0,0,0,0,0,1.77799999999999,0.254000000000019,2.54000000000002,0.762,2.79399999999998,4.572,0.508000000000038,0,0,0,0
100.3,"Waikii","Waikii","HydroNet-UaNet","BI",1417.0152,19.8614006,-155.6506,NA,"WHIH1",NA,NA,NA,0,0,0,0,0,0.508,0,0,0,0,1.016,3.81,0.508,NA,0,0,0,1.27,0.508,NA,0,0,10.668,1.27,NA,6.858,0.254,0,0,0,0
101.1,"PTA KEAMUKU","RAWS","RAWS","BI",1025.9568,19.90222222,-155.6786111,NA,"PKMH1","328FB7BE",NA,NA,0,0,0,0,0,3.30199999999996,0,0,0,0,0,1.77800000000002,7.11199999999997,0.254000000000019,0,0,0,0,0,0,0,0,8.12799999999999,1.01600000000002,NA,5.84199999999998,0.253999999999962,0,0,0,0
102.8,"AUHMOA","RAWS","RAWS","BI",2001.9264,19.83638889,-155.6130556,NA,"AHMH1","4870D3B2",NA,NA,0,0,0,0,0,0.508000000000003,0.254000000000001,0,0.253999999999994,0,0.508000000000003,0.507999999999999,0.254000000000001,0,0,0,0,0.507999999999999,0.508000000000003,0.253999999999998,0.508000000000003,0.253999999999994,0.508000000000003,0.254000000000001,0.507999999999999,0.507999999999999,0.508000000000003,0.507999999999999,0.253999999999998,0.254000000000001,0.253999999999998
107.4,"PTA EAST","RAWS","RAWS","BI",1959.864,19.68277778,-155.5452778,"USR0000HPTA","PTAH1","3266D18E",NA,NA,0,0,0,0,0,0,7.36599999999999,7.87400000000002,5.334,0,6.096,0.253999999999962,0.254000000000019,0,0,0,0,0,0,0,0,0,0,0,2.53999999999996,0,0,0,0,0,0
109,"PTA RANGE 17","RAWS","RAWS","BI",1734.312,19.74583333,-155.6261111,NA,NA,"3279630C",NA,NA,0,0,0,NA,0,0,0,0.253999999999991,0.254000000000019,0,0.253999999999991,2.286,0,0,0,0,0,0,0,0,0,0,0,0,1.77800000000002,0.253999999999991,0,0,0,0,0
113.2,"PUU MALI","RAWS","RAWS","BI",2165,19.92666,-155.44,NA,"PMLH1","3181742E",NA,NA,0,0,0,0,0,0.254000000000019,0.253999999999905,0.254000000000019,0,0,0,0,0,0.508000000000038,0,0,0,0,NA,NA,NA,NA,0.253999999999905,0,3.55600000000004,10.668,0.508000000000038,0,0.762000000000057,0.253999999999905,NA
127.5,"Laupahoehoe","Hilo Forest Service","HIPPNET","BI",1145,19.93217,-155.29129,NA,NA,NA,NA,NA,3.302,1.27,8.128,0.762,0.508,2.18428175579976,3.81,1.97050529199629,6.096,0,2.54,0.508,0,0,1.524,0,0,2.794,48.6579707796728,36.576,5.842,16.51,0.254,0,0,2.286,3.81,1.524,1.016,9.906,2.54
129,"HAKALAU","RAWS","RAWS","BI",1950.72,19.82111111,-155.3305556,"USR0000HHAK","HKUH1","8374D370",NA,NA,0,0,0,0,0,2.03199999999993,0.507999999999811,1.52400000000011,3.81000000000017,0,4.31799999999998,2.03199999999993,1.01599999999985,1.27000000000021,0.253999999999905,0,0,0,12.2390812192843,14.6783640676443,4.82600000000002,9.39799999999968,1.77800000000025,0.253999999999678,0,0,1.77800000000025,0.254000000000133,0,0,0.253999999999678
132.2,"Spencer","Hilo Forest Service","HIPPNET","BI",454,19.96358,-155.25014,NA,NA,NA,NA,NA,2.286,1.016,7.15644555973662,0,0,0,7.62,0,3.81,0,1.27,2.286,0,0,3.302,3.302,0,4.572,44.958,50.8,6.096,18.542,0,0,0,7.874,5.08,1.016,1.016,12.8396548281479,2.286
133.3,"Laupahoehoe","NWS","HydroNet-UaNet","BI",499.872,19.9792,-155.2372,NA,"LPHH1","B159741A",NA,NA,3.30199999999968,2.54000000000042,2.53999999999951,0.508000000000266,0,1.26999999999998,7.36599999999999,1.52399999999989,2.79400000000032,0,0.761999999999716,1.26999999999998,0,0,0,1.01600000000008,0,2.03200000000015,33.02,36.3220000000001,3.89903705379522,8.88999999999987,0,0,0,0.508000000000266,0.253999999999905,0.762000000000171,0.761999999999716,6.85800000000017,1.26999999999998
138.2,"KAHUNA FALLS 138.2","COOP","COOP","BI",424,19.86139,-155.16361,"USC00512595",NA,NA,NA,NA,6.6,6.4,5.1,8.1,1.5,0.8,11.157080039843,4.3,2.5,8.9,0.3,4.1,0.3,0.3,0,0.3,1,0,22.9,53.3,13.3858416961243,20.8,6.6,0.3,0,1.3,6.4,7.9,2.5,3.8,4.59585375121781
140.1,"PAPAIKOU MAUKA NO 2 140","MAU KEA SUGAR","COOP","BI",427,19.78695738,-155.1388973,"USC00517724",NA,NA,NA,NA,5.8,3,3.8,1.5,0.5,0,7.1,2.5,8.9,1.5,2.8,4.6,0,0,0,0,0,0,17.3,40.1,8.6,15.2,1.3,0.8,0,2,11.4,2.5,1.8,3.8,5.62200547016295
140.6,"Papaikou Well","NWS","HydroNet-UaNet","BI",345.6432,19.7884998,-155.1313,NA,"PPWH1",NA,NA,NA,7.62,2.794,8.128,0.254,1.016,0.762,9.398,1.016,11.938,0,2.286,1.27,0,NA,1.016,1.016,0,5.588,45.212,NA,NA,13.462,0,0,0,11.176,8.636,3.048,5.08,NA,0.254
144.1,"PAPAIKOU 144.1","MAU KEA SUGAR","COOP","BI",61,19.78362447,-155.0922318,"USC00517711",NA,NA,NA,NA,3,2.33858436491198,2.60417065056583,2.12906283898944,0,0,2.80630850599655,0,3.42729358985319,1.88920899783265,1.46484773282115,0,4.6,0,0,0.051817967170413,1.15561778329054,0.756070173889098,13.5,34.3,5.8,13.5,1.5206192484559,0.390734742451558,0.15121403477782,3.92506698041379,8.6,3.8,0,2.07719805660506,1.13128665004159
147.1,"MIDDLE PEN 147.1","KAHUA RANCH","COOP","BI",421,20.10027112,-155.8322151,"USC00516270",NA,NA,NA,NA,NA,NA,NA,NA,NA,NA,NA,NA,NA,NA,NA,NA,NA,10.2,NA,NA,NA,NA,NA,NA,NA,NA,NA,NA,NA,NA,NA,NA,NA,NA,NA
147.2,"KOHALA RANCH","KOHALA RANCH","RAWS","BI",328.8792,20.08305556,-155.8325,NA,"KHRH1","4870B654",NA,NA,0,0,0,NA,0,NA,0,0.507999999999981,0,NA,3.048,7.36600000000001,8.636,NA,NA,5.334,0,0,0,NA,1.77799999999999,1.52400000000003,0,0,0.253999999999991,0,1.01599999999996,1.52400000000003,0,0,0
160.3,"Upolu Airport","NWS","HydroNet-UaNet","BI",34,20.265,-155.8582,NA,"UPLH1","B15017A0",NA,NA,0.507999999999981,0.507999999999981,1.01600000000002,0,0,0,0.762,0.254000000000076,1.77799999999996,0,1.26999999999992,4.82600000000008,NA,0,0,0,0,0.507999999999981,1.77800000000002,7.36599999999993,1.27000000000004,0.507999999999981,0,0,0,2.7940000000001,0.507999999999981,0.507999999999981,0.507999999999981,2.54000000000002,0
176.3,"Kahua Ranch HQ","KAHUA RANCH","HydroNet-UaNet","BI",987.552,20.1249008,-155.7884,NA,"KASH1","15D293C2",NA,NA,2.28600000000006,0.508000000000266,0.253999999999905,0.253999999999905,0.59183451949937,0,1.52399999999989,1.97278173166468,2.03200000000015,0,1.97278173166468,3.74828529016279,6.3129015413272,0.253999999999451,0,0,0,4.53739798282891,NA,23.6733807799764,8.87751779249128,3.94556346332942,0,0,NA,3.35372894383001,0.591834519499411,0.986390865832355,0.197278173166472,6.51017971449355,1.97278173166471
178.12,"PONOHOLO RCH 178.11","PONOHOLO RCH 178.11","COOP","BI",762,20.12554592,-155.7774941,"USC00518101",NA,NA,NA,NA,3.8,2.8,0,0.5,NA,0,1,NA,4.8,0,0,NA,NA,NA,0,0,0,NA,NA,NA,NA,NA,NA,0,0,5.1,2.8,NA,0,NA,8.1
185.7,"KawainuiRainGagenearKamuela","USGS","USGS","BI",1237.488,20.08533333,-155.6811667,NA,"KWSH1","DDF6A592",NA,NA,NA,NA,NA,1.77800000000002,8.38200000000006,8.88999999999987,NA,7.87400000000002,NA,0.253999999999905,NA,NA,NA,0.253999999999905,2.7940000000001,3.048,0.508000000000038,NA,NA,77.9780000000001,NA,NA,3.80999999999995,1.01600000000008,NA,NA,4.31799999999998,6.60400000000004,NA,NA,6.60400000000004
192.7,"Kamuela Upper","NWS","HydroNet-UaNet","BI",948.5376,20.0319996,-155.6667,"USC00513080","KUUH1","817075F6",NA,NA,2.21035783538014,3.30199999999991,7.36599999999999,0.508000000000038,0.761999999999944,2.28600000000006,4.57199999999989,2.53999999999996,2.28600000000029,0,2.53999999999996,4.82599999999979,8.12800000000016,1.01599999999985,0.254000000000133,0,0,5.8420000000001,16.241825451824,30.4799999999998,11.4300000000001,5.08,0,0,1.40554258717716,4.318,0.761999999999997,1.27,0.254000000000001,8.382,2.54
192.9,"PUUKAPU HMSTD 192.9","COOP","COOP","BI",916,20.0375,-155.6347,"USC00518386",NA,NA,NA,NA,1.8,3.6,1.5,6.1,0,NA,3.3,8.4,8.1,3,0,3.3,3,6.6,0,0.5,1,0,14.6895353986116,18.8,13.2943837675048,8.1,1.3,0,0,4.1,7.1,0.3,1.3,1,8.6
201.3,"Kamuela 1","NWS","HydroNet-UaNet","BI",877.824,20.0394993,-155.6084,NA,"KMUH1","81706680",NA,NA,1.77800000000025,1.01599999999962,4.82600000000002,0.253999999999905,0,1.52399999999943,6.60400000000027,6.60400000000027,1.52400000000034,0,2.79399999999896,2.03200000000106,3.80999999999949,0.507999999999811,0,0.254000000000815,0,0.761999999999716,13.2079999999996,18.5420000000004,4.3179999999993,2.03200000000106,0,0,2.28600000000006,4.3179999999993,0,0.761999999999716,0,5.58800000000065,0.761999999999716
208.1,"Honokaa HI US E6549-AH6AE ","unknown","APRSWXNET","BI",310.01,20.101,-155.531,NA,"E6549",NA,NA,NA,0.50799992752076,0.50800003242493,2.28600001335144,NA,0,0,3.55599999427795,0.5080001411438,9.6519998474121,0.254000008106232,NA,0.508000016212463,NA,0,0,1.26999998092651,0.25399996757508,1.01600004053116,NA,17.2719986953735,NA,3.55599987506866,NA,0,0,2.28600001335144,NA,1.5239999294281,2.54000011049042,NA,0.507999710083002
215.5,"Honokaa","NWS","HydroNet-UaNet","BI",591.9216,20.0656,-155.49,NA,"HNKH1","B15047DC",NA,NA,0.761999999999944,1.26999999999998,0.903512366976791,0.254000000000133,0,2.53999999999974,3.82712959112304,0.761999999999944,2.54000000000019,0.372613348506202,1.52400000000011,5.58799999999997,1.01599999999985,0.254000000000133,1.77799999999979,3.81000000000017,0.254000000000133,0,14.525578644305,63.7539999999999,15.6986722529838,10.4139999999998,0,0,0,2.09633051720745,1.44531197114434,0.253999999999905,7.87400000000025,6.76336655580028,7.93208665219766
216.6,"HONOKAA 2.5 SSW","HONOKAA 2.5 SSW","CoCoRaHS","BI",757,20.0417,-155.4777,"US1HIHI0033",NA,NA,NA,NA,1,1.5,1.3,6.27586132790102,0,0,9.4,6.80411752767974,10.9,4.8,0.3,1.8,3.3,1.3,1.8,3.3,2.5,0,9.7,23.9,24.9,12.2,2.3,0.5,0.3,2,3.79350629722433,1,0.819870961909572,6.1,15.8758069634574
216.8,"KALOPA 216.8","COOP","COOP","BI",396,20.06111,-155.43528,"USC00512982",NA,NA,NA,NA,4.8,1,1,7.1,0,0,1.8,5.6,4.6,1.38107626000972,0,0.5,2.8,0.424791548350974,0.257709235010314,1.3,1,0.127977106496126,16.5,19.8,33,11.7,1.4969339181093,0.204763370393801,0,0,4.1,0.3,1,8.9,12.4
216.9,"HONOKAA 2.7 ESE","HONOKAA 2.7 ESE","CoCoRaHS","BI",333,20.0606,-155.43,"US1HIHI0034",NA,NA,NA,NA,5.8,1.3,0.5,5.3,0,0,2,5.3,1,1.8,0.204394560629331,0.5,2.5,0.8,0.612609622149972,3.89313132544945,2.3,0,14.7,23.1,27.2,8.1,2.3,0,0,0.5,0.8,0.5,0.8,8.6,13
217.2,"PAAUHAU MAUKA 217.2","COOP","COOP","BI",341,20.07306,-155.44722,"USC00517209",NA,NA,NA,NA,6.1,0.8,0.5,2.5,0,0,1,3.8899328466112,3,0,0,0.684546352652735,3.6,0,0,0.3,0.8,0,18.3,21.6,26.7,7.1,0,0,0,0,3,2.5,0.5,15.2,10.7
221,"PAAUILO 221","HAMAKUA MILL","COOP","BI",244,20.03860487,-155.3688913,"USC00517312",NA,NA,NA,NA,0.5,2,3,5.1,0,0.8,1.60108218459425,1,3.32249813647738,1.3,2.5,1.3,2.5,0.3,0.8,2.8025482524575,1.0881167285112,0,17.9591171458158,33.5,30.7708665302058,12.1882756148453,0.595501879021822,0,0,0.129456930222135,0.8,2,3,5.1,12.5905565508748
221.7,"PAAUILO 2.4 SW","PAAUILO 2.4 SW","CoCoRaHS","BI",613,20.019,-155.3988,"US1HIHI0050",NA,NA,NA,NA,0.5,0.5,1.3,6.26412145379301,0.5,0,6.9,7.9,1.3,2,0.3,1.3,0.8,0.5,0,7.6,1.3,0.5,18.6673691053491,20.8,18.3,7.4,3.6,0.8,0,2.8,3.78641001449428,0.8,0.8,2.3,15.8461090518281
249.1,"MAKENA GOLF CRS 249.1","MAKE GC","COOP","MA",30,20.6420893,-156.4388486,"USC00515842",NA,NA,NA,NA,0,NA,NA,NA,NA,NA,NA,NA,NA,NA,NA,NA,NA,NA,NA,NA,NA,NA,0,0,0,NA,NA,NA,NA,NA,NA,NA,NA,NA,NA
250,"ULUPALAKUA RANCH 250","ULUPALAKUA RANCH","COOP","MA",579,20.648174,-156.398497,"USC00518760",NA,NA,NA,NA,NA,NA,NA,NA,0,0,NA,NA,NA,NA,NA,NA,5.6,5.3,0,NA,NA,NA,NA,0,0,NA,NA,NA,NA,NA,0,0,NA,NA,NA
250.2,"Ulupalakua Ranch","NWS","HydroNet-UaNet","MA",581.5584,20.6487999,-156.3981,NA,"ULUH1","8170531A",NA,NA,0,0,0,0,0,NA,0.254000000000019,2.286,1.26999999999998,4.82600000000002,0,5.84199999999998,5.84200000000001,NA,0,0,0,NA,0,0,0.253999999999991,0,0,0,0,0,0,0,0,0,0
255,"KepuniGulchRainGage","USGS","USGS","MA",225.552,20.6195,-156.2518889,NA,"KPNH1","F000D4EA",NA,NA,0,0,0,0,0,0,0,0.507999999999981,0,0,0.762000000000057,0,0,0,0,0,0,0,0,0,0,0,0,0,0,0,0,0,0,0,0
267,"KULA HOSPITAL 267","KULA SATORIUM","COOP","MA",916,20.70013977,-156.3555187,"USC00515004",NA,NA,NA,NA,0,0,0,0,0,0,5.6,0,0,0,0,11.7,NA,0,0,0,0,0,4.1,0,0,0,0,2,0,3,0,0,0,0,0
267.8,"KULA 1","KULA 1","RAWS","MA",1998.5736,20.68305556,-156.3216667,NA,"KLFH1","AA10F12E",NA,NA,0,0,0,0,0,3.04800000000006,2.53999999999991,NA,0.253999999999905,1.01600000000002,0.254000000000019,12.192,4.06400000000002,0.253999999999905,0,0,0,3.04800000000006,0.254000000000019,0.253999999999962,5.84199999999998,0.254000000000076,1.52399999999994,0.254000000000076,0,0,0,0,0,0,0
276,"BIG BOG HN-164","HaleNet","HaleNet","MA",1650,20.72655556,-156.09225,NA,NA,NA,NA,NA,NA,NA,6.604,3.556,1.778,4.064,2.794,NA,NA,NA,NA,NA,NA,NA,NA,NA,NA,NA,NA,NA,NA,NA,NA,NA,NA,NA,NA,NA,NA,NA,NA
279,"POHAKAU PALAHA HN-161","HaleNet","HaleNet","MA",2460,20.73061111,-156.1413056,NA,NA,NA,NA,NA,0,0,0,0,0,2.794,NA,26.416,5.588,0.254,10.16,2.54,0.508,0.254,0,0,0,1.524,0,0,4.064,3.302,6.35,1.27,0.508,1.778,4.826,0,0,0,0
302,"MAALAEA BAY","NWS","STATE","MA",302,20.7903,-156.514,NA,"P36","15DF05C6",NA,NA,NA,NA,NA,NA,NA,NA,NA,27.686,0,0,0,3.81,0,NA,NA,0,0,NA,NA,0,0,NA,0,NA,NA,NA,NA,NA,NA,NA,NA
311.2,"Kealia Pond NWR","Kealia Pond NWR","RAWS","MA",3.6576,20.7975,-156.4772222,NA,"KPDH1","32B2C438",NA,NA,0,0,0,0,NA,NA,0.254000000000019,NA,0,0,NA,NA,NA,NA,NA,0,0,NA,NA,NA,0,NA,0,0,0,0,NA,NA,0,0,0
311.5,"Kihei 2","NWS","HydroNet-UaNet","MA",54.5592,20.7061005,-156.437,NA,"KHIH1","93202508",NA,NA,0,0,0,0,0,0,0,0,0,0,0,4.82600000000002,0.254000000000019,0.253999999999905,0,0,0,1.01600000000008,0,NA,NA,0,0.254000000000019,0,0,0,0,0,0,0,0
324.7,"Kula Branch Stn","NWS","HydroNet-UaNet","MA",944.88,20.7577991,-156.3217,"USC00515000","KBSH1","93220610",NA,NA,0,0,0,NA,0,1.01599999999985,NA,NA,2.03199999999993,0,0.762000000000171,3.048,NA,0,0,0,0,0,0,0,0,0,0,0,4.57200000000012,0.761999999999944,0,0,0,0,0
329,"LOWER KAHUKU CS","BD OF A&F","STATE","MA",1149,20.80179746,-156.2805211,NA,"LKHH1",NA,NA,NA,5.5880126953125,0.507934575,1.016113290625,1.87499999970697e-08,1.524,0.7618408390625,5.333984396875,24.892,NA,5.5880126953125,4.68750016580088e-09,2.286132821875,3.12499981447445e-09,2.7939453125,0.5079345828125,1.7779541296875,2.0321044921875,NA,NA,NA,NA,5.588,0,5.8419189453125,2.54,NA,NA,NA,5.0803225,5.07983401875,NA
337,"south rim","south rim","CraterNet","MA",2898,20.703948,-156.241101,NA,NA,NA,NA,NA,0,0,0,0,0,0.2,1.4,10.6,0,0,0.8,0.8,0,0,0,0,0,0,0,0,0,0.4,0,0,0,0,0,0,0,0,0
337.12,"Puu Alaea","Puu Alaea","CraterNet","MA",2282,20.73782363,-156.1453106,NA,NA,NA,NA,NA,0,0,0,0,0,6.6,NA,61.6,NA,0,6.6,1.2,3.4,0.8,0,0,0,5.8,0,0,NA,7.4,3.8,0.4,0,2,1.4,0,0,0,0
337.13,"Paliku","Paliku","CraterNet","MA",1927,20.71236611,-156.1437572,NA,NA,NA,NA,NA,0,0,0,0,0,0.6,3,10,1,0,NA,1,0,0,0,0,0,1.4,0,0,6,0.8,6,1.8,0,2,4.6,0,0,0,0
337.2,"Puu o Pele","Puu o Pele","CraterNet","MA",2424,20.709651,-156.224485,NA,NA,NA,NA,NA,0,0,0,0,0,0,1.6,4.6,0.4,0,0.4,0.4,0,0,0,0,0,0,0,0,0,0.4,0,0,0,0,0,0,0,0,0
337.3,"Lava lake","Lava lake","CraterNet","MA",2270,20.718443,-156.212261,NA,NA,NA,NA,NA,0,0,0,0,0,0,1.8,5.6,1.4,0,1.2,0.2,0,0,0,0,0,0,0,0,0.4,0.4,0,0.2,0,0,0,0,0,0,0
337.4,"Silversword loop","Silversword loop","CraterNet","MA",2186,20.731704,-156.205387,NA,NA,NA,NA,NA,0,0,0,0,0,0.2,3.2,6.10899021961616,2.4,0,0.6,0.2,0,0,0,0,0,0,0,0,0.8,0.4,0,0,0,0,0,0,0,0,0
337.5,"Leleiwi","Leleiwi","CraterNet","MA",2722,20.74337371,-156.2288651,NA,NA,NA,NA,NA,0,0,0,0,0,5.2,6.8,NA,4.2,0,1.8,7.8,0,0,0,0,0,0.6,0,0,4,3,0.4,0,0,0,0,0,0,0,0
337.6,"Puu Nole","Puu Nole","CraterNet","MA",2261,20.717807,-156.188007,NA,NA,NA,NA,NA,0,0,0,0,0,0,1.2,6.8,0.2,0,1.8,0,0,0,0,0,0,0,0,0,0,0.2,0.4,0,0,0,0,0,0,0,0
337.7,"Hanakauhi","Hanakauhi","CraterNet","MA",2645,20.73567887,-156.1754875,NA,NA,NA,NA,NA,0,0,0,0,0,5.6,NA,32.2,2.2,0,3.4,5,3.2,0,0,0,0,NA,0,0,3.4,1,2.4,0.2,0,0.4,0.2,0,0,0,0
337.8,"Aloha Park","Aloha Park","CraterNet","MA",2455,20.73555054,-156.1587809,NA,NA,NA,NA,NA,0,0,0,0,0,3.8,NA,50.6,NA,0,3.4,2.6,2.2,0.4,0,0,0,2,0,0,5,4.4,1.8,0.2,0,0.8,0.4,0,0,0,0
337.9,"Laie","Laie","CraterNet","MA",2051,20.7229056,-156.1544823,NA,NA,NA,NA,NA,0,0,0,0,0,0.2,4.8,15,1.2,0,8.2,0,0,0,0,0,0,0,0,0,1.8,0.2,3.8,0.4,NA,NA,0,0,NA,0,0
339.5,"NENE NEST HN-152","HaleNet","HaleNet","MA",2590,20.73819444,-156.2458333,NA,NA,NA,NA,NA,0,0,0,0,0,0,1.778,9.144,0,0,1.524,5.08,0,0,0,0,0,0,0,0,0.254,0.254,0,0,0,0,0,0,0,0,0
339.6,"SUMMIT HN-153","HaleNet","HaleNet","MA",2990,20.71036111,-156.25675,NA,NA,NA,NA,NA,0,0,0,0,0,0,0.508,3.81,0,0,0,0.254,0,0,0,0,0,0,0,0,0,0,0,0,0,0,0,0,0,0,0
348.5,"WestWailuaikiRainGagenrKeanae","USGS","USGS","MA",472.44,20.81436111,-156.1429722,NA,"WWKH1","DD5E710A",NA,NA,9.63590488743466,5.70288248440031,7.47274256576557,6.85800000000063,0.761999999999716,0.253999999999905,NA,146.812,36.8299999999999,6.60399999999981,13.3972657680486,8.80638502622255,0.253999999999905,0,0,0,0.253999999999905,NA,0.983255600758631,4.52297576348985,27.6859999999997,13.4619999999995,0.254000000000815,0.761999999999716,0,3.30199999999968,6.09600000000046,0,3.55600000000049,0,1.77800000000025
353,"Hana AP","NWS","HydroNet-UaNet","MA",19,20.7946,-156.0157,"USC00511125","HNAH1","B150314C",NA,NA,2.53999999999974,4.31800000000021,1.77800000000002,0.508000000000038,0,3.048,NA,NA,1.01599999999985,0,NA,0.508000000000038,0.761999999999944,0,0,0,0,NA,0.508000000000038,2.79399999999987,6.60400000000027,4.06399999999985,0.254000000000133,0,2.03199999999993,0.761999999999944,3.55600000000004,1.01599999999985,0.762000000000171,0.761999999999944,1.01600000000008
361.1,"Lahainaluna","NWS","HydroNet-UaNet","MA",238.0488,20.8909,-156.6556,NA,"LAHH1","81700366",NA,NA,0.254000000000019,0,0,0,NA,NA,0,3.55599999999998,0,0,NA,2.79400000000004,NA,NA,NA,NA,NA,1.26999999999992,NA,0,0,0,0,0,NA,0,0.507999999999981,NA,NA,NA,NA
380,"PuuKukuiRainGageatalt","BALDWIN PKRS","USGS","MA",1759,20.89083333,-156.6008333,"USC00514887","PKKH1","DD73556E",NA,NA,9.81343597021161,5.80795190073769,3.80999999999995,2.28599999999983,0.254000000000133,1.52399999999989,NA,105.546658652787,19.3815877645647,0.761999999999944,13.6440958401422,8.96863310643085,0.253999999999678,0.508000000000266,0,0,0,3.55248840266364,4.82600000000002,4.60630667989536,18.8346934447928,3.55600000000004,7.69056094139969,1.26999999999998,0.394720933629293,1.52400000000011,7.15444761917944,6.85800000000017,4.06399999999985,0.254000000000133,2.7940000000001
386.6,"Wailuku","NWS","HydroNet-UaNet","MA",146.9136,20.8831005,-156.5124,NA,"WUKH1","9321D776",NA,NA,0,0.507999999999811,0.508000000000266,1.01600000000008,NA,0,2.79399999999987,18.5419999999999,1.01600000000008,NA,0,NA,0,NA,0,0,0,1.77799999999979,NA,0,0,0,0,0,0,0,0.25400000000036,0,0,0.253999999999905,0
387.6,"Maui HI US AR427-AH6GR ","unknown","APRSWXNET","MA",233.76,20.875,-156.516,NA,"AR427",NA,NA,NA,NA,0.254000008106232,0.508000024318696,0.761999913215637,0.254000024318695,NA,2.53999996185303,28.1939916992188,NA,2.28600003242494,1.62124630387339e-08,0,NA,0,NA,NA,NA,NA,0,NA,0,NA,0,NA,NA,NA,0,NA,NA,NA,NA
390,"WAIKAPU 390","WAILUKU SUGAR","COOP","MA",130,20.8491,-156.5092,"USC00519376",NA,NA,NA,NA,NA,NA,NA,NA,0,0.551007656930131,1.62214365267015,21.6,NA,NA,1.35178637722513,1.22142583121336,0.5326662600507,0,0.500801558002587,NA,NA,0,0,0.344379785581332,2.18568923084109,0.225297729537522,NA,NA,NA,NA,1.44672356075089,0,0.551007656930131,NA,NA
390.4,"Waikapu Country Club","NWS","HydroNet-UaNet","MA",145.9992,20.8346996,-156.5135,NA,"WCCH1","9320E016",NA,NA,NA,NA,NA,0,NA,NA,3.30200000000013,36.5759999999998,0,NA,NA,0.254000000000133,NA,NA,NA,NA,NA,NA,NA,NA,NA,NA,NA,0,0,NA,NA,NA,NA,0,0
398,"KAHULUI AIRPORT","NOAA-NWS","NWS","MA",12,20.8887,-156.41,"USW00022516","PHOG",NA,NA,NA,0.254,0.254,0,NA,NA,NA,0,17.018,0,NA,0,NA,NA,0,NA,NA,NA,0,0,0,0,NA,0,0,0,NA,0,0,NA,0,NA
426.6,"Pukalani","NWS","HydroNet-UaNet","MA",495.9096,20.8355007,-156.3307,NA,"PUKH1","15D2B52E",NA,NA,0,0,0,NA,NA,0,12.954,30.734,1.77800000000002,0,0,0,NA,0,0,0,0,0,0,0.253999999999991,0,NA,1.52399999999997,0,0,0,0,0,0,0,NA
432.4,"Makawao AP834-KH6HHG","unknown","APRSWXNET","MA",473.95,20.855,-156.315,NA,"AP834",NA,NA,NA,0.508000048637397,2.53999999427796,1.01600007057189,3.24249300742707e-08,NA,NA,14.2239999771118,72.1360082626343,4.31799159020982,1.36108013748526e-09,2.28600001335144,1.33514399536239e-08,0,NA,NA,NA,NA,0.254000008106232,1.01600004053116,4.57199993991852,0.762000041007989,4.71404992818947e-09,NA,NA,1.77799999713898,2.86102008750788e-09,NA,NA,0.254000008106232,8.10623201896732e-09,0
457.1,"PUUKOLII 457.1","COOP","COOP","MA",128,20.93194,-156.67611,"USC00518407",NA,NA,NA,NA,0.377761119057901,1.43549225242002,1.73770114766634,0.755522238115802,0.430518347232955,0,NA,6.9,0.5,1.62437281194897,0.679970014304222,0.3,0.0566641678586851,0,0,0,0,1.81325337147792,0,0.944402797644752,1.05773113336212,2.6821039453111,0.11332833571737,1.3,0,1.1332833571737,0.245544727387636,0,0.566641678586852,0,0
462.4,"KAPALUA W.MAUI AIRPORT 462.4","KAPALUA W.MAUI AIRPORT 462.4","NWS","MA",73,20.9625,-156.6753,"USC00513317",NA,NA,NA,NA,0.540790733153146,2.05500478598195,2.48763737250447,1.08158146630629,0.8,0,1.45617037021938,15.7290959778948,1.38539439528453,2.03549473296576,1.37102204879883,0.3,0,0,0,0,0,1.82373705992455,0.5,0.830560312413955,1.8127750262183,1.27987140179578,0.162237219945944,1.95802159895422,0,1.62237219945944,0,0,0,0,0
465.1,"Mahinahina","NWS","HydroNet-UaNet","MA",223.1136,20.9552002,-156.6562,NA,"MABH1","190524C8",NA,NA,NA,NA,NA,NA,NA,NA,NA,7.874,1.016,NA,0.254,0.254,0,NA,0,0,0,1.778,NA,NA,4.318,NA,0.508,NA,2.54,NA,NA,0,0.254,0,0
466,"MAHINAHINA 466","PIONEER MILL","COOP","MA",257,20.94678808,-156.6555055,"USC00515715",NA,NA,NA,NA,1,3.8,4.6,2,0.8,0,NA,25.0493765853639,3.8,4.3,1.8,2,0.3,0,0,0,0,4.8,2.5,2.5,2.8,7.1,0.3,3.8,0,3,1.3,0,3,0,0
482,"WAIHEE VALLEY 482","WAILUKU SUGAR","COOP","MA",91,20.94012106,-156.5255102,"USC00519315",NA,NA,NA,NA,NA,NA,NA,NA,0,0.8,2.35516676731169,32.5,NA,2.82326438190823,2.53898259363958,2.5,0.5,0,0.8,NA,NA,0.85047688819589,0,0.5,5.3,0,NA,NA,NA,NA,2.5,0,0.8,NA,0
482.5,"Kahakuloa","Kahakuloa","HydroNet-UaNet","MA",335.28,20.9540997,-156.5342,NA,"KHKH1","781001B6",NA,NA,1.77800000000002,5.84199999999987,2.03200000000015,NA,0,0,NA,29.4639999999999,1.77800000000002,NA,2.03199999999993,6.60388184375,0,0.253999999999905,NA,0,0,7.36599999999999,0,0,4.82600000000002,0,0,NA,0,4.57200000000012,0.507999999999811,0,1.01600000000008,3.30199999999991,2.28600000000006
484,"WAIEHU CAMP 484","WAILUKU SUGAR","COOP","MA",98,20.91623388,-156.5088444,"USC00519275",NA,NA,NA,NA,NA,NA,NA,NA,0.329631758629787,0.203807223616652,1.8,23.4,NA,2.15775628204687,1.5,0.8,0.8,0,0.5,NA,NA,1.3,0.309029773715425,0.382138544281222,0.8,0.5,NA,NA,NA,NA,1.3,0,0.305710835424978,NA,0
486.7,"HAIKU 3.2 SE","HAIKU 3.2 SE","CoCoRaHS","MA",416,20.92011989,-156.3071849,"US1HIMI0001",NA,NA,NA,NA,1.79686380310581,6.82808245180208,8.26557349428673,3.59372760621162,0,0,4.83835921918693,57.2,6.82808245180208,5.8,6.4,1.3,NA,NA,NA,0,0,6.05965840104922,NA,2.75966962852941,6.02323528880331,0,0.539059140931743,6.82808245180208,0,5.39059140931743,NA,NA,NA,0,0
489,"Haiku","NWS","HydroNet-UaNet","MA",99.3648,20.9288998,-156.3225,"USC00510822","AIKH1","50A30568",NA,NA,5.07999999999993,4.06400000000008,4.06400000000008,0.761999999999944,0,0.253999999999905,3.80999999999995,74.6760000000002,2.53999999999996,0.306562168233598,6.35000000000014,4.57199999999989,0,0,0,0,0,3.80999999999995,0.762000000000171,3.55600000000004,3.80999999999995,0,0,0.766405420583826,0,0,0.766405420583691,1.26999999999998,0.253999999999905,2.7940000000001,0.253999999999905
499.9,"KANELOA","RAWS","RAWS","KO",248.412,20.52222222,-156.5658333,"USR0000HKAN","KAOH1","32793370",NA,NA,0.762,0,0.253999999999991,0,0,2.79400000000001,1.01600000000001,NA,4.57200000000002,0.253999999999991,0.253999999999991,0,0,0,0,0,0,0,0,0,0,1.52400000000002,0,0,0,0,0,0,0,0,0
524,"MOLOKAI KAUNAKAKAI MOLOKAI AIRPORT","ALOHA AIRLINES","NWS","MO",141,21.15514996,-157.0924625,"USW00022534","PHMK",NA,NA,NA,2.032,0.762,0.254,0,0,0,0,0,0,0,0,0,0,NA,0,0,0,0,0,0,0,0.254,0.254,0,0,0,1.27,0,0,0,0.762
536.5,"Kaunakakai Mauka","MOLOKAI GEN HOSP","HydroNet-UaNet","MO",28.3464,21.0946007,-157.0174,NA,"KACH1","50A0F2E2",NA,NA,NA,NA,NA,NA,NA,NA,0,0,NA,NA,NA,NA,NA,0,NA,NA,NA,0.762,NA,NA,NA,NA,0,0,NA,NA,NA,NA,NA,NA,NA
536.6,"KAUNAKAKAI 3.5 ESE","KAUNAKAKAI 3.5 ESE","CoCoRaHS","MO",13,21.068,-156.963,"US1HIMI0002",NA,NA,NA,NA,0,NA,0,0,NA,0,0,NA,0,0,0,0,NA,NA,NA,0,0,NA,0,NA,0,0,0,NA,NA,NA,0,NA,0,0,0
538,"MOLOKAI 1","RAWS","RAWS","MO",833.0184,21.115,-156.9475,"USR0000HMLK","MLKH1","487016AC",NA,NA,1.2700000000001,0.507999999999925,0.254000000000133,0,0,1.26999999999987,NA,2.79399999999998,0,0,0,1.77800000000002,0,1.01599999999996,0,0,0,3.04800000000012,0,0,0.507999999999925,0,1.01599999999996,0.254000000000133,0,0,0,0,0,0,0
541.2,"Puu ALII WEST","Puu ALII WEST","RAWS","MO",1159.764,21.14083333,-156.9022222,NA,"PAFH1","32D6062E",NA,NA,12.4459999999999,7.36600000000021,9.65199999999982,1.77800000000025,0.253999999999678,8.12800000000016,NA,NA,4.82599999999979,1.0160000000003,2.28600000000006,7.61999999999989,0.507999999999811,1.0160000000003,0,0,0,NA,1.26999999999998,5.8420000000001,NA,6.60399999999981,5.08000000000015,2.54000000000019,0,NA,2.53999999999974,0,2.53999999999996,0,2.53999999999996
550.3,"MAUNALOA 3.2 NNW","MAUNALOA 3.2 NNW","CoCoRaHS","MO",93,21.1804,-157.2319,"US1HIMI0006",NA,NA,NA,NA,0,1.3,5.3,0,0,0,0,1,0,0,0,0,0,0,0,0,0,0.8,1.3,0.5,0,0,0,0.5,0.8,0,0,0,0,0,0
553,"MAKAPULAPAI","RAWS","RAWS","MO",22.86,21.20333333,-156.9661111,"USR0000HMAK","MKPH1","FA9024CE",NA,NA,0.50799560546875,1.52401733945312,1.77798465585938,0,NA,1.27,3.81,NA,0,0,0.508026123046875,2.54000856796875,NA,NA,0,0,0,1.26998901367188,NA,NA,0.762,0.254,0.76199340851563,NA,0,NA,NA,NA,0.254,0.254028323046875,1.01602172882813
563,"KALAUPAPA 563","CIVIL AIR PATROL","COOP","MO",9,21.19014673,-156.9824624,"USC00512896",NA,NA,NA,NA,NA,NA,NA,NA,NA,2.8,0.8,NA,NA,NA,0,0.8,NA,NA,NA,NA,NA,2.3,0.8,3.6,1.5,NA,NA,NA,NA,NA,NA,NA,0,NA,NA
672.1,"Lanai City","NWS","HydroNet-UaNet","LA",498.0432,20.8262997,-156.9182,"USC00515286","LANH1",NA,NA,NA,0.254,0,0.254,0,0.254,0,0.254,0.508,0,0,0.508,NA,NA,NA,0,0.254,0.254,4.318,0,NA,0,0.254,NA,5.588,NA,0.762,0,0,0,0,0
679,"LANAI 1","RAWS","RAWS","LA",387.096,20.87333333,-157.0063889,"USR0000HLAN","LNIH1","48702336",NA,NA,0,0,0,0,0,0,0,0,0,0,0,0.761999999999972,4.06400000000002,0,0,0,0,0,0,0,0.253999999999991,0,NA,3.048,3.048,0.508000000000038,0,0,0,0,0
702.7,"Kapolei-Kalaeloa AP","NWS","NWS","OA",15,21.31667,-158.06667,"USW00022551","PHJR",NA,NA,NA,0,0,0,0,0,0,0,0,0,0,0,0.254,1.27,0,0,0,0,0,0,0,0,0,0,0,0,0,3.048,0,0,0,0
702.8,"PTWC","NWS","HydroNet-UaNet","OA",1.524,21.3150005,-157.9992,NA,"PTWH1",NA,NA,NA,0,0,0,0,0,0,0,0,0,0,0,0.254,0.917949792953257,3.3371382216878,0,0.115445784124662,0,0.254,0,0,0.131415985784295,2.032,0.508,0,0,0,3.556,0,0,0,0
703,"HONOLULU INTERNATIONAL AIRPORT","USWB","NWS","OA",2.1,21.324,-157.9294,"USW00022521","PHNL",NA,NA,NA,0,0,0,0,0,0,0.254,0,0,0,0,0.304213895555987,0,4.3,0,0,0,0.254,0,0,0.254,0.254,0.327286413520986,0,0,0,8.382,0,0,0,0
703.1,"HONOLULU FIRE STATION 703.1, HI US","COOP","COOP","OA",1,21.3287,-157.9298,"USC00511925",NA,NA,NA,NA,0,0,0,0,0,0,0.3,0.141407337320099,0,0,0,0.5,0,0,0,0,0,0.3,0,0.735318154064516,0.169688804784119,0.3,0.3,0,0,0,0.32854849057866,8.1,0,0,0
705,"BERETANIA PUMP STN 705","BWS","COOP","OA",6,21.305169,-157.8522571,"USC00510211",NA,NA,NA,NA,0,0,0,0,0,0.8,1.8,0,0,0,0,0.5,0.3,0.3,0,0,0,1,0.8,0.3,2.5,0.3,2.42102792785883,0,0,0,0,0,0,0,0
705.12,"Aloha Tower","NWS","HydroNet-UaNet","OA",38.1,21.3034,-157.8627,NA,"ALOH1",NA,NA,NA,0.045966475024725,0,0,0,0,0.508,0.254,0,0,0,0.505631225272161,0.508,0.682323820736872,1.72180678902292,0,0,0,0.762,0.508,0.636357345712148,1.016,0.254,1.51689367581648,0,0,0,0.254,0.0919329500495119,0,0,0.137899425074237
707.2,"EWA KALAELOA AIRPORT","LYDECKER RC","STATE","OA",14,21.30489073,-157.8305905,"USW00022551",NA,NA,NA,NA,0,0,0,0,0,0,0,0,0,0,0,0.123712617215781,0.635,0,0,0,0,0.0906662099124682,0,0,0,0.415608123119573,0.181332419824844,0,0,0,1.9756053825942,0,0,0,0
707.5,"HONOLULU 2.0 SW","CoCoRaHS","CoCoRaHS","OA",12,21.3004,-157.8293,"US1HIHN0023",NA,NA,NA,NA,0,0,0,0,0,0,2.86768137222352,0.5,0,0,0,0,0,0,0,0,0,0,0,1.3,0.3,6.9,1.5,0,0,0,0,0,0,0,0
712.1,"MANOA 712.1","BEAUMONT MRS J","COOP","OA",61,21.31044568,-157.8147571,"USC00516122",NA,NA,NA,NA,0,0,0,0,0,0,5.1,1.8,0,0.8,1.3,1.3,3.8,1.3,0.3,0,0,0.5,5.1,3.6,1.3,9.21785885614257,1.5,0.8,0,0,1.5,1.8,0,0.3,0
713,"UNIV OF HAWAII 713","UH MET DEPT","COOP","OA",24,21.29933514,-157.8167017,"USC00518815",NA,NA,NA,NA,0,0,0,0,0,0,2.6138165170585,0.594252065638777,0,0,0,0,0,0,0,0,0,0.5,0,3,0.3,3.6,2,0,0,0,0,0,0,0,0
715,"WAIALAE KAHALA","TINKER SPENCER","COOP","OA",15,21.27433592,-157.7880917,"USC00519185",NA,NA,NA,NA,0,0,0,0,0,0,2.5,0,0,0,0,0.5,0,0.5,0,0,0,0,0.3,0,0.3,0.3,1,0,0,1.5,0,0,0,0,0
718,"PALOLO VALLEY 718","BWS","COOP","OA",302,21.32183297,-157.7717015,"USC00517664",NA,NA,NA,NA,0,0,0,0,0,3.05689197156375,4.31319256848351,1.2846259459112,0.236395531293999,0,9.89163687384992,4.13833341030175,4.16859549582743,0.757723018787644,0,0,0.411254689475763,21.0600864689903,5.81686424078213,3.91067563810183,19.5221039029226,10.1582944906696,18.1312406622153,0.805247241632428,12.2338544794892,9.47489441233173,2.97260568908999,0.411254689475763,0.411254689475763,1.11069132220282,1.26828834306548
720.6,"HONOLULU 2.7 SSE","CoCoRaHS","CoCoRaHS","OA",113,21.285,-157.7816,"US1HIHN0010",NA,NA,NA,NA,0,0,0,0,0,0,1.8,1.8,0,0,0,0,0,0,0,0,0,1.3,0.5,0.5,0.3,1.3,1.3,0.3,0,0.3,0,0,0,0,0
721,"WILHELMINA RISE 721","BWS","COOP","OA",335,21.29766804,-157.7853133,"USC00519980",NA,NA,NA,NA,0.5,0,0,0,0,0.8,7.1,0.8,0,0.8,0.8,0,0.3,1,0.3,0,0.3,1.8,0.3,0.3,0.3,0.3,0,0.3,0,0,0,0,0,0,0
721.4,"Palolo Fire Stn","NWS","HydroNet-UaNet","OA",59.436,21.2996006,-157.7944,"USC00517662","PFSH1","19014414",NA,NA,0.253999999999905,0,0,0,0,1.2700000000001,NA,0,0,0,2.79399999999998,0,3.30200000000002,0,0,0,0,3.30199999999991,1.01599999999996,3.04800000000012,4.06399999999985,1.77800000000002,2.79399999999998,0,0,0,1.01599999999996,0.508000000000152,0,0,0.762000000000057
721.5,"Honolulu HI US AU956-KH6CTR ","unknown","APRSWXNET","OA",111.96,21.298,-157.792,NA,"AU956",NA,NA,NA,0,0,0,0,0,0.254000008106232,4.31800002670288,NA,0.254000008106232,0.254000016212463,NA,0,NA,0.254000117446878,NA,0,0,0.76199996471405,0.254000012820282,0.76200003242493,0.7619999694281,0.508000080531161,0.254000016212463,NA,0,NA,0.508000024318695,0.254000024318694,NA,0,0
723.4,"PAIKO DRIVE 723.4","GRUBB DL","COOP","OA",3,21.28172556,-157.7282194,"USC00517540",NA,NA,NA,NA,0,0,0,0,0,0,2,0,0.3,0.3,0,0,0,0,1,0,0,0.5,0.5,0,0.3,0,0.5,0.3,0,0,0,0,0,0,0.3
723.8,"Niu Valley","NWS","HydroNet-UaNet","OA",19.812,21.2896996,-157.7332,"USC00516865","NIUH1","1900D38C",NA,NA,0,0,0,0.253999999999905,0,1.26999999999953,2.79399999999987,0,0,0.762000000000626,0.507999999999811,0,2.28600000000006,0.231276552696595,0.253999999999905,0,0,2.28600000000006,0,0.253999999999905,0,1.01599999999962,2.28600000000097,0,0,0,0,0,0,0,2.03200000000015
724.19,"HAWAII KAI GC 724.19","UNOAA-NWS","COOP","OA",9,21.29889,-157.66444,"USC00511308",NA,NA,NA,NA,0,0,0,0,0,0,1.5,0,0,0.3,0,0.3,0,0,0,0,0,0,0.3,0,0,0.8,0,0,0.5,1.55558945198102,0,0,0,0,2
724.21,"Kamehame","NWS","HydroNet-UaNet","OA",242.316,21.3085995,-157.6791,NA,"KMHH1","190046EE",NA,NA,0,0,0,0,0,0,2.53999999999996,0,0,2.0319999999997,0,1.01600000000053,0,0,0,0,0,1.52399999999989,0.507999999999811,0.25400000000036,0,0.253999999999451,0,0,0,1.52400000000034,0,0,0,0,2.0319999999997
724.22,"Hawaii Kai Golf Course","NWS","HydroNet-UaNet","OA",8.8392,21.2991009,-157.6644,NA,"HAJH1",NA,NA,NA,0,0,0,0,0,0,1.524,0,0,0.254,0,0.254,0,NA,0,0,0,0,0.254,NA,0,0,0.762,0,0,0.508,0,0,0,0,1.524
728.2,"PALEHUA","RAWS","RAWS","OA",722.376,21.385,-158.1041667,NA,"PLHH1","4870F55E",NA,NA,0,0,0,0,0,0,2.286,0,0,0,1.01600000000002,1.77800000000002,4.31799999999998,0.507999999999981,0.762,0,0,2.79399999999998,0,0.508000000000038,2.03199999999998,0,3.048,0,0,0.508000000000038,0.253999999999962,0,0,0,0
734.5,"HONOULIULI STREAM TRIBUTARY NEAR WAIPAHU 4WNW","NWS","STATE","OA",195.72,21.4019,-158.067,NA,"HOUH1","DD7ED01C",NA,NA,0,0,0,0,0,0,0,0,0,0,0,0,0,0,0,0,0,0,0,0,0,0,0,0,0,0,0,0,0,0,0
740.5,"Kunia","NWS","HydroNet-UaNet","OA",85.0392,21.3869991,-158.0358,NA,"KUNH1",NA,NA,NA,0,0,0,0,0,0,0,0,0,0,0,0.674328988735987,0,0.0964841493573321,0,0.254,0,0.808972017476944,0,0.0964841493573429,0.614922146690726,0.354637712432019,0.508,0,1.46787449647856,0,0.254,0,0,0,0
742.4,"HONOULIULI PHB","FWS","RAWS","OA",1.524,21.35666667,-158.0205556,NA,"HOFH1","327BF39A",NA,NA,0,0,0,0,0,0,0,0,0,0,0,0,0,0,0,0,0,0.254000000000133,0,0,0,0.508000000000038,0.507999999999811,0,0,0,2.03199999999993,0,0,0,0
752.6,"WAIAWA PHB","FWS","RAWS","OA",1.524,21.38694444,-157.9811111,NA,"WWFH1","3274C092",NA,NA,0,0,0,0,0.253999999999905,0,0.25400000000036,0,0,0,0,0,0,0,0,0,0,0.253999999999905,0.507999999999811,0,0.762000000000171,0.507999999999811,1.26999999999998,0,1.52399999999989,0,0.25400000000036,0,0,0,0
764.6,"AIEA HEIGHTS 764.6","G FOWLER","COOP","OA",238,21.39488776,-157.91031,"USC00510123",NA,NA,NA,NA,0,0,0,0,0,0,5.3,2.5,0,0,0,1.5,0,0,1,0,0,3.3,7.1,2.3,3.6,11.9,6.4,3.6,0,2.8,0,0,0.5,0.3,0
764.7,"AIEA 0.7 ENE","CoCoRaHS","CoCoRaHS","OA",175,21.393,-157.9186,"US1HIHN0014",NA,NA,NA,NA,0,0,0,0,0,0,3.8,3,0,0,0,1,0.3,0,0.3,0,0,2.5,0,0.3,4.6,10.9,4.8,1,0.8,3,0.3,0.8,0,0,0
770,"MOANALUA 770","ROXBURGH J","COOP","OA",6,21.34794527,-157.8950332,"USC00516395",NA,NA,NA,NA,0,0,0,0,0,0,2.5,0,0,0,0.8,0.3,0,0,0,0,0,0,1.31994132533118,1.8241301199844,0.857699063228266,5.42037294201973,2.30255979124804,0.669266024111582,0,0,1,0,0,0,0
771.11,"N.HalawaValleyRGattunnel","USGS","USGS","OA",335.28,21.40488889,-157.8504444,NA,"TNLH1","DD75A524",NA,NA,0,0.253999999999905,0.254000000000133,0,0,0.254000000000019,13.716,0,0,0.508000000000038,9.39799999999991,6.85800000000017,5.0799999999997,1.01600000000008,0.761999999999944,0,4.31800000000021,19.8119999999999,6.85799999999995,2.53999999999996,17.7800000000002,10.6685807898709,20.3200000000002,1.01600000000008,6.34999999999991,7.87400000000002,3.55600000000004,1.52399999999989,0,4.31799999999998,0
772.3,"MoanaluaRGNo.1atalt1000","USGS","USGS","OA",304.8,21.39338889,-157.8401111,NA,"MOGH1","1689664A",NA,NA,0,0,0,0,0,5.334,11.43,0,0,0.762,8.89,5.08,5.588,0.411002551424696,0.762,0,2.794,20.828,4.826,3.59544431066216,14.986,10.4494514146919,26.924,0,10.668,9.906,4.826,0,0,1.27,0.508
772.5,"Moanalua Stream","USGS","HydroNet-UaNet","OA",72.2376,21.3736,-157.8801,"USC00516400","MOAH1","1900B66A",NA,NA,0,0,0,0,0,0,5.84199999999964,0.253999999999905,0,0,2.54000000000042,0,0,0,0,0,1.01600000000008,8.88999999999942,1.52400000000034,3.55599999999959,5.82534794871392,7.36599999999999,6.85799999999927,0.254000000000815,7.36599999999953,0.762000000000171,2.53999999999996,0,0,0.508000000000266,0
773,"KAPALAMA 773","KAMEHAMEHA SCH","COOP","OA",188,21.33933391,-157.8567005,"USC00513268",NA,NA,NA,NA,0,0,0,0,0,0,1,0,0,0.181954823151722,0.361072917336869,0.5,2.5,0,0.5,0,0,1.06166565875841,3.8,2.5,1.3404668307898,4.85409802427345,2.87611325819018,1.08815670740328,0,0.704823687751213,2.8,1,0.3,0.07551682368763,0
775,"NUUANU RES 5 775","BWS","COOP","OA",125,21.339125,-157.835905,"USC00516933",NA,NA,NA,NA,0,0,0,0,0,3.6,7.600138665242,0,0.3,0,5.6,0,1,0,0,0,0.3,8.9,2.5,2.3,12.2,6.9,12.3828453427227,0.8,4.8,3,0,0.3,0.3,0.3,0.5
777,"KALIHI RES SITE 777","BWS","COOP","OA",277,21.37516437,-157.8222555,"USC00512960",NA,NA,NA,NA,0,0,0,0,0,0,0,3.6,0.14721516845984,0.138865437701673,8.72902124047525,4.45182793791401,3.98464460068937,0.749602408871513,0.208298156552478,0,1.43646481972437,18.5309076756345,5.49713195707871,3.12969798297123,17.0176682489447,8.42529560731152,15.3826282492172,0.779198088763266,9.35444315531159,8.05289882152158,2.82324638751753,0.672704912365143,0.256108599260186,1.8720385429257,0.789825768101463
781.12,"Luluku","NWS","HydroNet-UaNet","OA",84.1248,21.3875008,-157.8099,NA,"LULH1",NA,NA,NA,0,0,0,0,0,0.254,7.874,0,0,0,2.286,4.572,2.54,NA,0.508,0,0.762,10.414,4.318,NA,6.604,4.826,7.112,0.254,4.064,22.098,8.382,0,0,0.762,0.254
781.13,"KANEOHE 0.8 SW, HI US","CoCoRaHs","CoCoRaHs","OA",20,21.4039,-157.8017,"US1HIHN0027",NA,NA,NA,NA,0,0,0,0,0,0,4.1,4.3,0,NA,0,NA,4.8,0,1.8,0,0,NA,3.3,2,NA,6.6,NA,1.5,0,32,2.5,2.3,0,0.8,0
782.3,"Nuuanu Upper","NWS","HydroNet-UaNet","OA",248.412,21.3502007,-157.8184,"USC00516938","NUUH1","156097FE",NA,NA,0,0,0,0,0,3.55599999999993,11.684,0,0,0,10.922,6.35000000000002,5.33399999999995,0.254000000000019,0,0,0.254000000000019,21.8439999999999,4.82600000000014,3.80999999999995,18.288,8.38199999999995,25.4,0,10.922,9.14400000000001,4.31799999999998,0.254000000000019,0.254000000000133,1.01599999999996,1.77800000000002
783,"NUUANU RES 4 783","BWS","COOP","OA",320,21.35266525,-157.807534,"USC00516928",NA,NA,NA,NA,0,0,0,0,0,3,7.4,0,0,0,9.4,7.1,5.8,1.3,0,0,0.3,24.1,6.6,3.6,17,8.1,23.1,0.3,14.5,12.2,5.1,0.3,0.3,1.5,1.5
784,"PAUOA FLATS 784","BWS","COOP","OA",549,21.33516,-157.81058,"USC00517810",NA,NA,NA,NA,0.3,0,0,0,0,4.09108517502048,8.37975378556537,1.5710028826176,0.387857807617683,0,10.8157880583913,4.73661652024221,5.26121039505678,2.27804383446701,0.0975641313024063,0,0.51488142439384,28.0939870942962,6.36106741177855,5.09366636692883,18.7502780362711,11.4539186966787,27.4844759765592,0.904201978577279,10.9847915241404,8.74412067402538,2.84235040431135,0.51488142439384,0.612445555696303,1.48133706253669,1.69820188229986
785.11,"WAIHI STREAM NEAR HONOLULU 3NE","USGS","USGS","OA",108,21.3283,-157.801,NA,"WISH1","16EA459A",NA,NA,0,0,0,0,0,0,0,0,0,0,0,0,0,0,0,0,0,0,0,NA,0,0,0,0,0,0,0,0,0,0,0
785.4,"Manoa Lyon Arbo","NWS","HydroNet-UaNet","OA",151.7904,21.3330002,-157.8024,"USC00516128","MNLH1",NA,NA,NA,0,0,0,0,0,1.778,6.604,0,0.508,0,4.572,4.064,5.08,5.6,0.254,0,0.508,20.5945890270407,6.096,3.72456734907042,4.6,7.366,9.906,1.016,6.35,5.842,1.778,0.508,0.762,2.032,1.27
787.2,"Maunawili","NWS","HydroNet-UaNet","OA",127.1016,21.3509998,-157.7668,NA,"MAUH1","19007374",NA,NA,0,0,0,0,0,0,5.58799999999974,0,0.254000000000815,0.507999999999811,2.53999999999905,6.09600000000137,0.253999999998996,1.77800000000025,2.28600000000006,0,0.507999999999811,16.5100000000002,6.85800000000017,0.762000000000626,1.52399999999943,NA,3.80999999999949,0.254000000000815,0,35.3060000000005,2.03199999999924,1.01600000000144,0,0.253999999998996,1.01599999999962
788.1,"PALI GOLF COURSE 788.1","C&C PARKS & RECR","COOP","OA",146,21.37183016,-157.7839226,"USC00517656",NA,NA,NA,NA,0,0,0,0,0,0,1.74260112247609,5.6,0,NA,NA,0,4.1,3,4.1,0,0,13.7665488675611,0.522780336742827,5.6,6.27336404091392,8.9,0,2.26538145921892,0,6.27336404091392,NA,6.1,0,0.871300561238045,0
788.2,"St Stephens Seminary","NWS","HydroNet-UaNet","OA",142.9512,21.3666992,-157.7786,NA,"STVH1","19005598",NA,NA,0,0,0,0,0,0.507999999999925,7.87400000000002,0,0.254000000000019,0,0.507999999999925,4.3180000000001,3.55600000000004,1.77800000000002,0,0,0,11.1759999999999,3.55599999999993,1.01600000000008,4.82600000000002,4.06399999999996,2.79399999999998,0,0,62.23,4.82600000000002,0.253999999999905,0,1.2700000000001,2.03200000000004
790.11,"Olomana Fire Stn","NWS","HydroNet-UaNet","OA",45.1104,21.3777008,-157.7507,"USC00517052","OFSH1","19011468",NA,NA,0,0,0,0,0,0.254000000000815,2.79399999999896,0,0,0,0,1.27000000000044,1.77800000000025,7.36599999999908,0,0,0,3.55600000000049,2.28600000000006,0.253999999999905,1.01599999999962,2.28600000000006,1.27000000000044,0,0.253999999999905,7.6200000000008,3.55599999999959,0,0,1.77799999999934,0.761999999999716
793.1,"WAIMANALO EXPERIMENTAL FARM","CoCoRaHS","CoCoRaHS","OA",38,21.3727,-157.725,"US1HIHN0022",NA,NA,NA,NA,0,0,0,0,0,0,1.3,1.5,0,0.3,0,0,1.5,2.3,0,0,0,0,1.3,2.5,0,0.3,1,0,0,6.6,0,1,0,0,0
793.2,"BELLOWS AFS AT WAIMANALO","NWS","STATE","OA",6.66,21.3667,-157.717,NA,"BELH1","B14036D2",NA,NA,0,0,0,0,0,0,0.762000000000057,0,0,0.761999999999944,0,1.01600000000008,0.253999999999905,1.01600000000008,0,0,0,0.507999999999925,1.524,0.254000000000019,0,1.26999999999998,0,0,0,0,1.524,0,0,0,0
795.1,"WAIMANALO EXP F 795.1","HAES","COOP","OA",18,21.33516407,-157.7105906,"USC00519523",NA,NA,NA,NA,0,0,0,0,0,0,0.3,0,0,0,0.3,0,0.3,NA,4.3,0,0.3,0.5,0.5,1.5,0,0,0,0,0,8.9,0,NA,0,0,0
795.3,"Waimanalo Nonokio","NWS","HydroNet-UaNet","OA",20.1168,21.3356991,-157.7116,NA,"WMLH1","224185AC",NA,NA,0,0,0,0,0,0,3.55600000000049,0,0,0,0,2.79399999999987,2.79399999999987,3.30199999999968,0,0,0,0.50800000000072,1.26999999999953,0.507999999999811,0,0,0.762000000000626,0,0,8.1279999999997,0.253999999999905,0,0,0.253999999999905,1.01600000000053
801.1,"Waianae Kawiwi","MT VIEW DAIRY","HydroNet-UaNet","OA",19.812,21.4566994,-158.18,NA,"WAIH1",NA,NA,NA,0,0,0,0,0,0,0,0,0,0,0,1.27,0,NA,0,0,0,0.254,0.254,NA,0,0,0.508,0,0.254,NA,5.842,0,0,0,0
801.2,"WAIANAE BOAT HARBOR","NWS","STATE","OA",4.25,21.4503,-158.184,NA,"WBHH1","15D13434",NA,NA,0,0,0,0,0,0,NA,0,NA,0,NA,0.508000000000038,NA,0,0,0,0,NA,0,NA,NA,0,1.77800000000002,0,NA,0,2.53999999999985,0,0,0,0
803.2,"WAIANAE VALLEY","RAWS","RAWS","OA",291.6936,21.48055556,-158.1552778,"USR0000HWVA","WNVH1","487005DA",NA,NA,0.254000000000019,0,0,0,0,0,0.254000000000019,0,0.507999999999925,0,1.26999999999998,0,0.254000000000133,0,0,0,0,2.79399999999998,0,1.77800000000002,0.507999999999925,0,0.508000000000038,0,1.52399999999989,7.62,5.8420000000001,0,0,0,0
804,"Lualualei","US VY","HydroNet-UaNet","OA",35.9664,21.4211006,-158.1352,"USC00515647","LUAH1","8170406C",NA,NA,0,0,0,0,0,0,1.4530867199983,7.874,2.794,0,0.507999999999999,0.254000000000001,0,0,0,0,0,3.556,0,1.27,4.318,0,0.508000000000003,0,2.54,0,0,0,0.508000000000003,0,0
810.1,"WHEELER ARMY AIR FIELD 810.1","COOP","NWS","OA",255,21.48722,-158.02806,"USW00022508","WAFH1","B14101B2",NA,NA,0,0,0,0,0,0,5.8420000000001,0,0,0,1.01600000000008,0,1.01599999999985,0,0,0,0,3.048,0.761999999999944,6.35000000000014,2.79399999999987,0,4.31800000000021,0,3.55599999999981,1.52400000000011,0,0,0,0.253999999999905,0
820.6,"Mililani","NWS","HydroNet-UaNet","OA",226.7712,21.4638004,-157.9991,"USC00516261","MITH1",NA,NA,NA,0,0,0,0,0,0,5.334,0,0,0,1.27,1.016,0,1,0,0,0,3.302,0.762,0.5,5.4089864964758,0.762,5.334,0.254,4.064,0.254,2.032,0,0,0,0
824.2,"Waipio","NWS","HydroNet-UaNet","OA",124.968,21.4199009,-158.0058,NA,"PECH1",NA,NA,NA,0,0,0,0,0,0,0,0,0,0,0,1.27,0,0.319485683731668,1.016,0,1.016,0.762,0,0.487241423223679,0.836708473177217,0.762,0.762,0,3.81,0,2.286,0,0,0,0
834.13,"Waiawa CF","NWS","HydroNet-UaNet","OA",235.6104,21.4440994,-157.9669,"USC00519257","WAWH1",NA,NA,NA,0,0,0,0,0,1.016,4.826,0,0,0,1.27,0.254,1.524,0.476452445797603,0.508,0,1.27,13.716,1.524,2.8,5.7934641944372,2.032,14.478,0,10.414,0.508,0,0,0,0.508,0
835.2,"Palisades","NWS","HydroNet-UaNet","OA",261.8232,21.4298,-157.9452,NA,"PACH1",NA,NA,NA,0,0,0,0,0,0.254,1.778,0,0.508,0,2.286,0.254,0.508,0.467233299552493,0,0,0,14.986,1.778,2.54230651005996,6.84797558501616,2.54,10.16,0,6.604,0,0,0,0,1.016,0
837,"WAIAHOLE 837 ","OAHU SUGAR","COOP","OA",227,21.47016136,-157.8833636,"USC00518964",NA,NA,NA,NA,0,NA,NA,NA,0,0,5.1,NA,NA,NA,NA,NA,6.4,0,8.9,NA,NA,NA,NA,0,0,NA,NA,NA,NA,NA,7.6,0,0,0,NA
837.12,"WAIAHOLE STREAM NEAR KAHALUU 2N","USGS","USGS","OA",4,21.48194,-157.8458,NA,"WHSH1","162B784C",NA,NA,0,0,0,0,0,0,3.556,0,0,0.507999999999999,2.794,1.778,0,NA,0,0,2.032,10.668,0.762000000000008,0.253999999999998,5.588,1.016,3.556,0,0,6.09599999999999,2.79400000000001,0,0.253999999999991,0,0
837.5,"WAIHEE 837.5","COOP","COOP","OA",34,21.45167,-157.84889,"USC00519281",NA,NA,NA,NA,0,0,0,0,0,0,0,3.6,0,0.3,5.1,0.3,2.8,0.969323055814225,1.98409121773219,0,0,14.7559245815985,6.1,1,7.67991918893583,5.6,4.6,4.3,0,3,6.4,1,0,0,0
839.15,"Ahuimanu Loop ","NWS","HydroNet-UaNet","OA",74.0664,21.4319992,-157.8373,NA,"AHUH1","15CE7632",NA,NA,0,0,0,0,0,0,5.33400000000006,0,0,0,4.06399999999996,3.81,1.01600000000002,7.11199999999997,1.77800000000002,0,1.77798461914063,5.58800000000002,1.26999999999992,0,2.54000000000002,5.84199999999998,8.63600000000002,0,0,NA,4.31799999999993,0,0,0,0
839.8,"Waihee Pump","USGS","HydroNet-UaNet","OA",64.3128,21.4463997,-157.8584,"USC00519286","WPPH1","195042AC",NA,NA,0,0,0,0,0,0,8.46365505027428,0,0,1.52400000000011,6.60399999999993,3.80999999999995,1.524,14.2239999999999,2.28600000000006,0,0,10.4139999999999,3.04800000000012,0.507999999999925,9.65200000000004,4.82600000000002,8.12799999999993,0.254000000000133,1.52399999999989,7.87400000000014,5.84199999999987,0,0,0,0
841.2,"KUAOKALA","S&PF","RAWS","OA",267.0048,21.57027778,-158.26,NA,"KKRH1","48710720",NA,NA,0,0,0,0,0,0.253999999999991,0.507999999999981,0,0,0,0,0,1.01600000000002,0,0,0,0,0.762,0,0,0.253999999999991,0,4.06399999999999,0,1.524,0,NA,0,0,0,0
841.3,"KAENA POINT 841.3","LOCKHEED BALLISTIC","COOP","OA",378,21.56322317,-158.2430755,"USC00512410",NA,NA,NA,NA,NA,NA,NA,NA,NA,NA,NA,NA,NA,NA,NA,NA,NA,NA,NA,NA,NA,NA,NA,NA,NA,NA,NA,NA,NA,NA,0.5,NA,0.3,NA,NA
842.1,"MakahaRainGage","USGS","USGS","OA",286.097472,21.50158333,-158.1801667,NA,"MKHH1","DD1423F8",NA,NA,0,0,0,0,0,0,4.064,0,3.048,0,0.254000000000001,1.27,0.507999999999999,0,0,0,0,4.572,0.253999999999998,2.032,0.761999999999997,0,1.09974949823389,0,4.572,9.398,5.33399999999999,0,0.254000000000005,0,0
842.8,"MAKUA RANGE","RAWS","RAWS","OA",6.096,21.52861111,-158.2261111,"USR0000HMAR","MKRH1","3266B468",NA,NA,NA,NA,NA,NA,NA,NA,NA,NA,NA,NA,NA,NA,NA,NA,NA,NA,0,2.79400000000004,NA,NA,NA,NA,0.762,NA,1.77800000000002,0.253999999999962,NA,0,NA,NA,NA
842.9,"MAKUA RIDGE","RAWS","RAWS","OA",533.4,21.54277778,-158.1988889,"USR0000HMRG","MKGH1","3266C2F8",NA,NA,0,0,0,0,0,0,0,0,0,0,0,0,0,0,0,0,0,0,0,0,0,0,0,0,0,0,0,0,0,0,0
843.7,"DILLIINGHAM","RAWS","RAWS","OA",31.0896,21.57194444,-158.1986111,NA,"DLGH1","3278D278",NA,NA,0,0,0,0,0,0,0,0,0,0,0.253999999999962,0,0,0,0,0,0.507999999999981,0.762000000000057,0,0.507999999999981,2.03199999999998,0,0.254000000000019,0,1.01600000000002,1.77799999999996,1.77800000000002,0,0,0,0
844,"Mount Kaala","FAA","STATE","OA",1224,21.50777778,-158.1425,NA,NA,NA,NA,NA,0,0,0,0,0,0,3.81,0.254,3.302,0,2.286,2.032,2.032,0,0,0,0.254,9.398,0.762,3.048,3.302,0.254,0.254,0,3.81,6.35,1.27,0,0,0.508,0
855.3,"Poamoho Exp Farm","NWS","HydroNet-UaNet","OA",220.0656,21.5382004,-158.0893,NA,"POAH1",NA,NA,NA,0,0,0,0,0,0,4.572,0,0,0,0.254,0,2.032,0.258594442292818,0,0,0,0.508,0,0.708610873001461,0.124138639683233,0,0,0,0.254,0,0,0,0,0,0
855.4,"POAMOHO EXPERIMENTAL FARM 855","COOP","COOP","OA",220.1,21.53833,-158.08917,"USC00518055",NA,NA,NA,NA,0,0,0,0,0,0,0.8,7.9,0,0.904223181879767,NA,0,1.0433344406305,4.1,0,0,0,7.0946741962874,4.24289339189737,NA,0.8,0.5,0,NA,NA,NA,0.2086668881261,0,0,0,0
858,"SCHOFIELD BARRACKS","RAWS","RAWS","OA",298.704,21.495,-158.0819444,"USR0000HSCO","SCBH1","3266A71E",NA,NA,0,0,0,0,0,0,2.79399999999998,0,0,0,0,0,0,0,0,0,0,2.79399999999998,0,1.77800000000002,0.254000000000019,0,1.26999999999998,0.253999999999905,2.79399999999998,0.254000000000133,0,0,0,0,0
883.12,"PoamohoRainGageNo1,nrWaawa","USGS","USGS","OA",755.904,21.53386111,-157.9213889,NA,"PMHH1","DD9836AA",NA,NA,0,0,0,0,0,3.30199999999968,11.9345244324474,0,2.53999999999996,1.77799999999979,6.42751717267314,8.38200000000006,1.01600000000008,4.14070787325486,0.25400000000036,0,2.79399999999987,27.3397827844046,5.07999999999993,3.78410097895498,23.5707224855967,7.61999999999989,28.8422509358532,0.253999999999905,4.18661023693361,4.00156543502247,6.43920603870837,0,0.25400000000036,2.79399999999987,0.25400000000036
884.4,"PunaluuRainGageatalt","USGS","USGS","OA",73.152,21.55644444,-157.899,NA,"PNSH1","DD989652",NA,NA,0,0,0,0,0,1.016,0,0,0.254,0,3.302,1.016,1.778,1.47443486393673,0,0,0.254,18.0379860235385,0.254,2.22456343000707,8.91453304334702,0.508,4.318,0.508,0,8.38010685848203,5.39820153020447,0,0,0,0
885.6,"KUALOA RANCH 885.6","COOP","COOP","OA",25,21.53,-157.85028,"USC00514829",NA,NA,NA,NA,0,0,0,0,0,0,1,4.8,0,0.237278994469807,4.03374290598673,0,2.5,2.3,2.8,0,0,15,0.8,4.6,5.6,1.5,0,4.3,0.5,7.1,5.3,0,0,0,0
885.7,"OAHU FOREST NWR","RAWS","RAWS","OA",698.9,21.47747,-157.9369,NA,"OFRH1","8379F6FA",NA,NA,0,0,0,0,0,1.524,20.8289667165272,0,2.03199999999993,0,5.8420000000001,0,0.762000000000057,7.36599999999987,0,0,2.7940000000001,13.7159999999999,1.26999999999998,4.06400000000008,31.097365628291,4.82600000000002,46.3699890688474,0,13.9006222042103,0.507999999999811,1.0160000000003,0,0,1.01599999999985,0
886.1,"Waikane - Hakipuu Mauka","KUALOA RANCH","HydroNet-UaNet","OA",14,21.5084922,-157.8555853,NA,"HAKH1","16C69380",NA,NA,0,0.508000000000038,0,0,0.508000000000038,1.26999999999998,8.8900000000001,0,0.253999999999905,0.508000000000038,5.58799999999997,0.508000000000038,0.253999999999905,21.0820000000001,0.253999999999905,0,0.254000000000133,10.6679999999999,2.03199999999993,0.762000000000171,10.6679999999999,0,5.8420000000001,0.254000000000133,0,6.34999999999991,3.30199999999991,0,0,0,0
886.11,"KUALOA RANCH HAKIPUU 886.11, HI US","COOP","COOP","OA",74.04,21.51083,-157.86222,"USC00514828",NA,NA,NA,NA,0,0,0,0,0,0,2.8,3,0,0.329751326979132,5.60577255864524,0,1.3,0,3.27128355947415,0,0,11.7,1.5,3.6,10.2,4.3,1.68539567122667,2.5,0,4.3,2,0.3,0,0.5,0.8
886.4,"KahanaRainGageatalt","USGS","USGS","OA",28.956,21.54041667,-157.8825556,NA,"KNRH1","17B972EE",NA,NA,0,0,0,0,0,1.01599999999985,5.58799999999997,0,0,1.77800000000002,5.71160647745005,3.80999999999995,1.77800000000002,3.048,0.253999999999905,0,1.52400000000011,16.51,3.30199999999991,3.30199999999991,6.85800000000017,0.507999999999811,9.08638043846432,0.508000000000038,1.52399999999989,7.44299784015535,7.62000000000012,0,0,0.508000000000038,0
886.8,"Hakipuu Mauka","RILEY W","HydroNet-UaNet","OA",8.5344,21.5067005,-157.8547,"USC00510920","PTRH1","16C69380",NA,NA,0,0.508000000000038,0,0,0.508000000000038,1.26999999999998,8.8900000000001,0,0.253999999999905,0.508000000000038,5.58799999999997,0.508000000000038,0.253999999999905,21.0820000000001,0.253999999999905,0,0.254000000000133,10.6679999999999,2.03199999999993,0.762000000000171,10.6679999999999,0,5.8420000000001,0.254000000000133,0,6.34999999999991,3.30199999999991,0,0,0,0
886.9,"KUALOA RANCH HEADQUATERTERS 886.9","COOP","COOP","OA",7,21.5213,-157.8374,"USC00514830",NA,NA,NA,NA,0,0,0,0,0,0,1,5.1,0,0.161682340375432,2.74859978638234,0,1,0,1.3,0,0,7.9,0.3,3.3,3.6,4.1,0,1.3,0,3.6,2.68042829230259,1,0,0.5,0
892.2,"WAIMEA ARBORETUM 892.2","COOP / WB","COOP","OA",8,21.638859,-158.058759,"USC00519603",NA,NA,NA,NA,0,0,0,0,0,0,2.8,1.5,0,1.3,1.58173604855415,0,1.5,0,0,0,0,10.2,6.1,2.48641050314358,6.6,2.5,6.9,1.21780568109751,2.31412047446713,1.32651768038749,0.3,1,0.5,1,0
897.11,"KamananuiRainGageatalt","USGS","USGS","OA",219.456,21.62238889,-158.0143056,NA,"KMRH1","DD34C1E4",NA,NA,0,0,0,0,0,0,14.224,0.722136843296055,0.762,0.973457110607012,5.13195830967084,0,1.99930299092703,0.181818707814014,0,0,6.858,23.114,0.508,1.83973680293917,21.844,4.318,31.242,0.508,5.334,1.778,3.556,0,0.254,1.778,0
897.9,"PupukeaRdRainGageatalt","USGS","USGS","OA",353.568,21.59902778,-158.0169167,NA,"PPRH1","1713D512",NA,NA,0,0,0,0,0,0,18.288,0.132770987327682,0.508,1.016,4.826,0,2.794,0.177143320353346,0,0,3.048,23.114,1.27,3.0215315454934,18.288,4.064,27.178,0,4.572,0.254,1.524,0,0.254,0.508,0
901.2,"KII KAHUKU 911","NWS","COOP","OA",7.6,21.6793,-157.945,"USC00514500",NA,NA,NA,NA,NA,NA,NA,NA,NA,NA,2.3,0,0,NA,NA,NA,NA,0,0,0,NA,NA,NA,NA,NA,NA,NA,NA,NA,NA,NA,NA,NA,NA,NA
903.2,"LAIE 0.2 WNW","CoCoRaHS","CoCoRaHS","OA",2,21.65,-157.9287,"US1HIHN0002",NA,NA,NA,NA,0,0,0,0,0,0,7.1,4.1,0,0.3,0,4.3,2.3,0,0,0,0,9.1,1,1.3,0,0.8,0,0.5,0,2.8,1,0.66856460187557,0,0.5,0
905.2,"PUNALULU PUMP 905.2","FUJII D","COOP","OA",4,21.5843,-157.8915,"USC00518314",NA,NA,NA,NA,0,0,0,0,0,0.5,0,0,0,0.659297880339371,3.77150421456982,5.3,0.3,0,0,0,4.3,8.75884214793491,1.31142685393228,0.961225303476104,2,1.23129479532481,4.34538663605885,0,0.612941329205891,4.6,3.74439196651857,0,0.5,0,0
905.22,"Punaluu Pump","NWS","HydroNet-UaNet","OA",3.9624,21.5842991,-157.8916,NA,"PUNH1","19051152",NA,NA,0,0,0,0,0,0.507999999999811,0,0,0,0,5.58800000000019,4.06399999999985,1.52400000000011,0,0,0,0.508000000000038,8.63599999999997,1.77800000000002,1.77800000000002,2.03199999999993,1.26999999999998,0.254000000000133,0,0,10.1599999999999,4.82600000000002,0,0,0.508000000000038,0
909,"KAHUKU TRAINING AREA","RAWS","RAWS","OA",181.6608,21.67916667,-157.9894444,"USR0000HKAH","KTAH1","325A861E",NA,NA,0,0,0,0,0,0.254000000000019,7.38255106854204,0,1.26999999999998,0.254000000000019,4.06399999999996,0.508000000000038,1.26999999999998,0,0,0,9.39799999999991,6.09600000000012,0.507999999999925,3.04800000000012,4.06399999999996,0.761999999999944,2.28599999999994,0,0.508000000000038,3.55600000000004,1.74732645017862,0,0,0,0
911.1,"KII","RAWS","RAWS","OA",1.524,21.68833333,-157.9525,"USR0000HKII","KFWH1","8375210E",NA,NA,0,0,0,0,0,0,2.286,0,0,0,1.01600000000002,1.524,0.508000000000038,0,0,0,3.04799999999994,3.81000000000006,0,1.524,0,0.507999999999981,1.01599999999996,0.762000000000057,0,2.53999999999996,1.33394790054456,0,0,0,0
912,"KAUHUKU 912","KUILIMA  GOLF","COOP","OA",4,21.695,-157.9811,"USC00512570","KAHH1","B1404042",NA,NA,0,0.254000000000019,0,0,0,0,2.03200000000004,0.253999999999905,0,0,0.254000000000019,0.254000000000019,1.77799999999991,0,0.254000000000133,0,2.53999999999996,2.28600000000006,0,0,0.253999999999905,0,0,0,0,0.254000000000019,4.82600000000002,0,0,0,0
926,"PORT ALLEN CAA AIRPORT","FAA","COOP","KA",9,21.89381249,-159.6010997,"USW0022526","PAKH1","B159A272",NA,NA,0,0,0,0,0,0,0,0,0,0,0,0,0,0,0,0,0,NA,0,0,0,0,0,0,0,0,0,0,0,0,0
936,"KOLOA 936","MCBRYDE SUGAR","COOP","KA",73,21.90686471,-159.4622057,"USC00514742",NA,NA,NA,NA,1.5,NA,0.636963011514623,0.3,0.8,4.61798183348102,NA,1.3,NA,NA,0,0,1.3,0.5,2.5,NA,NA,5.1,4.1,2.5,0,NA,NA,NA,0.887963374592607,1.3,0.5,0.8,0,NA,NA
940.2,"KOLOA 2.1 SSE","CoCoRaHS","CoCoRaHS","KA",12,21.8788,-159.4518,"US1HIKI0020",NA,NA,NA,NA,0.497022447423865,0.290597051518364,0,0.8,0,12.2,0,0,0,0,0,0,0.5,0,0,0.5,0,4.09391737781145,1.8,0.637108093116291,0.9628283149938,1.8,0.8,0,0,0,0,0.827066710429265,0,0,0
940.3,"POIPU","NWS","STATE","KA",14.8,21.8828,-159.429,NA,"POIH1","B15997E8",NA,NA,NA,NA,0,2.286,NA,18.034,5.08,0,NA,NA,NA,NA,NA,NA,1.524,0,NA,NA,1.016,0.762,5.08,5.334,0,0,NA,0,0,0,0,0,NA
941.1,"MAHAULEPU 941.1","GROVE FARM","COOP","KA",24,21.90102957,-159.422207,"USC00515710",NA,NA,NA,NA,4.1,NA,0.554306862306348,1.5,1.3,4.01872475172102,NA,0,NA,NA,0,0,2.8,1.3,2,NA,NA,7.9,3.8,3.6,0,NA,NA,NA,0.772735909488654,0.8,0,1.3,0,NA,NA
946,"WAIMEA HTS","RAWS","RAWS","KA",159.7152,21.96638889,-159.6638889,NA,"WHGH1","487090B8",NA,NA,0,0,0,0,0,0.254000000000019,0.507999999999981,0,1.01599999999996,0,NA,0,NA,1.27000000000004,0,0,0,2.03199999999993,0.125240953591243,0,0,0,0,2.54000000000008,0,4.06399999999996,0.253999999999962,0,0,0,0
946.1,"WAIMEA TANK AT WAIMEA","NWS","unknown","KA",70,21.964722,-159.666944,NA,"WMTH1","1900E616",NA,NA,NA,NA,NA,NA,NA,1.01600000000002,NA,NA,0.253999999999962,NA,NA,NA,NA,0.762000000000057,NA,NA,NA,1.26999999999992,NA,NA,NA,NA,NA,2.03200000000004,0.253999999999962,2.54000000000008,0.253999999999962,NA,NA,NA,NA
965,"MAKAWELI 965","OLOKELE SUGAR","COOP","KA",43,21.91909048,-159.6272113,"USC00515864",NA,NA,NA,NA,0,NA,NA,NA,0,NA,0.3,0,NA,NA,0,0,0.3,NA,NA,NA,NA,NA,0,0.3,0,NA,NA,NA,NA,NA,NA,NA,0,NA,NA
966.4,"Hanapepe","NWS","HydroNet-UaNet","KA",110.6424,21.9365005,-159.5866,NA,"HNPH1","156011EA",NA,NA,0,0,0,0,0,0,0.254000000000815,0,0,0,0,0,0,0.761999999999716,0.253999999999905,0,0,1.27000000000044,0,0.253999999999451,0,0,0,0,0,NA,0,0,0,0,0
986.2,"Kalaheo","KUKUILONO GOLF COU","HydroNet-UaNet","KA",263.0424,21.9183006,-159.5265,NA,"KHEH1","1560740C",NA,NA,0.254,0.254,0,0.254,0.254,2.54,NA,0.254,0,0,0,0,0.254,0,1.778,0.762,0,4.318,1.016,1.32327751511634,2.286,2.794,0.508,0.254,0,1.27,1.778,0.508,0,0.508,0
992.1,"Omao","NWS","HydroNet-UaNet","KA",99.9744,21.9071007,-159.4768,"USC00517116","OMAH1","195001A6",NA,NA,0,0,0,0.254000000000005,0.253999999999998,11.938,25.7650113642022,0,0.508000000000003,0,0.507999999999996,0.508000000000003,1.778,0,0.761999999999993,0,0,3.048,4.82599999999999,0.762000000000015,5.29584509743305,4.06400000000001,1.01600000000001,0,0,0,4.57199999999999,0.50800000000001,0,0,0
994,"KOLOA MAUKA 994","MCBRYDE SUGAR","COOP","KA",195,21.94833,-159.46694,"USC00514750",NA,NA,NA,NA,NA,NA,NA,NA,NA,NA,NA,NA,NA,NA,NA,NA,NA,NA,NA,NA,NA,35.3,NA,NA,NA,NA,NA,NA,NA,NA,NA,NA,NA,NA,NA
1006,"HALENANAHO 1006","GROVE FARM","COOP","KA",149,21.96491938,-159.4305374,"USC00511038",NA,NA,NA,NA,5.24631143416165,NA,1.07599541220975,2,1.93745414826665,7.8009667385207,NA,1.09801826054743,NA,NA,2.8,0,3.81563494460919,1.68406531890955,4.05272835230565,NA,NA,11.2,7.15117473910703,5.60565217176952,0,NA,NA,NA,1.5,1.38415287337913,1.76103683551852,1.93745414826665,0.134499426526219,NA,NA
1013,"PUHI 1013","LIHUE PLANTATION","COOP","KA",101,21.96491954,-159.3972052,"USC00518217",NA,NA,NA,NA,3.90061992802544,NA,0.8,1.34288300457367,1.44049249748211,5.8,NA,0.816373934749366,NA,NA,0.5,0,2.83691540042765,1.25209851253995,3.01319377857393,NA,NA,12.4,5.31688121191579,4.16778890181867,0,NA,NA,NA,1.1152463908146,0.3,3.3,1.44049249748211,0.3,NA,NA
1020.1,"LIHUE WEATHER SERVICE OFFICE AIRPORT 1020.1","LIHUE WEATHER SERVICE OFFICE AIRPORT 1020.1","NWS","KA",45,21.98156999,-159.3422063,"USW00022536","PHLI",NA,NA,NA,0,0.254,0.254,0.508,0.762,4.318,19.393815630353,0,0,0,0,2.794,9.652,0,3.048,1.016,0,4.064,1.524,0,1.27,1.524,0,0,0.254,0,0,0,0,0,0
1020.6,"LIHUE 1.3 NE","CoCoRaHS","CoCoRaHS","KA",25,21.987,-159.338,"US1HIKI0009",NA,NA,NA,NA,0.8,0.3,0,0.5,0.3,3.04387835770339,19.6,0,0,0,0,0,1.4593876489823,0.8,0,3.6,0,3.3,2.8,0.3,0.8,5.3,0,0,0,0,0,1,0,0,0
1022.1,"LIHUE 1.2 NNW","CoCoRaHS","CoCoRaHS","KA",60,21.9923,-159.3586,"US1HIKI0002",NA,NA,NA,NA,0.8,0.5,0,0.3,2,5.6,29.2,0.3,0.5,0,0,0,1.72930239484934,0.8,0.5,4.8,0,7.6,3.3,0.8,1.3,4.28806448182252,0,0,0,0,0,0.8,0,0,0.3
1029,"MANA","RAWS","RAWS","KA",26.2128,22.02944444,-159.7622222,NA,"MNRH1","4870603C",NA,NA,0,0,0,0,0,0,0.254000000000019,0,0,0,1.26999999999992,0,NA,0,0,0,0,0.254000000000019,0,0,0,0,0.253999999999962,0.254000000000076,0,0.762,0,0,0,0,0
1036,"PUU OPAE","RAWS","RAWS","KA",652.8816,22.04083333,-159.6958333,NA,"POPH1","4870734A",NA,NA,0,0,0,0,0,0.515135010953166,3.80999999999995,0,0,0,NA,0,NA,1.524,0,0,0,4.06399999999996,0.254000000000019,0,0,0.254000000000019,0,5.15135010953143,5.58799999999997,2.03200000000004,0.254000000000019,0,0,0,0
1042,"WaialaeRainGagenrWaimea","USGS","USGS","KA",1219.2,22.08972222,-159.5925,NA,"WLGH1","DDF7C28E",NA,NA,0,0,0,0,0,11.1953638567778,9.65200000000004,0.254000000000133,1.26999999999998,0.507999999999811,0.508000000000266,0,30.9879999999998,0.490340502151986,1.0160000000003,0.507999999999811,0.254000000000133,15.0914086972942,1.77800000000025,3.04799999999977,4.31799999999998,2.54000000000019,0.762000000000171,0,0.253999999999678,1.97019112398883,0.254000000000133,0,0.253999999999678,0.762000000000171,0.254000000000133
1047,"Mt.WaialealeRainGagenrLihue","USGS","USGS","KA",1569.72,22.07088889,-159.4979722,"USC00516565","WLLH1","DD5E818E",NA,NA,2.03200000000015,1.26999999999953,2.79400000000032,5.84199999999964,8.38200000000006,44.4500000000003,60.96,0.507999999999356,7.35467216321847,11.9380000000001,20.5740000000001,5.07999999999947,74.9300000000007,1.04470778103432,4.06399999999985,4.82600000000002,3.04800000000023,75.1839999999993,32.0040000000004,8.9306733410504,90.9320000000007,26.4159999999997,12.1919999999996,0,0.253999999999905,NA,36.3220000000001,10.6679999999997,5.84200000000055,8.63599999999997,1.01599999999962
1051,"NWailuaDitchRainGagenrLihue","LIHUE PLANTATION","USGS","KA",338.328,22.0625,-159.4677222,"USC00516888","WLDH1","1732B3E0",NA,NA,0,0,0.508000000000266,2.28600000000006,5.8420000000001,26.6699999999996,27.9400000000001,0,3.55600000000004,3.04800000000023,8.63599999999997,2.53999999999996,38.3539999999998,0.50511848616953,1.77799999999979,0.25400000000036,0,30.9879999999998,8.63599999999997,4.31799999999976,20.5740000000001,16.2560000000003,4.31799999999976,0,0,2.95505608667991,9.65200000000004,2.0319999999997,1.26999999999998,2.79399999999987,0.25400000000036
1059,"Lihue Variety Stn","NWS","HydroNet-UaNet","KA",117.0432,22.0240002,-159.3868,NA,"LIHH1","1561501A",NA,NA,NA,0,NA,2.7940000000001,1.52399999999989,NA,NA,0,0.253999999999905,NA,2.53999999999996,NA,NA,NA,NA,NA,0,NA,5.8420000000001,NA,NA,3.048,0,0,0,0.254,0.253999999999998,0.508000000000001,0,0.254000000000001,0
1060,"Wailua UH Exp Stn","NWS","HydroNet-UaNet","KA",158.1912,22.0660992,-159.396,"USC00519475","WUHH1",NA,NA,NA,0,0,0.254,0,3.14427097240941,14.732,41.656,0,1.524,1.27,3.048,1.37216047802557,6.858,0.0733537552755553,4.064,1.016,0,17.018,5.08,2.08738651638112,13.208,1.524,1.016,0,0,1.778,5.08,1.27,0,1.524,0.254
1061.5,"Wailua UH Exp Stn","NWS","HydroNet-UaNet","KA",158,22.066,-159.3962,NA,"WUHH1","15C163D6",NA,NA,0,0,0.253999999999905,0,4.06399999999985,14.7320000000004,41.6559999999995,0,1.52400000000034,1.26999999999998,3.04800000000023,1.77799999999979,6.85799999999972,0,4.06399999999985,1.01599999999962,0,17.0180000000005,5.08,3.30199999999968,13.2080000000001,1.52400000000034,1.01599999999962,0,0,1.77799999999979,5.08000000000038,1.27,0,1.52400000000034,0.253999999999905
1063.2,"KAPAA 2.7 SSW, HI US","CoCoRaHs","CoCoRaHs","KA",90.04,22.0593,-159.365,"US1HIKI0023",NA,NA,NA,NA,0.5,0,0.5,1.5,1.5,NA,28.2,0.5,0.5,0.5,3,0.3,5.8,NA,10.4,3.3,0.5,NA,9.7,2.3,3.3,NA,0.8,0.3,0.3,2.5,0.3,3.6,0.5,0.5,0.5
1063.3,"Kapaa HI US F0098-AH7L ","unknown","APRSWXNET","KA",122,22.071,-159.359,NA,"F0098",NA,NA,NA,NA,0,0,0.76199996471405,2.2860000180655,NA,28.4480018615724,NA,1.01600003242493,NA,0.508000016212463,NA,4.82599986070923,NA,NA,1.77800014850159,NA,10.4139995574951,6.34999903079216,NA,6.60399964714051,4.82600070517573,1.26999998564057,NA,0.508000016212463,NA,1.77800001335144,NA,0,0.254000008106232,0.254000016212463
1065.2,"KAPAA 2.3 SW, HI US","CoCoRaHs","CoCoRaHs","KA",105.03,22.0721,-159.3767,"US1HIKI0026",NA,NA,NA,NA,0.3,0.3,0.5,0,1.8,7.6,56.1,0.5,0.5,2,0.3,0,5.1,0.8,21.1,5.1,0,10.4,8.9,3.3,4.8,NA,0.5,0.5,0,0.5,0.3,1,0.3,0,2.3
1074,"MAKAHA RIDGE","RAWS","RAWS","KA",544.9824,22.13055556,-159.7152778,"USR0000HMAH","MKAH1","3286026C",NA,NA,0,0,0,0,0,4.3180000000001,2.03199999999993,0,0.762000000000057,0,3.30199999999991,0,0,0,0,0,0,1.77800000000002,0.254000000000019,0,0,0,NA,0,0,0,0.762000000000057,0.76199999999983,0,0,0
1076,"Kokee","NWS","HydroNet-UaNet","KA",1279.2456,22.1485996,-159.6448,NA,"KOKH1","1900E616",NA,NA,0,0,0,0,0,NA,0,0,0.253999999999962,0,0,0,10.16,0.762000000000057,0,0,0,17.0263801791666,0,0,0,0,0,2.03200000000004,0.253999999999962,2.54000000000008,0.253999999999962,0,0,0,0
1084,"KilohanaRainGafenrHanalei","USGS","USGS","KA",1219.2,22.15408333,-159.5946111,"USC00514610","KLOH1","DDCC972A",NA,NA,1.52399999999966,0.254000000000133,1.01600000000008,3.80999999999972,2.03199999999993,27.4814909747007,17.0746329157813,1.26999999999998,2.41094383589067,1.77800000000025,0.761999999999944,1.01599999999985,33.0200000000002,0.507999999999811,0,1.01600000000008,2.03200000000015,41.1479999999997,4.31501453202639,3.8817032913314,10.3455143999258,6.70718782337341,3.04799999999977,0.253999999999905,5.58800000000019,3.30199999999968,0.762000000000171,1.52399999999989,1.52400000000034,5.07999999999993,0.253999999999905
1094.2,"Kapahi","NWS","HydroNet-UaNet","KA",158.496,22.1021004,-159.3856,"USC00513171","KPIH1","15608488",NA,NA,0,0,0.254000000000815,3.04800000000068,6.85799999999836,15.1403675242895,45.9740000000002,0,1.69793800924752,2.03199999999924,0.254000000002634,0.761999999998807,7.8739999999998,NA,3.25480145955753,1.01599999999962,0,10.1599999999999,8.12800000000061,1.52399999999943,13.0227482298436,3.79634443524006,1.77800000000025,0,0,0.507999999997992,1.01600000000144,1.77800000000025,0,1.01599999999962,0
1094.3,"KAPAA 1.4 W","CoCoRaHS","CoCoRaHS","KA",139,22.0936,-159.3758,"US1HIKI0005",NA,NA,NA,NA,0.3,0.8,1,0.3,4.77858863484217,3.3,45.7,0.5,2.5,3,1.5,0.5,4.3,2.43341563283723,25.9,5.1,0.3,13.3069267051735,8.1,2.5,5.1,9.43445361440486,1,0.5,0,0.5,1.3,1.8,0.3,0.5,0.8
1097.4,"KAPAA 1.9 WSW","CoCoRaHS","CoCoRaHS","KA",157,22.0829,-159.3786,"US1HIKI0019",NA,NA,NA,NA,0.3,0.5,1.3,0,3.3,6.9,47.5,0.8,3.3,0.8,1.8,0.3,4.6,2.5,31.5,2.5,0.5,8.1,10.2,2.5,2.8,7.73827636732337,1,0,0,0.5,0.8,2.3,0.8,0.8,1.5
1111.4,"Anahola","HAWN FRUIT PACKERS","HydroNet-UaNet","KA",75.2856,22.1373997,-159.312,NA,"ANHH1","1560029C",NA,NA,0,0,0,0,0,NA,9.39800000000002,0,4.572,1.26999999999998,0.253999999999905,0.762000000000057,NA,0,0,0.761999999999944,0,4.82600000000002,1.52400000000011,0,2.79399999999987,0,0,0,0,0,2.28600000000006,0,0,0,0
1115.1,"PH Wainiha","NWS","HydroNet-UaNet","KA",35.052,22.1959991,-159.5563,NA,"WNHH1",NA,NA,NA,NA,NA,NA,NA,NA,NA,NA,NA,NA,3.048,1.524,0.254,6.096,NA,0,0.254,0.508,21.082,NA,NA,NA,NA,1.016,2.794,0,0.508,1.016,0,0.254,0.762,0
1116.1,"HANALEI 3.0 W, HI US","CoCoRaHs","CoCoRaHs","KA",10.457,22.2103,-159.5492,"US1HIKI0024",NA,NA,NA,NA,0.5,0,0,0.3,7.1,NA,54.1,0.3,0,NA,0.5,1.8,NA,NA,0,0.5,0,17.3,NA,2,NA,NA,2,2.5,NA,0,1.8,2.5,0.8,1.5,1.8
1117,"PRINCEVILLE RANCH 1117","PRINCEVILLE RANCH","COOP","KA",90,22.213196,-159.4722008,"USC00518165",NA,NA,NA,NA,0.5,0,0.5,0.8,6.1,4.91725446853524,32.3,0,1.5,3.3,2.8,3.3,3.8440046086973,1.64397107776286,0,1,0,14.5,7.90617607216609,0.5,2.5,6.74732850075695,1.3,0,0.8,0.5,0.5,3.3,0,2,1
1117.8,"Hanalei","NWS","HydroNet-UaNet","KA",4.8768,22.1982002,-159.4951,"USC00513386","HNIH1",NA,NA,NA,0,0,0,0.762,3.302,NA,NA,0,1.72178099071508,1.524,3.81,0.254,12.059865918138,0.257399069556721,0,0.762,1.778,13.97,NA,2.1094596332187,NA,7.112,3.302,0,0,1.778,2.032,0,0,1.27,0
1117.9,"PRINCEVILLE AIRPORT NEAR KILAUEA 4W","NWS","STATE","KA",88.497,22.2114,-159.443,NA,"PRIH1","B15952F6",NA,NA,0.254000000000133,0,0,0,3.30199999999991,NA,NA,0,6.35000000000014,2.03199999999993,4.06400000000008,0.253999999999678,4.31800000000021,0,0,1.52399999999989,0,14.2240000000002,6.34999999999991,0.253999999999905,NA,NA,0.508000000000038,0,0,0,1.01599999999985,0,0,1.01600000000008,0
1134.2,"KILAUEA 0.5 SE","CoCoRaHS","CoCoRaHS","KA",79,22.2057,-159.4048,"US1HIKI0006",NA,NA,NA,NA,0,0.3,0.3,0,4.69809409962637,4.97921758727233,25.1,0,2.19800812913027,5.3,6.1,1,3.89244353239318,2.8,0,2.55058159290548,0.8,7.26382490332477,6.48739716971804,2,3.14464461654111,5.70096711388493,0.5,1.5,0,0,0,1.8,0,1.5,1.8
1137,"KOLOKO RESERVOIR 113","KILAUEA SUGAR","COOP","KA",224,22.18140774,-159.3777576,"USC00514758",NA,NA,NA,NA,0,0,0.3,0,5.1,6.1,0,0.14754222802162,4.6,1.3,3.8,1.8,3.95348644787024,0,0,3.3,0,0,8.13135340292357,0.5,3.19396023896067,NA,1.8,0,0,0,3,0.5,0.3,1.3,1.18830407844141
1144.1,"ANAHOLA 2.8 N","CoCoRaHS","CoCoRaHS","KA",74,22.1869,-159.3236,"US1HIKI0021",NA,NA,NA,NA,0,0,0,0,1,2.97677441185017,23.6889998831591,0.3,0.5,1.3,0,0,2.59452214468477,0.5,0,2.8,1.3,4.73836795546132,2.3,0.3,0.8,3.8,0,0.5,0,0.3,3.6,2,0.8,1,0.3
1145,"MOLOAA 1145","LIHUE PLANTATION","COOP","KA",101,22.17972,-159.33194,"USC00516529",NA,NA,NA,NA,NA,NA,NA,4.8,NA,NA,NA,NA,NA,NA,NA,NA,NA,NA,NA,NA,NA,NA,NA,NA,NA,NA,NA,NA,NA,NA,NA,NA,NA,NA,NA
1146,"Moloaa Dairy","RAWS","RAWS","KA",85.344,22.18333333,-159.3375,"USR0000HMOL","MLDH1","AAB6D15A",NA,NA,0,0,0,0,0,0,0,0,0,0,0,0,0,0,0,0,0,0,0,0,0,0,0,0,0,0,0,0,0,0,0
