"SKN","Station.Name","Observer","Network","Island","ELEV.m.","LAT","LON","NCEI.id","NWS.id","NESDIS.id","SCAN.id","SMART_NODE_RF.id","X2021.06.01","X2021.06.02","X2021.06.03","X2021.06.04","X2021.06.05","X2021.06.06","X2021.06.07","X2021.06.08","X2021.06.09","X2021.06.10","X2021.06.11","X2021.06.12","X2021.06.13","X2021.06.14","X2021.06.15","X2021.06.16","X2021.06.17","X2021.06.18","X2021.06.19","X2021.06.20","X2021.06.21","X2021.06.22","X2021.06.23","X2021.06.24","X2021.06.25","X2021.06.26","X2021.06.27","X2021.06.28","X2021.06.29","X2021.06.30"
2.32,"SOUTH KONA 2 2.32","COOP","COOP","BI",647,19.10778,-155.78944,"USC00518652",NA,NA,NA,NA,NA,NA,0.8,0,0,0,NA,NA,0,NA,0,NA,NA,NA,0,0,0,7.9,6.6,5.3,NA,NA,NA,NA,NA,3.8,0,6.4,NA,NA
2.34,"MILOLII 2.34","COOP","COOP","BI",280,19.186302,-155.886763,"USC00516304",NA,NA,NA,NA,0,6.4,2,1.5,2,NA,4.3,NA,6.1,0.5,NA,1,0.3,2.8,0,0,0,1.3,2.3,NA,NA,8.9,NA,2.3,NA,1.3,NA,2,NA,3
2.36,"KAPUA 2.36","COOP","COOP","BI",533,19.14472,-155.84944,"USC00513376",NA,NA,NA,NA,NA,2,0.8,0,0,0,10.7,NA,NA,3.3,0,1.8,2,NA,0,0,0,0.5,2.5,1.8,5.1,2,NA,2.5,NA,NA,0,7.9,NA,5.1
3.22,"HAWAIIAN OCEAN VIEW 4.7 NNE","HAWAIIAN OCEAN VIEW 4.7 NNE","CoCoRaHS","BI",1273,19.135,-155.747,"US1HIHI0035",NA,NA,NA,NA,2.3,0,0.5,0.8,0,0,1.8,1,0.5,NA,0,0.5,0.3,1.3,0.5,0.3,0.5,0.8,8.6,NA,8.4,1,3.3,NA,NA,3,0.5,5.8,0.8,NA
3.9,"LOWER KAHUKU CS","LOWER KAHUKU CS","RAWS","BI",953.7192,19.10083333,-155.6697222,NA,"LKHH1","32D620C2",NA,NA,0.253999999999991,0.253999999999991,0.50800000000001,0,0.254000000000019,6.09599999999998,NA,5.58799999999999,0.253999999999991,4.31800000000001,0,0.507999999999981,NA,4.572,0,5.07999999999998,7.11200000000002,2.03200000000001,4.82599999999996,NA,NA,5.58800000000002,NA,4.06399999999996,2.03200000000004,3.30200000000002,1.01599999999996,4.06400000000002,10.922,8.12800000000004
4.14,"NAALEHU 4.7 WSW, HI US","CoCoRaHs","CoCoRaHs","BI",393.18,19.0421,-155.6371,"US1HIHI0057",NA,NA,NA,NA,NA,NA,NA,NA,NA,NA,NA,NA,NA,NA,NA,NA,NA,NA,NA,NA,NA,3,0,3.3,10.9,0,2.3,7.9,4.3,8.6,1.8,NA,2.5,10.2
4.15,"SOUTH POINT NEAR NAALEHU 12SSW","NWS","STATE","BI",295.78,18.9928,-155.668,NA,"SOPH1","B1507246",NA,NA,0.254,0,0,0,0,0,2.794,10.414,0,0,0,2.54,0.762,0,0,0,0,NA,0.254,4.826,NA,0,0,NA,1.778,0.254,0.254,NA,2.286,4.572
6.2,"NAALEHU 5.7 W","NAALEHU 5.7 W","CoCoRaHS","BI",679,19.0732,-155.6632,"US1HIHI0012",NA,NA,NA,NA,3.6,1.8,1.3,0.5,0.3,0.3,7.4,1.3,0,1,3.8,3.6,4.3,0.68255736736076,5.1,0,3.3,6.4,0.3,5.3,13.2416129267987,1.5,6.9,NA,3.8,6.9,1.5,3.8,7.4,14.2
9.2,"Nene Cabin","Nene Cabin","RAWS","BI",1991.7737,19.2564,-155.6144,NA,"NENH1","32D64524",NA,NA,0,0,0,0,0,10.4139709472656,1.524,1.27000000000004,0,0,0,0,0.762,0,0,0,1.524,0.507999999999981,3.81002808164064,6.096,NA,NA,1.524,2.54000000000002,NA,0.254000000000019,0,0,3.55596923828125,0.254000000000019
12.15,"SEA MOUNTAIN 12.15","SEA MOUNTAIN","COOP","BI",21,19.13310292,-155.5152744,"USC00518600",NA,NA,NA,NA,7.1,0,0,0,0,0,2.15917437519643,4.59184435850693,0,0,0,1.29550462511786,0,0,0,0,0,0,0,7.6,7.6,0,0,NA,13.2,6.4,0,0,0,0
14,"NAALEHU 14","KAU SUGAR","COOP","BI",206,19.06032754,-155.5855501,"USC00516588",NA,NA,NA,NA,5.42893790384511,0.5,0,0,0,0,2.5,10.2,0,0,0,1.5,0,0.5,0,0,0.805793075132543,2.3,0,7.4,9.7,0,1.77150681957857,NA,6.4,5.3,0.5,0.5,1.95137451504203,3.90068578722901
21,"Pahala","KAU SUGAR","HydroNet-UaNet","BI",346.8624,19.2042999,-155.4872,"USC00517421","PPLH1","B16084B2",NA,NA,0.253999999999962,0.254000000000019,0,0,0,0,0,0.254000000000019,0,0,0,1.524,0.253999999999962,0,0,2.286,0,1.01600000000002,2.63025255728054,NA,6.096,2.286,0.253999999999962,7.13080424547688,6.60399999999998,1.26999999999998,3.04800000000006,1.01599999999996,0.762,0.761999999999944
21.3,"PAHALA MAUKA 21.3","COOP","COOP","BI",332,19.20667,-155.48861,"USC00517437",NA,NA,NA,NA,4.92077691949087,0.311007519963705,0.5,0,0,0,1.44230624901942,0.5,0,0,0,1.93368393026161,0.178050030141633,0.192307499869257,0,0.3,0,0.3,0,9.34594823780936,9.96404714020471,4.8,0.3,NA,11.4260459047641,5.48204899738069,1.61670774100256,0.667107580246997,0.5,1.5
23,"KAHUKU","RAWS","RAWS","BI",1796.4912,19.23222222,-155.78,NA,"KRCH1","32639544",NA,NA,0,0.254000000000133,1.01599999999996,1.26999999999998,10.16,2.54000000000008,5.58799999999997,5.58799999999997,7.11199999999997,0.254000000000019,3.81000000000006,0,1.26999999999998,0.507999999999925,0.762000000000057,0.254000000000019,0.254000000000019,1.77800000000002,9.14400000000001,NA,NA,2.54000000000008,NA,3.55600000000004,1.524,3.81000000000006,2.28599999999994,0.508000000000038,1.524,NA
26.2,"KEALAKEKUA 26.2","GREENWELL ESTATE","COOP","BI",442,19.48975723,-155.9122125,"USC00513977",NA,NA,NA,NA,2.93108164402146,3.26174927338344,2.59290555150965,0.3,0.8,4.45524409891238,6.33113635108532,5.08203908364499,1.95704956403006,0,0.8,2.8,NA,3.04832490978185,3.12597186031856,1.31947121574333,0.27181243944862,0.5,35.1,4.45524409891238,NA,2.11037878369623,4.92421716195477,3.26174927338344,7.1,3,NA,0.234486531521616,0.54362487889724,2.11037878369539
27,"HONAUNAU 27","TANAKA S","COOP","BI",332,19.4403158,-155.8788789,"USC00511665",NA,NA,NA,NA,0,3,4.12265119060242,0,10.2,NA,NA,1.8,3.6,0,0,5.6,NA,NA,6.9,1,0.5,3,32.2832907051655,NA,NA,NA,NA,3,6.53023829078846,3,NA,NA,1,NA
27.6,"Honaunau No. 2","NWS","HydroNet-UaNet","BI",398.0688,19.4629002,-155.8824,NA,"HAUH1","15D12742",NA,NA,4.06400000000031,NA,1.01599999999871,3.04799999999977,3.30200000000059,3.04799999999977,3.30199999999968,7.6200000000008,0,1.27000000000044,3.04799999999977,10.9220000000005,0.253999999998996,1.77800000000025,0,0,5.07999999999993,NA,39.8780000000015,2.79399999999896,3.04800000000068,1.26999999999953,7.11200000000099,NA,0.507999999998901,1.27000000000044,8.88999999999942,0.50800000000072,0,1.77800000000025
29.12,"Kealakekua","NWS","HydroNet-UaNet","BI",537.972,19.5181007,-155.9159,NA,"KLEH1","81708572",NA,NA,6.35000000000036,8.34123550923504,0.762000000000626,3.55600000000049,5.33399999999983,4.82600000000002,6.85799999999927,8.89000000000033,0,0,4.31800000000021,4.853445334559,0.252349060221967,3.30199999999968,2.03200000000015,0.253999999999905,0,0.5416089324015,42.4179999999997,4.82600000000002,3.99392113435396,2.28600000000097,5.33399999999892,NA,2.53999999999996,5.33399999999983,8.83221710780319,0.253999999999905,0,2.28600000000006
34,"Kapapala Ranch","NWS","HydroNet-UaNet","BI",638.556,19.2754993,-155.4514,"USC00513300","KAYH1","B16097C4",NA,NA,0,0,0,0,0,0,0.507999999999811,0,0,0,0,4.57200000000012,1.01599999999962,0.253999999999905,0,3.8100000000004,0.253999999999905,0,4.31800000000021,NA,10.1599999999999,0.507999999999811,8.1279999999997,10.4252646118655,8.1279999999997,0.762000000000626,1.01599999999962,0.761999999999716,2.53999999999996,0.254000000000815
36.3,"KAPAPALA RANCH","KAPAPALA RANCH","RAWS","BI",1081,19.25811,-155.441781,NA,"KPRH1","AA10E258",NA,NA,0.254000000000133,0,0,0,0,0,0.507999999999925,0,0,0,0,2.81650467971152,0,0,0,0,0,0,2.79399999999998,NA,7.89951385717989,0,3.5203124775032,8.63599999999985,7.36550287343809,1.08464790996841,0,0.761999999999944,1.52400000000011,0
38.9,"KAELAKOMO","KAELAKOMO","RAWS","BI",29.5656,19.29277778,-155.1075,NA,"KMOH1","32807432",NA,NA,0,0,0,0,0,4.57200000000012,3.048,0.253999999999905,0,0,0,1.01599999999985,0,0,0,0.254000000000133,0,0,0,0,0,0,0,0,0,0,0,0,1.26999999999998,0.762000000000171
39,"Mauna Loa Observatory","NWS","ESRL/GMD","BI",3397,19.5362,-155.5763,"USC00516198","MOBH1",NA,NA,NA,0,0,0,0,NA,NA,NA,0,0,NA,NA,NA,NA,NA,0,0,2.8,NA,NA,NA,NA,0,0,0,0,NA,NA,NA,0,0
39.2,"MAUNA LOA 5 NNE","MAUNA LOA 5 NNE","USCRN","BI",3398,19.5354,-155.576,"USW00021514","MLBH1","CD07379A",NA,NA,0,0,0,0,0,0,0,0,0,0,0,0,0,0,0,2.5,11.5,0,0,2.1,0,0,0,0,0,0,0,0,0,0
43.3,"PUHE CS","PUHE CS","RAWS","BI",34.126,20.025,-155.8211111,NA,"PHRH1","32D61558",NA,NA,0.253999999999991,0.762,0,0,0.507999999999996,1.27000000000002,2.03199999999997,0,0,0,0,0,8.38200000000001,3.55600000000001,0,0,0,4.82599999999998,NA,0.762,3.048,0,0,0.762,0.507999999999981,1.77800000000002,0.762,1.01599999999999,0,0
47,"KEMOKU LAVA FLOW","RAWS","RAWS","BI",1706.88,19.47555556,-155.3627778,"USR0000HKEA","KKUH1","FA4447E8",NA,NA,0,0,0,0,0,0,0.253999999999905,0.253999999999905,0,0,0,0,0,0,0,0,0.254000000000133,0,0.253999999999905,0.254000000000133,3.048,0.253999999999905,0,0.508000000000038,0.508000000000038,0.253999999999905,0.254000000000133,0,0.253999999999905,0.253999999999905
48,"PALI 2","RAWS","RAWS","BI",847.344,19.3175,-155.2922222,"USR0000HPAL","PLIH1","FA900222",NA,NA,0,0,0,0,0,0,0,0,NA,0,0,0,0,0,NA,0,0,0,0,NA,0,0,0,2.79400634765625,NA,NA,0,NA,NA,0
54.2,"Glenwood","HELBUSH XL","HydroNet-UaNet","BI",802.2336,19.5076008,-155.1707,"USC00510744","GLNH1",NA,NA,NA,0.254,0,0,0,0,7.30462433983225,8.3400888859669,3.58801560821831,4.65903571847406,10.053456280519,0.390492890973987,4.2721746373221,2.53990010948146,0.719015091783448,0,3.97684842578757,14.4944121712238,0.559233960276015,1.11846792055203,1.64879275643057,3.51372858870392,4.35394789965577,2.1901068411174,3.56569849806374,1.59781131507433,2.5984790035149,4.07471166222201,0.159781131507432,7.3165159078403,2.64294485945473
55.6,"VOLCANO 4.0","COOP","COOP","BI",1194.8,19.441359,-155.2487445,"US1HIHI0071",NA,NA,NA,NA,NA,NA,NA,NA,0,0,8.1,NA,NA,NA,NA,NA,NA,NA,NA,NA,NA,NA,NA,NA,NA,NA,NA,NA,NA,NA,NA,NA,NA,NA
63,"KALOKO-HONOKOHAU","RAWS","RAWS","BI",7.62,19.67277778,-156.0202778,NA,"KHOH1","FA667668",NA,NA,5.58800000000002,0,0,5.33399999999997,0,0,0,1.01600000000002,NA,0,0,1.77800000000002,7.61999999999998,0,0,0,3.30200000000002,7.36599999999996,NA,NA,0,0,2.28599999999997,NA,0,0,NA,0.254000000000019,0,0
65.4,"PAHOA 2.1 E","PAHOA 2.1 E","CoCoRaHS","BI",137,19.5043,-154.9165,"US1HIHI0003",NA,NA,NA,NA,1.5,0.5,0.5,0,0.3,1.3,14,5.1,1.3,6.6,6.1,9.1,2.5,6.1,0.3,5.8,2.5,5.8,0.3,0.5,1.3,4.6,0.5,3.6,1.3,1.3,6.6,0.5,0.5,5.8
65.6,"KURTISTOWN 6.6 SSE, HI US","CoCoRaHs","CoCoRaHs","BI",339.63,19.5021,-155.029,"US1HIHI0055",NA,NA,NA,NA,7.1,0,1.3,0,0.5,5.8,11.2,5.1,6.4,5.8,8.42129093045202,10.4,1,2.3,0.3,1.8,18.5,10.9,0.3,0.8,3.8,5.6,7.4,7.1,3.6,0.3,5.3,3.6,0.3,9.7
67.7,"PAHOA 2.7 SSE","PAHOA 2.7 SSE","CoCoRaHS","BI",259,19.4654,-154.927,"US1HIHI0051",NA,NA,NA,NA,1.8,0.5,1,0,0.8,1.5,14.5,6.1,4.3,9.7,10.7,4.1,1.5,3.3,0.8,7.4,10.7,8.9,0,0.3,2.5,1.5,1.3,1.5,3,0.3,6.6,0.3,0.3,10.9
68.14,"HONOKOHAU HARBOR 68.14","COOP","COOP","BI",9,19.67944,-156.02333,"USC00511880",NA,NA,NA,NA,2.5,0.3,0,6.4,0,0.3,0,0,1,0,0,1.8,8.1,0,0,0,NA,4.8,NA,2,0,0,NA,3.6,0,0,NA,9.4,0,0
68.21,"KAILUA KONA KE AHOLE AIRPORT","KAILUA KONA KE AHOLE AIRPORT","NWS","BI",27,19.73556,-156.04889,"USW00021510","PHKO",NA,NA,NA,0.508,0,0,0,0,0,NA,0.3,NA,0,NA,0,0,NA,0,0,NA,NA,6.1,NA,0,0,0.5,NA,0,0,1.5,1.5,NA,0
69.25,"Palamanui","Hilo Forest Service","HIPPNET","BI",297,19.73756,-155.99582,NA,NA,NA,NA,NA,0.762,0,0,0.762,0,0,0,2.286,NA,0.762,0,8.636,0.508,0,0,0,1.524,0,0.254,0,0,0,7.112,NA,1.778,9.398,NA,0.508,0,0.254
69.27,"KALAOA 1.7","KALAOA 1.7","CoCoRaHS","BI",304.5,19.7238,-155.9926,"US1HIHI0006","","",NA,NA,0,0.5,0.5,3,0.5,0,0,0.5,3.8,6.4,0,8.6,1.3,0,0,0.5,1.5,0,0.5,2,0,0,0.8,4.8,0,4.6,4.8,NA,1.3,0
69.51,"Kailua Kona HI US E6648-EW6648 ","unknown","APRSWXNET","BI",164.05,19.61,-155.96,NA,"E6648",NA,NA,NA,NA,0.253999977111809,NA,NA,NA,0.254000008106232,1.01600004053116,3.80999973678589,NA,NA,NA,5.33399963378906,8.6359992365173,NA,1.26999998092651,0.254000027179722,NA,3.81000018119812,46.2279980182648,NA,2.53999996185303,NA,2.53999997806549,NA,1.77799999713898,3.55600017595291,NA,0.254000549316395,NA,3.81000018119812
70.16,"Waiaha Stream","NWS","HydroNet-UaNet","BI",460.5528,19.6331997,-155.9486,NA,"WIHH1","9321011E",NA,NA,7.15449167379711,9.39799999999991,0.85853900085631,1.26999999999998,0.254000000000019,0.508000000000038,7.72685100769962,4.82599999999991,0,1.524,4.865054338182,0.761999999999944,NA,3.72033567037393,3.048,0.508000000000038,0,NA,47.7920043809617,5.84199999999998,5.58799999999997,3.30200000000002,6.00977300598802,NA,1.77799999999991,6.00977300598904,NA,0.507999999999925,0.508000000000038,7.11199999999997
70.7,"Puuwaawaa","Hilo Forest Service","HIPPNET","BI",1659,19.72544,-155.87389,NA,NA,NA,NA,NA,NA,0,0,NA,0,1.778,6.096,3.302,0,0,0.254,NA,0.254,0,0,NA,0.254,NA,10.668,5.588,4.572,0,3.048,10.922,3.302,7.62,8.89,2.286,0.508,1.778
74.8,"KEALAKEKUA 4 74.8","COOP","COOP","BI",433,19.5106,-155.9217,"USC00513987",NA,NA,NA,NA,3.33497191291599,3.71120409965226,5.1,1.35883574474921,6.37702775464439,5.06915730763204,7.20353933189737,5.78232190797797,2.22672245979136,0,1.81526610432761,5.05670438798871,NA,3.4683707894321,0,3,0.309267008304355,2.14005095964397,42.2459258474901,5.06915730763204,NA,2.4011797773004,5.60275281369741,3.71120409965226,5.3731632845797,4.24244794372159,NA,0.266797753033164,0.61853401660871,2.40117977729944
75.1,"PTA KIPUKA ALALA","RAWS","RAWS","BI",1641.348,19.66694444,-155.7077778,"USR0000HPTK","PKAH1","32666200",NA,NA,0,0,0,0,0,0,0,0.253999999999991,0,0,0,0,0,0.254000000000019,0,0,0,0,0.253999999999991,0.253999999999991,0.762000000000029,0,0,1.01599999999999,2.03200000000001,1.52399999999997,0,0.762,0.254000000000019,NA
79.6,"Kulani NWR","NWS","HydroNet-UaNet","BI",1623.3648,19.5543995,-155.3089,NA,"KNWH1",NA,NA,NA,0.254,0,0,0,0,4.31671152235373,4.95276403502972,3.3435008448232,1.46184282306703,3.06338994993687,0.0744101132335158,2.03457091567797,2.47578567234051,0.503049562533337,0,4.28290746236891,8.54844591974051,0.516948930531263,1.66233865942208,2.31887511762293,3.62312903520653,1.54980506065087,2.76291968564408,2.5424527009713,1.36926423608452,0.237476951346075,2.00088208945041,0.111788791674074,5.3416782890589,1.83194923009604
83,"QuarryRainGageatSaddleRd","USGS","USGS","BI",1286.256,19.68586111,-155.2942222,NA,"SDQH1","DDF6B6E4",NA,NA,0.254000000000133,0.253999999999905,0,0,0,9.65200000000004,8.88999999999993,7.22803530921565,3.81,0.507999999999999,0,2.032,4.826,2.286,0,6.35,6.604,1.778,3.556,4.826,2.54,2.286,4.064,5.842,5.08,0.507999999999996,2.54000000000001,0.507999999999996,8.09136745048486,7.366
85.2,"Waiakea Uka","NWS","HydroNet-UaNet","BI",303.8856,19.6585999,-155.1277,"USC00519084","WKAH1",NA,NA,NA,0.508,0.254,0,0,0,5.80375177820403,8.05051866822405,3.29233192402347,3.66344089613477,12.9494485232605,0.455903593142881,5.41559037649813,2.79198289797166,0,0,4.77670091426768,13.5492160021371,0,0,0.120087015781713,5.191107607832,4.21369914424094,2.46322464108979,1.5857955027348,0,2.23772796268442,4.56730249453253,0,5.26706887581193,0.396834168228914
87,"HILO INTERNATIONAL AIRPORT 87","NWS","HydroNet-UaNet","BI",11.6,19.7191,-155.053,"USW00021504","PHTO",NA,NA,NA,0.254,0.254,0.254,0,0,7.1,7.83571587327835,1.8,4.8,9.7,0,4.3,1,0,0,2.3,8.1,0,0,0.3,1.3,0.5,0.3,1.5,0,3.8,4.6,0,3.8,0.3
87.5,"HILO 5 S","HILO 5 S","USCRN","BI",189,19.645,-155.0827,"USW00021515",NA,NA,NA,NA,0.9,0,0,0,0,5.8,6,3.5,1.5,11.9,0.3,6.4,5.7,0,0,9.1,13.3887987788839,0,0,0,8.3,2.7,5,0,0,0,4.8,0,5.39710058598871,0.3
87.8,"HILO 0.4 SW","HILO 0.4 SW","CoCoRaHS","BI",107,19.692,-155.0925,"US1HIHI0039",NA,NA,NA,NA,2.5,0,0,0,0,1.5,9.1,3.8,5.1,7.6,6.96199586317494,6.1,2.3,1.3,1.01972088489516,2.51883545180507,8.84014170996251,8.27215753961593,0.0951552011174327,0.62423053039798,2.19578062029583,3.88694267903804,5.82125630480413,6.44486749131209,3.78341325172637,2.19359990797643,5.01200562230152,1.27027431393388,0.739622432837879,9.64362763382021
87.9,"IPIF","Hilo Forest Service","HIPPNET","BI",111,19.69748,-155.0954,NA,NA,NA,NA,NA,1.524,0,0,0,0,3.048,8.89,4.064,3.556,14.732,1.016,4.572,1.524,0,0,2.54,23.114,0,0,0,5.588,8.89,2.032,2.794,0,2.032,3.302,0,9.906,0.508
88.8,"Waiakea Exp Farm","UNIV HAWAII","STATE","BI",183,19.644743,-155.0805636,NA,"WEXH1","CD07410A",NA,NA,1.27,0,NA,NA,NA,NA,NA,NA,NA,NA,NA,NA,NA,NA,NA,NA,NA,NA,NA,NA,NA,NA,NA,NA,NA,NA,NA,NA,NA,NA
89.11,"Piihonua","NWS","HydroNet-UaNet","BI",296.8752,19.7098007,-155.1395,"USC00518053","PIIH1",NA,NA,NA,0.508,0,0,0,0,6.27898895816392,8.06490952146766,3.63471272322972,3.70805316747659,9.95476128932036,0.333519433965412,4.73295243088868,0.99825340830175,0.250764522166715,0,1.81614243741881,12.6116784698347,1.00305808866551,0,0.11177759888115,2.31872648196141,3.1045910453326,2.15802133872689,1.47606643781063,0,2.08288845375872,4.17706621514725,0,4.90261422725394,4.41615193160859
89.13,"KAIWIKI HOMESTEAD 89.11, HI US","COOP","COOP","BI",379.67,19.7509,-155.1362,"USC00512802",NA,NA,NA,NA,0.8,0.3,1.8,0.3,0.5,0.3,12.7,11.2504223822317,4.8,10.9,9.1,12.2,0.3,5.6,3.6,3.3,11.4736791967128,10.7364887338016,0,0.3,2,5.04488896428369,8.1,8.36483672849987,4.91051742643211,5.6,6.4,0.5,0.959960914598285,12.5165289644974
91.11,"PUNA MACADAMIA O 91.11","COOP","COOP","BI",244,19.61861,-155.08667,"USC00518315",NA,NA,NA,NA,0.554600348687791,0,0,0,0.0965998565858727,2.67047807372456,7.7690992353768,0,0,6.73834179449257,3.30907478087461,7.22554163027604,0.52212679051449,0,0,1.79427022938093,9.47376401175335,5.32298476919422,0.0579599139515236,0.309835260859052,0,9.4,4.1,0,0,2.22058953727015,2.79673670790636,0,0,0
91.15,"Mountain View","Mountain View","HydroNet-UaNet","BI",346.5576,19.5674992,-155.0841,NA,"MTVH1",NA,NA,NA,4.572,0,0,NA,NA,NA,NA,NA,NA,NA,NA,NA,NA,NA,NA,NA,NA,NA,NA,NA,NA,NA,NA,NA,NA,NA,NA,NA,NA,NA
91.9,"Pahoa Beacon","NWS","HydroNet-UaNet","BI",187.1472,19.5149994,-154.9644,NA,"PHAH1",NA,NA,NA,0.508,0.762,0,0,0.0810655928965947,3.34298426289012,7.66841743530254,2.81634402440598,2.77663791493172,8.71724813796994,1.92200367358067,5.00514777645541,1.39178254477186,1.64833372223076,0,2.03810531340295,13.6481058230416,1.72448514519625,0.0810655928965947,0.226828624576936,2.06532232363121,3.79048333719722,0.774168527276764,2.12223763757805,0.260299644557924,2.06040197763148,4.07923303287901,0.135109321494325,3.83005986470807,3.87274930256851
92,"KEAAU 92","PU SUGAR","COOP","BI",87,19.62918887,-155.0333418,"USC00513872",NA,NA,NA,NA,0.458931577530044,0.123440277698987,0.5,0,0.0908731076972837,2.51216358050263,9.65690967485556,3.6,1.79286095606028,6.33887131134295,3.11290222955425,6.79718838045675,0.491173442104254,2.39516216289945,0,2,15.2,5.3,0.0545238646183702,0.291467234254448,0.5,3.44134040868416,2.32901432900337,2.8,0.8,2.08894587739298,2.63093719846877,0.0545238646183702,0,11.2
92.5,"KiholoRainGage","USGS","USGS","BI",283.96692,19.82580556,-155.8925833,NA,"KIRH1","DD60236E",NA,NA,2.032,0,0,0,0,0,0,0,0,0,0,0,0,0,0,0.762000000000004,0,0,0,0,0,0,0,0,0,0,0.253999999999998,2.032,1.27,0
93.12,"PUUANAHULU","RAWS","RAWS","BI",830.58,19.83277778,-155.7697222,NA,"PULH1","48703040",NA,NA,0,0,0,0,0,0,0,0,0,0,0,0,0.253999999999991,0,0,0.253999999999991,0,0,0,0.507999999999981,0.762000000000029,0,0,0,4.82599999999999,6.34999999999999,0.253999999999991,11.176,0.253999999999991,0
93.13,"Mamalahoa","Hilo Forest Service","HIPPNET","BI",636,19.80256,-155.85062,NA,NA,NA,NA,NA,0,0,0,0,0,10.668,10.668,0.254,0,0,0,0,0,0,0,0,0,0,0,0,0.762,0.254,0.508,0,0.762,0,NA,3.302,0.508,0
93.61,"PAHOA 4.7 NE, HI US","CoCoRaHs","CoCoRaHs","BI",53.95,19.5473,-154.8988,"US1HIHI0065",NA,NA,NA,NA,3.3,0,0.3,0,0,1.5,6.4,3,0.8,8.6,3.8,11.9,3.6,4.3,1.5,5.3,4.6,2.3,0,1.3,0.5,4.6,0.3,5.8,0.3,0,3.6,0.8,0.3,7.9
93.62,"PAHOA 5.7 NE","COOP","COOP","BI",27.4,19.5565,-154.8865,"US1HIHI0070",NA,NA,NA,NA,0.5,0,0.5,0,0,1.3,5.6,2,0.5,8.4,0.3,10.9,3.8,2.8,0.5,5.3,5.3,0,0,0.5,0.5,3.6,0,8.6,0,0,0,1,0,6.1
93.63,"HAWAIIAN PARADISE PARK 2.4 E","COOP","COOP","BI",10.1,19.594568,-154.936038,"US1HIHI0072",NA,NA,NA,NA,2.8,1,0.5,0,0,1.5,NA,2,1.5,3.8,3.6,12.2,0.5,1,0.5,4.8,6.1,NA,NA,NA,NA,1.3,6.9,3.8,0.3,0,6.1,0.3,0,12.2
93.64,"KEAAU 5.5","COOP","COOP","BI",18,19.613803,-154.955684,"US1HIHI0068",NA,NA,NA,NA,2,2,1.3,2.5,0,2.5,10.7,1.3,2.5,4.3,2.3,12.7,0,1.5,0,2.5,11.2,1.5,0,0,0,5.6,0.5,2.3,0.5,1.3,10.7,0.8,0,17.3
93.8,"KONA VILLAGE 93.8","KO VILLAGE RES","COOP","BI",12,19.8314012,-155.9858256,"USC00514765",NA,NA,NA,NA,0,0,0,0,0,0,0,0,0,0,0,0,0,0,0,0,0,0,0,0,0,0,0,0,0,0,0,0,0,0
94,"KAUPULEHU LAVA FLOW","RAWS","RAWS","BI",372.1608,19.80333333,-155.9180556,NA,"KPLH1","4870E628",NA,NA,2.79399999999998,0,0,0,0,0,0,0,0,0,0,0,0,0,0,0,0.762,0,2.286,0,0,0,0,0,0,0,0,0.50800000000001,1.01600000000002,0
94.5,"PUU WAAWAA","RAWS","RAWS","BI",708.9648,19.795,-155.8452778,"USR0000HPUW","PWWH1","487046D0",NA,NA,0,0,0,0,0,8.63599999999997,5.84200000000004,0,0,0,0,0,0,0,0.253999999999962,0,0,0,0,0,2.79400000000004,0,1.01599999999996,0.762000000000057,3.80999999999995,0.254000000000019,NA,3.81,0.762000000000057,0.253999999999905
95.11,"WAIKOLOA VILLAGE 2.7 ENE","WAIKOLOA VILLAGE 2.7 ENE","CoCoRaHS","BI",265,19.9465,-155.7883,"US1HIHI0047",NA,NA,NA,NA,0,0,0,0,0,0,1.3,0,0,0,0,0,0,0,0,0,0,0,NA,0,0,0,0,0.5,0,0,8.4,0.3,9.1,0.3
95.6,"WAIKOLOA","RAWS","RAWS","BI",297.7896,19.92416667,-155.7936111,NA,"WKVH1","4870C0C4",NA,NA,0,0,0,0,0,1.016,0,0,0,0,0,0,0,0,0,0,0,0,8.636,0,0,0,0,0,0,4.572,0.508000000000003,7.62,0.253999999999998,0
95.8,"WAIKOLOA 95.8","BOISE CASCADE","COOP","BI",268,19.93389178,-155.7877744,"USC00519142",NA,NA,NA,NA,0,0,0,0,0,0,0.938763637794117,0,0,0,0,0,0,0,0,0,0,0,NA,0,0,0,0,0,0,0,6.06585735190045,0.216637762567873,6.57134546455882,0.216637762567873
95.9,"WAIKOLOA BEACH RT 95.9","COOP","COOP","BI",24,19.91278,-155.87778,"USC00519144",NA,NA,NA,NA,0,0,0,0,0,0,0.5,0,0,0,0,0,0,0,0,0,0.5,0,0,0,0,0,0,0,0,0,0,0,5.3,0
98.1,"PUUKOHOLA HEIAU 98.1","ROSE FUJIMORI","COOP","BI",43,20.02666416,-155.81944,"USC00518422",NA,NA,NA,NA,0,0,0,0,0,0,0,0,0,0,0,0,0,0,0,0,0,0,NA,6.4,0,0,4.1,3.8,0,0,NA,0,0,0
98.2,"PUHO CS","PUHO CS","RAWS","BI",29.5656,19.42194444,-155.9075,NA,"PERH1","32D6803A",NA,NA,0,NA,0,0,NA,NA,NA,NA,0,0,0,NA,NA,NA,NA,0,0,NA,NA,1.778,NA,NA,2.286,0.761999999999999,NA,5.588,2.032,0,0,NA
98.91,"HOLUALOA 0.95","COOP","COOP","BI",527.3,19.6225861,-155.927558,"US1HIHI0067",NA,NA,NA,NA,0.8,5.1,NA,0.8,5.6,1.3,2,NA,7.9,3,2,5.1,3.8,3,NA,3.3,2,NA,29.2,NA,6.9,7.6,5.1,NA,8.4,2.5,NA,NA,2.8,NA
99,"PTA WEST","RAWS","RAWS","BI",1307.592,19.77166667,-155.7022222,"USR0000HPTW","PKWH1","32667176",NA,NA,0,NA,0,0,0,0,0,0,0,0,0,0,0.254000000000019,0.253999999999991,0,0,0,0,3.81000000000003,0,1.01599999999999,0,0,0.507999999999981,4.06400000000002,6.096,0,3.04799999999997,NA,0
100.3,"Waikii","Waikii","HydroNet-UaNet","BI",1417.0152,19.8614006,-155.6506,NA,"WHIH1",NA,NA,NA,0,0,NA,NA,NA,NA,NA,NA,NA,NA,NA,NA,NA,NA,NA,NA,NA,NA,NA,NA,NA,NA,NA,NA,NA,NA,NA,NA,NA,NA
102.8,"AUHMOA","RAWS","RAWS","BI",2001.9264,19.83638889,-155.6130556,NA,"AHMH1","4870D3B2",NA,NA,0,0,0,0,0,1.27,0.253999999999991,0.253999999999991,0,0,0,0,0,0.762000000000015,0,0,0,0,0,1.01600000000001,7.61999999999998,0,0,2.286,0.50800000000001,0.253999999999991,0,NA,1.01600000000002,0.253999999999991
107.4,"PTA EAST","RAWS","RAWS","BI",1959.864,19.68277778,-155.5452778,"USR0000HPTA","PTAH1","3266D18E",NA,NA,0,0,0,0,0,0,0,0,0,0,0,0,0,0,0,0,8.636,0,0.762000000000029,0,0,0,0,0.50800000000001,0.253999999999991,0,0,NA,0.253999999999991,0
109,"PTA RANGE 17","RAWS","RAWS","BI",1734.312,19.74583333,-155.6261111,NA,NA,"3279630C",NA,NA,0,0,0,0,0,0,0,0,0,0,0,NA,0,0,0,0,0,0,0,0,0.762,0.253999999999991,0,0.254000000000005,0.762,0.253999999999991,0,NA,0.254000000000005,0
111,"HALEPOHAKU 111","STATE DIV FTRY","COOP","BI",2811,19.76029046,-155.4555569,"USC00511065",NA,NA,NA,NA,4.3,0.3,0.3,NA,NA,NA,0,0,NA,0.3,NA,NA,NA,0.3,NA,NA,NA,NA,NA,0.5,0.3,0.3,0.5,0,NA,NA,0.3,NA,0,NA
113.2,"PUU MALI","RAWS","RAWS","BI",2165,19.92666,-155.44,NA,"PMLH1","3181742E",NA,NA,0,0,0,0,0,0.253999999999962,0,0,0,0,0,0,0,NA,0,0,0,0,0,0,0,0,0.254000000000019,8.63599999999997,2.79399999999998,0.508000000000038,0,0,1.524,NA
127.5,"Laupahoehoe","Hilo Forest Service","HIPPNET","BI",1145,19.93217,-155.29129,NA,NA,NA,NA,NA,0,0,0.762,0,0,3.302,6.858,9.906,2.032,0.254,0.254,3.81,5.588,2.286,0,0.762,3.81,1.524,0.254,0.254,1.27,1.27,2.54,3.81,1.27,0.254,3.048,0.254,5.588,5.842
129,"HAKALAU","RAWS","RAWS","BI",1950.72,19.82111111,-155.3305556,"USR0000HHAK","HKUH1","8374D370",NA,NA,0,0,0,0,0,1.52400000000011,3.04799999999977,2.7940000000001,0.508000000000038,0,0,0,0,0,0,1.26999999999998,1.77800000000002,0.254000000000133,1.77800000000002,2.53999999999974,2.03200000000015,0.762000000000171,1.26999999999975,2.54000000000019,0.507999999999811,0.254000000000133,0.507999999999811,0,2.7940000000001,2.09618340534001
132.2,"Spencer","Hilo Forest Service","HIPPNET","BI",454,19.96358,-155.25014,NA,NA,NA,NA,NA,0,0,0,0,0,3.81,9.09015175761956,6.35,1.87932270341678,5.588,0,4.572,5.588,5.588,0,0.254,5.588,5.588,0,0,0.508,1.016,4.318,0.508,0,0.254,3.81,0,18.288,7.10940206734937
132.6,"Laupahoehoe, HI US F9660-FW9660","unknown","APRSWXNET","BI",334,19.9672,-155.2367,NA,"F9660",NA,NA,NA,0,0,0,0,0,3.55599999427795,NA,5.5880008397827,1.26999986171722,8.89000049196014,NA,4.06400012969971,2.79400004005432,1.77799996757507,NA,0.508000016212463,5.84199990463257,5.8420000253418,NA,0,0,1.77799999713898,1.52400005149839,NA,0,0,3.0479998588562,NA,28.1940002441406,13.4620021934509
133.3,"Laupahoehoe","NWS","HydroNet-UaNet","BI",499.872,19.9792,-155.2372,NA,"LPHH1","B159741A",NA,NA,0,0,0,0,0,5.33400000000074,5.58799999999974,3.30199999999968,1.52400000000034,3.04799999999977,0,3.30199999999968,0.253999999999905,0.50800000000072,0,0.253999999999905,4.0639999999994,2.03200000000015,0,0,0,0,2.79399999999987,0,0,0,2.79400000000078,0,6.71322766455486,8.38199999999961
138.2,"KAHUNA FALLS 138.2","COOP","COOP","BI",424,19.86139,-155.16361,"USC00512595",NA,NA,NA,NA,1.7351398767411,0,0.5,0.3,0.5,0.5,13.2,16,7.1,5.8,10.2,10.7,0.3,5.3,1.3,0.3,16.345372803136,7.1,0.3,0,0.5,5.1,1.8,8.6,5.3,2.5,0.3,0.3,1.3,16.8979105394536
140.1,"PAPAIKOU MAUKA NO 2 140","MAU KEA SUGAR","COOP","BI",427,19.78695738,-155.1388973,"USC00517724",NA,NA,NA,NA,1,0.5,0,0,0,0.8,13.7,8.4,3,9.1,5.1,14.2,0.5,5.8,0,3,5.3,7.9,0,0.8,1.3,2,3.8,5.1,3.3,1.8,4.6,0,0.8,11.4
140.6,"Papaikou Well","NWS","HydroNet-UaNet","BI",345.6432,19.7884998,-155.1313,NA,"PPWH1",NA,NA,NA,NA,0,0,NA,NA,NA,NA,NA,NA,NA,NA,NA,NA,NA,NA,NA,NA,NA,NA,NA,NA,NA,NA,NA,NA,NA,NA,NA,NA,NA
144.1,"PAPAIKOU 144.1","MAU KEA SUGAR","COOP","BI",61,19.78362447,-155.0922318,"USC00517711",NA,NA,NA,NA,0.70487032093955,0,0,0,0.086363278617355,2.38749052093666,9.17765884721814,7.4,3,6.02428730625919,2.95841585450274,6.45985912434665,0.466797602775975,2.27629562199307,1.8,0.8,8.46983991301065,4.75891407032471,0.051817967170413,0.277002367340621,0.463412326099784,0,0.3,2.08361905828723,3,1.98527616582499,2.50036966990306,0.051817967170413,1.3,7.6
147.1,"MIDDLE PEN 147.1","KAHUA RANCH","COOP","BI",421,20.10027112,-155.8322151,"USC00516270",NA,NA,NA,NA,0,0,0,0,NA,NA,0,0,NA,0,0,0,NA,0,0,0,0,0,NA,NA,0,NA,NA,0,NA,NA,NA,0,NA,NA
147.2,"KOHALA RANCH","KOHALA RANCH","RAWS","BI",328.8792,20.08305556,-155.8325,NA,"KHRH1","4870B654",NA,NA,NA,NA,NA,NA,0,0,0.50800000000001,0,NA,0,0,0,0,0,0,0.253999999999991,0,0,NA,0,0,NA,9.65199999999996,0.254000000000048,3.30199999999996,NA,1.27000000000004,0,0,0
160.3,"Upolu Airport","NWS","HydroNet-UaNet","BI",34,20.265,-155.8582,NA,"UPLH1","B15017A0",NA,NA,0.254000000000019,0,0,0,0,1.524,0.507999999999981,0.762,0,0,0.253999999999962,1.27000000000004,2.79399999999998,0.762000000000057,0,0,0.507999999999981,0,0,0,NA,0,0,0,0,NA,0,0,0,0.761999999999944
175.1,"KOHALA MISSION 175.1","BOND ESTATE","COOP","BI",163,20.2252605,-155.7922137,"USC00514680",NA,NA,NA,NA,0,0,0,0,NA,NA,NA,0,0,0,NA,NA,NA,NA,NA,NA,NA,NA,NA,NA,NA,NA,NA,NA,NA,NA,NA,NA,NA,NA
176.3,"Kahua Ranch HQ","KAHUA RANCH","HydroNet-UaNet","BI",987.552,20.1249008,-155.7884,NA,"KASH1","15D293C2",NA,NA,0,0,0,0,0,0.507999999999925,2.28600000000006,3.55600000000004,0.254000000000019,1.77800000000002,0,1.26999999999987,0.762000000000057,0.254000000000019,0,1.26999999999998,0.254000000000019,0.394556346332972,0,0,4.06399999999996,0.253999999999905,0,0,0.254000000000133,9.65199999999993,0.762000000000057,0,0.762000000000057,0.761999999999944
178.12,"PONOHOLO RCH 178.11","PONOHOLO RCH 178.11","COOP","BI",762,20.12554592,-155.7774941,"USC00518101",NA,NA,NA,NA,NA,NA,NA,NA,NA,NA,1.3,NA,NA,2.8,NA,NA,NA,8.1,NA,NA,3.3,NA,0,NA,NA,0,NA,NA,3,NA,2.3,NA,NA,NA
185.7,"KawainuiRainGagenearKamuela","USGS","USGS","BI",1237.488,20.08533333,-155.6811667,NA,"KWSH1","DDF6A592",NA,NA,0.507999999999981,0.762,0.253999999999962,0.254000000000019,0.508000000000038,NA,NA,11.176,1.01600000000002,NA,1.27000000000004,NA,NA,9.65199999999999,0.254000000000076,NA,NA,3.30199999999999,0.254000000000005,0.762,NA,2.54000000000001,1.77799999999999,2.032,0.254000000000005,0,4.82600000000001,2.286,NA,NA
192.7,"Kamuela Upper","NWS","HydroNet-UaNet","BI",948.5376,20.0319996,-155.6667,"USC00513080","KUUH1","817075F6",NA,NA,0,0,0,0,0,5.07999999999993,1.77800000000002,2.53999999999996,0,1.70009979928684,0,4.57200000000012,5.07999999999993,3.048,0,1.26999999999998,6.34999999999991,0.508000000000038,0,0,0.762000000000171,0.253999999999905,0,0,2.03199999999993,4.82600000000002,0.254000000000133,0,4.57199999999989,6.35564366368246
192.9,"PUUKAPU HMSTD 192.9","COOP","COOP","BI",916,20.0375,-155.6347,"USC00518386",NA,NA,NA,NA,1.3,0,0,0,0,0,2.5,2,1.3,0,4.6,3.8,0.3,5.6,2.5,1,6.1,6.6,0,0,0.3,3,0,1,0,0,0,0.3,5.17464933397753,9.7
201.3,"Kamuela 1","NWS","HydroNet-UaNet","BI",877.824,20.0394993,-155.6084,NA,"KMUH1","81706680",NA,NA,0.253999999999905,0,0,0,0,1.01599999999962,0.50800000000072,0.507999999999811,0,2.28600000000006,0,2.03199999999924,2.79400000000078,2.79399999999987,0,1.77799999999934,4.06400000000122,0.761999999999716,0,0,2.03199999999924,0,0.253999999999905,0.50800000000072,0,0,0,0,3.30199999999968,8.1279999999997
208.1,"Honokaa HI US E6549-AH6AE ","unknown","APRSWXNET","BI",310.01,20.101,-155.531,NA,"E6549",NA,NA,NA,NA,0,0,0,0,0.76199996471405,1.77800000185303,NA,0,0,1.01600003242493,1.77799991035461,2.03200006771087,NA,NA,0,2.53999996185303,0.50799993515014,NA,0,0,0.508000016212463,NA,0,0,0,0,0,10.1599998474121,NA
215.5,"Honokaa","NWS","HydroNet-UaNet","BI",591.9216,20.0656,-155.49,NA,"HNKH1","B15047DC",NA,NA,0,0,0,0,0,0,1.01600000000053,0.731507890131227,0,0.761999999999716,0.50800000000072,4.82599999999911,7.6200000000008,6.60399999999936,0.889764474868298,0,3.30200000000059,1.52399999999943,0,0,0,0,0.254000000000815,0.286625652697079,0,0,1.01599999999962,0,1.69861816209699,18.5420000000004
216.6,"HONOKAA 2.5 SSW","HONOKAA 2.5 SSW","CoCoRaHS","BI",757,20.0417,-155.4777,"US1HIHI0033",NA,NA,NA,NA,0.5,0,0,0,0,0,0,3,0.3,0,0.5,3,2,7.4,6.9,0.3,0.8,1.8,0,0,0.3,4.3,0.5,3,0.5,0.3,0.3,2,0.3,11.4
216.8,"KALOPA 216.8","COOP","COOP","BI",396,20.06111,-155.43528,"USC00512982",NA,NA,NA,NA,0,0,0,0,0,1.48182810130931,0,1.5,0.3,0,0,1.92870838440664,3,2.5,3,0,0,1.3,0,0,0,0.127977106496126,0,0.962022076243522,0.846403924892493,0,0,0,0.161068271881446,10.9
216.9,"HONOKAA 2.7 ESE","HONOKAA 2.7 ESE","CoCoRaHS","BI",333,20.0606,-155.43,"US1HIHI0034",NA,NA,NA,NA,0,0,0,0,0,0,0,2.3,0,0,0.170169339486103,1.8,0.8,2,2.8,0,0.272270943177765,1.5,0,0,0,0,0,1.87345734473053,0,0,0,0,0,10.7
217.2,"PAAUHAU MAUKA 217.2","COOP","COOP","BI",341,20.07306,-155.44722,"USC00517209",NA,NA,NA,NA,0,0,0,0,0,0,0,0,0,0,0,1.28951334689,1.27638440861261,2.85266882541019,0,0,0,0.718451610361195,0,0,0,0,0,0,0,0,0,0,0,5.27693608035794
221,"PAAUILO 221","HAMAKUA MILL","COOP","BI",244,20.03860487,-155.3688913,"USC00517312",NA,NA,NA,NA,0,0,0,0,0,4.6,0,1,0,0,0.3,3,2,3.8,1.75971670861064,0,0,2.3,0.3,0,0,0,0,1,0.8,0,0,0,0.5,6.4
221.7,"PAAUILO 2.4 SW","PAAUILO 2.4 SW","CoCoRaHS","BI",613,20.019,-155.3988,"US1HIHI0050",NA,NA,NA,NA,0.5,0,0,0,0,0,0,0.5,0.5,0,0,2,2.22842500954043,5.6,3.3,0,0,0.5,0,0,0,0.5,0,2.5,2.3,0,0,1.5,0,5.8
249.1,"MAKENA GOLF CRS 249.1","MAKE GC","COOP","MA",30,20.6420893,-156.4388486,"USC00515842",NA,NA,NA,NA,NA,NA,NA,NA,NA,NA,NA,NA,NA,0,0,0,NA,NA,0,NA,0,0,0,0,NA,NA,NA,NA,NA,NA,NA,NA,NA,NA
250,"ULUPALAKUA RANCH 250","ULUPALAKUA RANCH","COOP","MA",579,20.648174,-156.398497,"USC00518760",NA,NA,NA,NA,0,0,0,0,NA,NA,NA,0.5,0,0,NA,NA,NA,NA,0,0,0,0,NA,NA,NA,0,0,0,0,NA,NA,NA,0,0
250.2,"Ulupalakua Ranch","NWS","HydroNet-UaNet","MA",581.5584,20.6487999,-156.3981,NA,"ULUH1","8170531A",NA,NA,0,0,0,0,0,0,0.508000000000152,0.253999999999905,0,0,0,0,1.77800000000002,0.253999999999905,0,0,0,0,0,NA,0.254000000000019,0,0,0,0,0,2.28599999999983,0,0,0
255,"KepuniGulchRainGage","USGS","USGS","MA",225.552,20.6195,-156.2518889,NA,"KPNH1","F000D4EA",NA,NA,0,0,0,0,0,0,0,0,0,0,0,0,0,0,0,0,0,0,0,0,0,0,0,0,0,5.08,0,0,0,0
267,"KULA HOSPITAL 267","KULA SATORIUM","COOP","MA",916,20.70013977,-156.3555187,"USC00515004",NA,NA,NA,NA,0,0,0,0,0,0,0,0,0,0,0,0,0,0,0,0,0,0,0,0,NA,4.6,0,0.3,0,0,0,0,0,0
267.8,"KULA 1","KULA 1","RAWS","MA",1998.5736,20.68305556,-156.3216667,NA,"KLFH1","AA10F12E",NA,NA,0,0,0,0,0,0.508000000000152,0.507999999999925,0,0,0,0,0,0,0,0,0,0,0,1.01599999999996,6.85800000000006,1.77800000000002,0,2.53999999999996,1.26999999999998,0,0,1.524,0.254000000000019,0,0
279,"POHAKAU PALAHA HN-161","HaleNet","HaleNet","MA",2460,20.73061111,-156.1413056,NA,NA,NA,NA,NA,0,0,0.254,0.508,0,0.254,2.54,1.016,0,0.254,0,0.254,0,0,0.254,0.254,0,0,0,0.762,0.762,0,0,2.286,0,0,0,0,0.762,2.032
302,"MAALAEA BAY","NWS","STATE","MA",302,20.7903,-156.514,NA,"P36","15DF05C6",NA,NA,NA,NA,NA,NA,0,0,0,NA,NA,0,0,0,0,0,0,NA,0,0,0,0,0,NA,NA,NA,NA,0,0,0,NA,0
311.2,"Kealia Pond NWR","Kealia Pond NWR","RAWS","MA",3.6576,20.7975,-156.4772222,NA,"KPDH1","32B2C438",NA,NA,NA,NA,NA,NA,0,0,0,NA,NA,0,0,0,0,0,0,NA,0,0,0,0,0,NA,NA,NA,NA,0,0,0,NA,NA
311.5,"Kihei 2","NWS","HydroNet-UaNet","MA",54.5592,20.7061005,-156.437,NA,"KHIH1","93202508",NA,NA,0,0,0,0,0,0,0,0,0,NA,NA,NA,0,0,NA,0,NA,NA,NA,4.82600000000002,0,0,0,0,0,0,0,0,0,0
324.7,"Kula Branch Stn","NWS","HydroNet-UaNet","MA",944.88,20.7577991,-156.3217,"USC00515000","KBSH1","93220610",NA,NA,0,0,0,NA,0,2.54000000000019,0.253999999999905,NA,0,NA,NA,0,0,0,NA,0,NA,0,0,0,0,0,0,0,0,0,0,0,NA,0
329,"LOWER KAHUKU CS","BD OF A&F","STATE","MA",1149,20.80179746,-156.2805211,NA,"LKHH1",NA,NA,NA,0.254,0.254,0.508,4.25781310209317e-09,NA,6.09599304472656,NA,3.8099975585937,0.253997802734375,4.31800842558593,2.28515597555656e-08,0.508010864257813,NA,1.26997375488281,NA,NA,4.06399545117187,1.52400207519531,4.3179931640625,NA,0.761963234375049,NA,NA,0.7619931445312,1.7779541015625,NA,NA,4.06402588984375,6.8579713125,6.60400390625
337,"south rim","south rim","CraterNet","MA",2898,20.703948,-156.241101,NA,NA,NA,NA,NA,0,0,0.2,0,0,0,0,0,0,0,0,0,0,0,0,0,0,0,2.8,0,0,0,0,0,0,0,0,0,0,0
337.1,"Sliding Sands","Sliding Sands","CraterNet","MA",2697,20.714563,-156.2394,NA,NA,NA,NA,NA,0,0,0.4,0,0,0,0,0,0,0,0,0,0,0,0,0,0,0,0,0,0,0,0,0,0,0,0,0,0,0
337.12,"Puu Alaea","Puu Alaea","CraterNet","MA",2282,20.73782363,-156.1453106,NA,NA,NA,NA,NA,0,0,2,0.4,0.4,0.2,0.6,0.2,0.2,1,0,0.6,0,0,0,0,0,0,0.2,0.2,0.8,0,0,5,0,0,0,0,0.4,0.4
337.13,"Paliku","Paliku","CraterNet","MA",1927,20.71236611,-156.1437572,NA,NA,NA,NA,NA,0,0,0.4,0,0,1.2,6,4.6,2.8,1.4,0.6,1.4,0.2,0,0.8,0.2,0.4,0,0,0.4,0.6,0,0,1.2,0,0,0,0,1.6,1.6
337.2,"Puu o Pele","Puu o Pele","CraterNet","MA",2424,20.709651,-156.224485,NA,NA,NA,NA,NA,0,0,0,0,0,0,0,0,0,0,0,0,0,0,0,0,0,0,0,0,0,0,0,0,0,0,0,0,0,0
337.3,"Lava lake","Lava lake","CraterNet","MA",2270,20.718443,-156.212261,NA,NA,NA,NA,NA,0,0,0,0,0,0,0,0,0,0,0,0,0,0,0,0,0,0,0,0,0,0,0,0,0,0,0,0,0,0
337.4,"Silversword loop","Silversword loop","CraterNet","MA",2186,20.731704,-156.205387,NA,NA,NA,NA,NA,0,0,0,0,0,0,0,0,0,0,0,0,0,0,0,0,0,0,0,0,0,0,0,0,0,0,0,0,0,0
337.5,"Leleiwi","Leleiwi","CraterNet","MA",2722,20.74337371,-156.2288651,NA,NA,NA,NA,NA,0,0,3.4,0.6,0,0,0,0,0,0,0,0,0,0,0,0,3.6,0,0,0.4,NA,0,0,NA,0,0,0,0,0,0
337.6,"Puu Nole","Puu Nole","CraterNet","MA",2261,20.717807,-156.188007,NA,NA,NA,NA,NA,0,0,0,0,0,0,0,0,0,0,0,0,0,0,0,0,0,0,0,0,0,0,0,0,0,0,0,0,0,0
337.7,"Hanakauhi","Hanakauhi","CraterNet","MA",2645,20.73567887,-156.1754875,NA,NA,NA,NA,NA,0,0,0.2,0.2,0,0,0,0,0,0,0,0,0,0,0,0,3.4,0,0,0.8,0,0,0,0,0,0,0,0,0,0
337.8,"Aloha Park","Aloha Park","CraterNet","MA",2455,20.73555054,-156.1587809,NA,NA,NA,NA,NA,0,0,1.4,0.4,0,0,0,0,0,0,0,0,0,0,0,0,1.4,0,0,5,0.2,0,0,0.8,0,0,0,0,0,0
337.9,"Laie","Laie","CraterNet","MA",2051,20.7229056,-156.1544823,NA,NA,NA,NA,NA,0,0,0.2,0,0,0,0.2,0,0,0,0,0,0,0,0,0,0,0,0,0,0,NA,NA,NA,NA,NA,NA,NA,NA,NA
338,"HALEAKALA RANGER STATION 338","HAWAII T PARK","COOP","MA",2143,20.75846738,-156.2455233,"USC00511004",NA,NA,NA,NA,0,0,NA,0.3,0,0,0,0,0,0,0,0,0,0,0,0,0,0,0,0,0.3,0.8,0,0,1.3,0,0,0,0,0
339.4,"PARK HQ HN-151","HaleNet","HaleNet","MA",2120,20.75980556,-156.2481667,NA,NA,NA,NA,NA,0,0,0.254,0,0,0,0,0,0,0,0,0,0,0,0,0,0,0,0,0.508,0.762,0,0,0.762,0,0,0,0,0,0
339.5,"NENE NEST HN-152","HaleNet","HaleNet","MA",2590,20.73819444,-156.2458333,NA,NA,NA,NA,NA,0,0,0.508,0,0,0,0,0,0,0,0,0,0,0,0,0,0,0,0,0,0,0,0,0,0,0,0,0,0,0
339.6,"SUMMIT HN-153","HaleNet","HaleNet","MA",2990,20.71036111,-156.25675,NA,NA,NA,NA,NA,0,0,0,0,0,0,0,0,0,0,0,0,0,0,0,0,0,0,0,0,0,0,0,0,0,0,0,0,0,0
348.5,"WestWailuaikiRainGagenrKeanae","USGS","USGS","MA",472.44,20.81436111,-156.1429722,NA,"WWKH1","DD5E710A",NA,NA,0,0.508000000000266,0,0.253999999999905,0.508000000000266,5.84199999999964,6.44657158440189,7.8739999999998,3.73637128288279,7.37012546762934,1.52399999999989,10.1599999999999,NA,0.762000000000171,0,2.28600000000006,2.94976680227599,1.01600000000008,1.26999999999998,1.26999999999998,2.28600000000006,1.77799999999979,0.25400000000036,6.85799999999972,0.25400000000036,0,0.589953360455232,0,NA,3.30873673809533
353,"Hana AP","NWS","HydroNet-UaNet","MA",19,20.7946,-156.0157,"USC00511125","HNAH1","B150314C",NA,NA,0,0.508000000000266,0.253999999999451,0,1.27000000000044,0.762000000000171,4.31799999999976,0.508000000000266,1.01599999999962,2.53999999999996,2.28600000000006,1.01599999999962,2.79400000000032,0,0,0,3.8100000000004,0.507999999999356,0,2.53999999999996,1.52399999999989,1.27000000000044,1.27000000000044,1.01599999999962,0,4.57200000000012,1.01599999999962,0,2.53999999999996,0.253999999999905
361.1,"Lahainaluna","NWS","HydroNet-UaNet","MA",238.0488,20.8909,-156.6556,NA,"LAHH1","81700366",NA,NA,NA,NA,0,0,0,0,0,0,0,0,0,1.01600000000008,0,0,NA,0,0,NA,0,0,NA,0,0,0,0,0,0,0,NA,0
380,"PuuKukuiRainGageatalt","BALDWIN PKRS","USGS","MA",1759,20.89083333,-156.6008333,"USC00514887","PKKH1","DD73556E",NA,NA,0.253999999999905,0.253999999999905,4.31800000000021,0,0.507999999998901,3.38221652281615,6.56534266474644,4.82600000000002,3.80520986600038,7.11200000000008,3.30200000000059,6.18322936616452,0,5.84199999999964,0,1.26999999999953,3.00411305210567,0,1.52400000000034,4.3179999999993,0.254000000000815,3.8100000000004,4.0639999999994,0.253999999999905,0,0,6.09600000000046,0,0.761999999999716,3.36969661914438
386.6,"Wailuku","NWS","HydroNet-UaNet","MA",146.9136,20.8831005,-156.5124,NA,"WUKH1","9321D776",NA,NA,NA,NA,0,0,0,0,0,0,0,0,0,1.26999999999953,0,0,0,NA,0,0,0,0.25400000000036,NA,0,NA,0,0,0,0,0,0,0
387.6,"Maui HI US AR427-AH6GR ","unknown","APRSWXNET","MA",233.76,20.875,-156.516,NA,"AR427",NA,NA,NA,0,0,NA,NA,NA,0,0,NA,NA,NA,NA,NA,NA,NA,NA,0,NA,NA,NA,0.508000016212463,1.62124630387339e-08,NA,0,NA,NA,NA,NA,NA,NA,NA
390,"WAIKAPU 390","WAILUKU SUGAR","COOP","MA",130,20.8491,-156.5092,"USC00519376",NA,NA,NA,NA,0.551007656930131,0,0,0,NA,NA,NA,0,0.344379785581332,0.551007656930131,0,NA,NA,0.5,0,0,NA,0.344379785581332,NA,NA,NA,0,0,0,0,NA,NA,NA,0,0
390.4,"Waikapu Country Club","NWS","HydroNet-UaNet","MA",145.9992,20.8346996,-156.5135,NA,"WCCH1","9320E016",NA,NA,NA,NA,NA,NA,NA,NA,NA,NA,NA,NA,0,0,0,NA,0,NA,0,0,NA,NA,NA,NA,NA,NA,NA,NA,NA,NA,NA,NA
398,"KAHULUI AIRPORT","NOAA-NWS","NWS","MA",12,20.8887,-156.41,"USW00022516","PHOG",NA,NA,NA,0,NA,NA,NA,NA,0,NA,0,0,0,NA,0,0,0,NA,NA,0,0,NA,0,NA,NA,NA,NA,NA,NA,NA,0,0,NA
426.6,"Pukalani","NWS","HydroNet-UaNet","MA",495.9096,20.8355007,-156.3307,NA,"PUKH1","15D2B52E",NA,NA,NA,NA,NA,NA,NA,0,NA,NA,0,0,NA,0,NA,0,NA,NA,0,0,NA,NA,NA,NA,NA,NA,NA,NA,NA,NA,0,NA
432.4,"Makawao AP834-KH6HHG","unknown","APRSWXNET","MA",473.95,20.855,-156.315,NA,"AP834",NA,NA,NA,NA,0,0,0,0,NA,0,NA,NA,1.5239999294281,2.94280999568741e-08,1.5239999294281,2.94280999568741e-08,NA,8.10623201896732e-09,0,NA,NA,NA,NA,NA,0,0,0,0,0,0,NA,NA,NA
457.1,"PUUKOLII 457.1","COOP","COOP","MA",128,20.93194,-156.67611,"USC00518407",NA,NA,NA,NA,0,0,0,0.18888055952895,0,0.18888055952895,0.491089454775271,1.13401760117014,NA,0.491089454775271,NA,0.5,0.18888055952895,2.11546226672425,0,0,0.491089454775271,0,0,0,0,0,0,0,0,0,0,0,0,0
462.4,"KAPALUA W.MAUI AIRPORT 462.4","KAPALUA W.MAUI AIRPORT 462.4","NWS","MA",73,20.9625,-156.6753,"USC00513317",NA,NA,NA,NA,0,0,0,0.0901317888588577,0,0.270395366576573,0.471899446437337,1.3,0.455535570692002,0.780439994715062,0,1.48539512299938,0.270395366576573,1.73993680886842,0,0,0.70302795309909,0.283626135480036,0,0,0,0,0,0,0,0,0,0.07524091867987,0,0
465.1,"Mahinahina","NWS","HydroNet-UaNet","MA",223.1136,20.9552002,-156.6562,NA,"MABH1","190524C8",NA,NA,0,0,NA,NA,NA,NA,NA,NA,NA,NA,NA,NA,NA,NA,NA,NA,NA,NA,NA,NA,NA,NA,NA,NA,NA,NA,NA,NA,NA,NA
466,"MAHINAHINA 466","PIONEER MILL","COOP","MA",257,20.94678808,-156.6555055,"USC00515715",NA,NA,NA,NA,0,0,0,0.5,0,0.5,1.3,3.6,1.11305041402864,1.3,0,3.8,0.5,5.6,0,0,1.3,0,0,0,0,0,0,0,0,0,0,0,0,0
482,"WAIHEE VALLEY 482","WAILUKU SUGAR","COOP","MA",91,20.94012106,-156.5255102,"USC00519315",NA,NA,NA,NA,0.8,0,0,0,0,NA,0.389415776814928,0,0.5,0.8,0,2.7259104377045,NA,0.728048653293282,0,0,NA,0.5,NA,0,0,0,0,0,0,0,0,0.24338486050933,0,0
482.5,"Kahakuloa","Kahakuloa","HydroNet-UaNet","MA",335.28,20.9540997,-156.5342,NA,"KHKH1","781001B6",NA,NA,0.25400000000036,0,0.507999999999811,0,0,0.253999999999905,0,0,1.52400000000034,1.01599999999962,0,1.01600000000008,0.762000000000171,NA,0,0,1.01599999999962,0,0,NA,0,0,0,0,0,0,0,0,0,0.508000000000266
486.7,"HAIKU 3.2 SE","HAIKU 3.2 SE","CoCoRaHS","MA",416,20.92011989,-156.3071849,"US1HIMI0001",NA,NA,NA,NA,0,0,0,0,0,0.898431901552905,0.8,1,2,3.8,0,5.6,0.898431901552905,1.5,0,0,2.33592294403755,1.8,0,0,0,0,0,0,0,0,0,0.5,NA,0.3
489,"Haiku","NWS","HydroNet-UaNet","MA",99.3648,20.9288998,-156.3225,"USC00510822","AIKH1","50A30568",NA,NA,0,0,0,0,0,0,1.27000000000001,1.77799999999999,1.524,1.77799999999999,0,2.79400000000001,3.81,2.286,0,0,2.53999999999999,0,0,0,0,0,0,0,0,0,1.77800000000002,NA,0,0.761999999999972
499.9,"KANELOA","RAWS","RAWS","KO",248.412,20.52222222,-156.5658333,"USR0000HKAN","KAOH1","32793370",NA,NA,0,0,0,0,0,0,0,0,0,0,0,0.50800000000001,0,0,0,0,0,0,2.03199999999998,0,0,0.253999999999991,0,0,0,0,1.27000000000001,0,0,0.253999999999991
524,"MOLOKAI KAUNAKAKAI MOLOKAI AIRPORT","ALOHA AIRLINES","NWS","MO",141,21.15514996,-157.0924625,"USW00022534","PHMK",NA,NA,NA,0,0,0,0,0,0,0,0,0,0,0.5,0,0.5,0,0,0,0,0,0,0.8,0,0,0,0,0,0,0,0,0,0
536.5,"Kaunakakai Mauka","MOLOKAI GEN HOSP","HydroNet-UaNet","MO",28.3464,21.0946007,-157.0174,NA,"KACH1","50A0F2E2",NA,NA,NA,NA,NA,NA,0,0,NA,NA,NA,NA,0,0,0,0,NA,NA,NA,NA,0,0,0,NA,NA,NA,NA,0,0,0,NA,NA
536.6,"KAUNAKAKAI 3.5 ESE","KAUNAKAKAI 3.5 ESE","CoCoRaHS","MO",13,21.068,-156.963,"US1HIMI0002",NA,NA,NA,NA,NA,NA,0,NA,NA,NA,0,NA,0,0,NA,NA,NA,NA,0,NA,NA,0,NA,0.5,NA,NA,0,NA,NA,NA,NA,NA,NA,0
538,"MOLOKAI 1","RAWS","RAWS","MO",833.0184,21.115,-156.9475,"USR0000HMLK","MLKH1","487016AC",NA,NA,0,0,2.79399999999998,0.254000000000133,0,0,0.254000000000019,0.253999999999905,0,0.762000000000057,0.507999999999925,0.254000000000019,0.762000000000057,0.254000000000019,0,0,0,0,2.03199999999993,1.01599999999996,0,0,0,0,0,0,0,NA,NA,0
541.2,"Puu ALII WEST","Puu ALII WEST","RAWS","MO",1159.764,21.14083333,-156.9022222,NA,"PAFH1","32D6062E",NA,NA,0,0.508000000000038,11.1759999999999,0.254000000000019,NA,2.28600000000006,4.572,3.80999999999995,4.82599999999991,9.14400000000001,4.06400000000008,4.82600000000002,NA,2.03199999999993,0.508000000000038,0,3.81000000000006,0,NA,0,1.01599999999996,0.507999999999811,2.03200000000015,0.76199999999983,NA,0,0.762000000000057,0,NA,1.2700000000001
542.11,"Kamalo","NWS","HydroNet-UaNet","MO",8.8392,21.052,-156.871,"USC00513045","KMLH1",NA,NA,NA,0,0,NA,NA,NA,NA,NA,NA,NA,NA,NA,NA,NA,NA,NA,NA,NA,NA,NA,NA,NA,NA,NA,NA,NA,NA,NA,NA,NA,NA
550.3,"MAUNALOA 3.2 NNW","MAUNALOA 3.2 NNW","CoCoRaHS","MO",93,21.1804,-157.2319,"US1HIMI0006",NA,NA,NA,NA,0,0,0,0,0,0,0,NA,0,0,1.8,0,1.5,0,0,0,NA,0,0,0,0,0,0,0,0.3,0,0,1.3,0,0
553,"MAKAPULAPAI","RAWS","RAWS","MO",22.86,21.20333333,-156.9661111,"USR0000HMAK","MKPH1","FA9024CE",NA,NA,NA,NA,1.27001953125,NA,NA,NA,0.761962890625,NA,0.2540283203125,1.26995849640625,3.55596923828125,NA,NA,NA,NA,NA,NA,NA,NA,0,0.25396728515625,NA,0.50799560546875,NA,NA,NA,NA,NA,NA,NA
563,"KALAUPAPA 563","CIVIL AIR PATROL","COOP","MO",9,21.19014673,-156.9824624,"USC00512896",NA,NA,NA,NA,NA,NA,0,2,NA,NA,NA,NA,0,NA,NA,NA,NA,NA,NA,NA,0.3,0.3,NA,NA,NA,0.8,0,NA,NA,NA,NA,NA,NA,0
672.1,"Lanai City","NWS","HydroNet-UaNet","LA",498.0432,20.8262997,-156.9182,"USC00515286","LANH1",NA,NA,NA,0,0.508,NA,NA,NA,NA,NA,NA,NA,NA,NA,NA,NA,NA,NA,NA,NA,NA,NA,NA,NA,NA,NA,NA,NA,NA,NA,NA,NA,NA
679,"LANAI 1","RAWS","RAWS","LA",387.096,20.87333333,-157.0063889,"USR0000HLAN","LNIH1","48702336",NA,NA,0,0,0,0,0,0,0,0,0,0,0,0.507999999999981,0,0,0,0,0.762,0,0,0,0,0,0,0.254000000000019,0,0,0,0,0,0
702.7,"Kapolei-Kalaeloa AP","NWS","NWS","OA",15,21.31667,-158.06667,"USW00022551","PHJR",NA,NA,NA,0,0,0,0,0,0,0,0,0,0,0.542012723314872,0,0,0,0,0,0,0,4.8,0,0,0,0.5,0,0,0,0,0,0,0
703,"HONOLULU INTERNATIONAL AIRPORT","USWB","NWS","OA",2.1,21.324,-157.9294,"USW00022521","PHNL",NA,NA,NA,0,0,0,NA,0,0.3,0,0,0,0,NA,NA,0,0,0,0,1,0,0,0,0,0,0.3,0,0,0,0,0,0,0
703.1,"HONOLULU FIRE STATION 703.1, HI US","COOP","COOP","OA",1,21.3287,-157.9298,"USC00511925",NA,NA,NA,NA,0,0,0,3.67974309448099,0,0,0.3,0.347683194854988,0,0.183408949565658,0.3,0.5,0,0,0,0,1.5,0.98564547173598,0,0,0.591387283041588,0.3,0.8,0,0,0,0,0,0,0.0848444023920596
705,"BERETANIA PUMP STN 705","BWS","COOP","OA",6,21.305169,-157.8522571,"USC00510211",NA,NA,NA,NA,0,0,3.8,0,0,0,0,0,0,0.3,2.5,0.8,0,0,0,0,1.5,0,0,0.8,0.3,0,1,0,0,0,0,0,0,0
707.2,"EWA KALAELOA AIRPORT","LYDECKER RC","STATE","OA",14,21.30489073,-157.8305905,"USW00022551",NA,NA,NA,NA,0,0,0,0,0,0,0,0,0,0,0,0,0,0,0,0,0,0,4.8,0,0,0,0.5,0,0,0,0,0,0,0
707.5,"HONOLULU 2.0 SW","CoCoRaHS","CoCoRaHS","OA",12,21.3004,-157.8293,"US1HIHN0023",NA,NA,NA,NA,0,0,0,8.32348151885754,0,0,0,0.3,0,0.3,5.1,1.3,0,0,0,0,1.8,0,0,2.3,0,0,0,0.8,0,0,0,0,0,0.3
712.1,"MANOA 712.1","BEAUMONT MRS J","COOP","OA",61,21.31044568,-157.8147571,"USC00516122",NA,NA,NA,NA,0,0.5,0,15.0257671771633,0,0,1,2.5,0,0.8,8.4,7.6,0.5,0.5,0,0.3,7.6,0,0,6.6,0.8,1.3,0.5,5.3,0,0,0,0,0,0
713,"UNIV OF HAWAII 713","UH MET DEPT","COOP","OA",24,21.29933514,-157.8167017,"USC00518815",NA,NA,NA,NA,0,0,0,3.80355780953008,0,0.3,0,0.3,0,0,4.3,1.8,0.3,0,0,0,1.15721728639731,0,0,1.3,0.3,0,0.8,0.5,0,0,0,0,0,0.3
715,"WAIALAE KAHALA","TINKER SPENCER","COOP","OA",15,21.27433592,-157.7880917,"USC00519185",NA,NA,NA,NA,0,0,0,6.6,0,0,0,0,0,0.3,1.3,2.5,0,0,0,0,1,0,0,0.3,0.5,0,0,0,0,0,0,0,0,0
718,"PALOLO VALLEY 718","BWS","COOP","OA",302,21.32183297,-157.7717015,"USC00517664",NA,NA,NA,NA,0,1.96208237986535,4.8,0,0.3,5.67262314445952,4.4390003530679,3.23325574184329,1.3004161334362,2.36791699727168,26.8474171401528,7.42362830237234,0.652192662377304,1.01793733465594,1.64832541810661,1.3197405476602,6.92403852217936,0.107052162159267,1.73207243102365,4.61495430390683,7.90093910155846,1.88875564942455,7.93399304205688,0.243337287213776,0,0,0.933695903483612,0.178420270265445,1.51106300024134,5.51937598029685
720.6,"HONOLULU 2.7 SSE","CoCoRaHS","CoCoRaHS","OA",113,21.285,-157.7816,"US1HIHN0010",NA,NA,NA,NA,0,0,0,9.4,0,0,0,0,0,0,2.8,1,0,0,0,0,2.3,0,0,3.3,2,0,0,0,0,0,0,0,0,0
721,"WILHELMINA RISE 721","BWS","COOP","OA",335,21.29766804,-157.7853133,"USC00519980",NA,NA,NA,NA,0,0,8.9,3,0,0,0,0.5,0.3,1,9.7,2.5,0,0,0,0,4.8,0,1.5,1.3,1,0,3,0,0,0,0,0,0.5,0.3
721.4,"Palolo Fire Stn","NWS","HydroNet-UaNet","OA",59.436,21.2996006,-157.7944,"USC00517662","PFSH1","19014414",NA,NA,0,0,8.38199999999961,1.52400000000034,0,0,0.253999999999451,1.01600000000053,0,1.01599999999962,7.62000000000035,2.2859999999996,0.508000000000266,0,0,0,5.33399999999983,0,3.04800000000023,2.53999999999996,1.52399999999989,0,1.77799999999979,0,0,0,0,0,0.25400000000036,0.507999999999811
721.5,"Honolulu HI US AU956-KH6CTR ","unknown","APRSWXNET","OA",111.96,21.298,-157.792,NA,"AU956",NA,NA,NA,NA,0,3.55599999427795,1.52399992942811,NA,0,0,0,0,0.508000016212463,3.81000007820129,1.52399956130982,0,NA,0,0,1.5239999294281,NA,0.76199996471405,0.50800002092651,0.508000016212463,0.254000024318695,0.76200003242493,NA,0,0,0,0,NA,NA
723.4,"PAIKO DRIVE 723.4","GRUBB DL","COOP","OA",3,21.28172556,-157.7282194,"USC00517540",NA,NA,NA,NA,0,0,2.5,0,0.3,0,0,0.3,0,0,2.8,0,0,0,0,0,0,0,1.3,0,0,0,0,2.5,0,0,0,0,0,0.3
723.8,"Niu Valley","NWS","HydroNet-UaNet","OA",19.812,21.2896996,-157.7332,"USC00516865","NIUH1","1900D38C",NA,NA,0,0,7.87400000000002,2.03200000000004,0,0.253999999999905,0,0,0.254000000000019,0.762000000000057,4.06399999999996,1.01599999999996,0,0.254000000000019,0,0,0.254000000000019,0,0,2.03200000000004,0.253999999999905,1.77800000000002,1.524,1.01600000000008,0,0,0,0,0,0
724.21,"Kamehame","NWS","HydroNet-UaNet","OA",242.316,21.3085995,-157.6791,NA,"KMHH1","190046EE",NA,NA,0,0,4.31800000000021,0.761999999999716,0,0,0,0,0,0.25400000000036,3.30199999999968,0.508000000000266,0,0,0,0,0,0,0,1.52399999999989,0,0,0.253999999999905,0,0,0,0,0,0,0
724.22,"Hawaii Kai Golf Course","NWS","HydroNet-UaNet","OA",8.8392,21.2991009,-157.6644,NA,"HAJH1",NA,NA,NA,0,0,NA,NA,NA,NA,NA,NA,NA,NA,NA,NA,NA,NA,NA,NA,NA,NA,NA,NA,NA,NA,NA,NA,NA,NA,NA,NA,NA,NA
728.2,"PALEHUA","RAWS","RAWS","OA",722.376,21.385,-158.1041667,NA,"PLHH1","4870F55E",NA,NA,0,0,0,0,0,0.254000000000019,0,0,0.253999999999962,2.54000000000002,4.82599999999996,0.507999999999981,0.508000000000038,0,0.253999999999962,0.254000000000076,0,0,0,0,1.01600000000008,0,2.03199999999993,0,0,0,0,0,0,0
734.5,"HONOULIULI STREAM TRIBUTARY NEAR WAIPAHU 4WNW","NWS","STATE","OA",195.72,21.4019,-158.067,NA,"HOUH1","DD7ED01C",NA,NA,0,0,0,0,0,0,0,0,0,0,0,0,0,0,0,0,0,0,0,0,0,0,0,0,0,0,0,0,0,0
740.5,"Kunia","NWS","HydroNet-UaNet","OA",85.0392,21.3869991,-158.0358,NA,"KUNH1",NA,NA,NA,0,0,0,0,0,0.130332220722666,0.0763285164204487,0.0763285164204424,0.0482420746786606,0.482420746786682,2.40717263824761,0.501173249953605,0.172812665777789,0,0.0482420746786606,0.0482420746786823,0.0763285164204466,0,0,0,0.515567253266895,0.305314065681777,0.385936597429329,0,0,0,0,0,0,0
742.4,"HONOULIULI PHB","FWS","RAWS","OA",1.524,21.35666667,-158.0205556,NA,"HOFH1","327BF39A",NA,NA,0,0,0,0,0,0.254000000000133,0,0,0,0,1.77799999999979,1.01600000000008,0,0,0,0,0,0,0,0,0.761999999999716,0,0,0,0,0,0,0,0,0
752.6,"WAIAWA PHB","FWS","RAWS","OA",1.524,21.38694444,-157.9811111,NA,"WWFH1","3274C092",NA,NA,0,0,0,0,0,0,0.254000000000012,0.253999999999991,0,0,3.048,0.253999999999991,0.254000000000005,0,0,0,0.254000000000005,0,0,0,0.254000000000005,1.01599999999999,0,0,0,0,0,0,0,0
764.6,"AIEA HEIGHTS 764.6","G FOWLER","COOP","OA",238,21.39488776,-157.91031,"USC00510123",NA,NA,NA,NA,0,0,0,10.9,0.3,0.3,1.5,4.8,0,1,9.9,5.3,0.5,0.8,0,3.6,1.8,0.3,0,0.8,1.8,2,1,0,0,0,0,0,0,0.8
764.7,"AIEA 0.7 ENE","CoCoRaHS","CoCoRaHS","OA",175,21.393,-157.9186,"US1HIHN0014",NA,NA,NA,NA,0,0.3,0,11.2,0,0.3,1,3.6,0.3,0,7.1,4.1,0.5,0,0,2.5,0.5,0.8,0,0.5,1.3,0.8,0.5,0,0,0,0,0,0,0.3
770,"MOANALUA 770","ROXBURGH J","COOP","OA",6,21.34794527,-157.8950332,"USC00516395",NA,NA,NA,NA,0,0,0,5.6,0,0,0.3,0.8,0,0.3,4.6,2,0,0,0,0,1,3,0,0,1.8,0,1,0,0,0,0,0,0,0
772.3,"MoanaluaRGNo.1atalt1000","USGS","USGS","OA",304.8,21.39338889,-157.8401111,NA,"MOGH1","1689664A",NA,NA,0.762,1.524,13.716,4.59709363186843,0,7.36124519188996,5.69945162363962,2.4307675178831,0.778806214937907,2.77903121825996,30.2383211441522,6.14797280334805,1.00348560016326,2.24711327096537,1.1957816112684,2.33169488997833,7.49626577213246,2.22026376206806,1.8725251188411,4.18076312645043,8.09427623431182,0.681708243341804,7.02169319789858,2.28461923343235,0,0,2.92542888777886,0,0.735994978889672,6.42023839808723
772.5,"Moanalua Stream","USGS","HydroNet-UaNet","OA",72.2376,21.3736,-157.8801,"USC00516400","MOAH1","1900B66A",NA,NA,0,0.254000000000019,6.4602223975946,1.76343878658208,0,2.28599999999994,7.11199999999997,4.06399999999996,0,3.048,10.8131328040741,10.1600000000001,0.254000000000019,0.254000000000019,3.30199999999991,1.01600000000008,4.06399999999996,0,0.762000000000057,3.81000000000006,1.77799999999991,0.254000000000019,1.26999999999998,0.254000000000019,0,0,0,0,1.01599999999996,0.761999999999944
773,"KAPALAMA 773","KAMEHAMEHA SCH","COOP","OA",188,21.33933391,-157.8567005,"USC00513268",NA,NA,NA,NA,0.3,0.3,0,8.9,0.07551682368763,0.214105182604319,0.512986462439476,0.3,4.1,3,6.55465760085133,3.0683429986571,0.264449731729406,0.201378196500347,0.3,2.5,0.8,0.3,0,0.801927751805999,1.40410336505043,0.3,0.3,0.3,0.3,0,0,0.3,0.3,0.5
775,"NUUANU RES 5 775","BWS","COOP","OA",125,21.339125,-157.835905,"USC00516933",NA,NA,NA,NA,0,0.3,10.4,2,0,7.9,5.1,2.8,0.3,2.3,10.2,8.79634984186773,0,0.8,2,0.8,4.1,0,2,2.5,3,0,3.3,0,0,0,0.3,0,0.8,2.5
777,"KALIHI RES SITE 777","BWS","COOP","OA",277,21.37516437,-157.8222555,"USC00512960",NA,NA,NA,NA,0.8,3.3,13.7,3.3,0,1,1.8,2.8,0.3,0.5,31.5,6.9,0.3,0.3,0.3,0,6.9,0.3,0,3.6,6.4,4.3,9.1,0.3,0,0,0.8,0.5,1.3,4.6
781.12,"Luluku","NWS","HydroNet-UaNet","OA",84.1248,21.3875008,-157.8099,NA,"LULH1",NA,NA,NA,1.27,2.54,NA,NA,NA,NA,NA,NA,NA,NA,NA,NA,NA,NA,NA,NA,NA,NA,NA,NA,NA,NA,NA,NA,NA,NA,NA,NA,NA,NA
781.13,"KANEOHE 0.8 SW, HI US","CoCoRaHs","CoCoRaHs","OA",20,21.4039,-157.8017,"US1HIHN0027",NA,NA,NA,NA,0.8,1,0,6.4,0.5,0,0,0,0.8,0,12.7,8.9,0,0.8,0,NA,0,NA,NA,0,5.3,NA,3.8,3.6,0.3,0,0,0,0,1
782.3,"Nuuanu Upper","NWS","HydroNet-UaNet","OA",248.412,21.3502007,-157.8184,"USC00516938","NUUH1","156097FE",NA,NA,0.25400000000036,1.77800000000025,15.2399999999998,4.31800000000021,0,4.57199999999966,4.40053752968996,2.46115519504622,1.30558400893409,2.75762988789394,24.1148932080072,9.97992140697734,1.08442737415674,1.45936565949036,1.25634212765375,2.1766763556982,6.86381837846919,1.76658095313871,1.41186876165261,4.02039307195948,5.85025345300103,0.672874515065308,5.5868990315985,1.92887665101356,0,0,2.47418741559194,0,0.254000000000005,5.84199999999998
783,"NUUANU RES 4 783","BWS","COOP","OA",320,21.35266525,-157.807534,"USC00516928",NA,NA,NA,NA,0,2.8,14.7,4.3,0,3,3.3,0.3,0.5,0.8,26.2,6.4,0.5,2.3,0.3,1.3,6.27694819382575,0,2,3,10.4,0.5,7.6,0,0,0,0.8,0,0.5,6.6
784,"PAUOA FLATS 784","BWS","COOP","OA",549,21.33516,-157.81058,"USC00517810",NA,NA,NA,NA,0,2.3,14.6165117560195,4.1,0,7.79802614359207,4.1,2.8,3.8,3.6,37.6,7.08295669147954,2,1.8,1.8,3.3,8.94841178402771,0,2.5,7.4,9.66226639236227,1.3,8.74153536744482,0.5,0,0,1.8,0,2.3,6.53501529985891
785.11,"WAIHI STREAM NEAR HONOLULU 3NE","USGS","USGS","OA",108,21.3283,-157.801,NA,"WISH1","16EA459A",NA,NA,0,0,0,0,0,0,0,0,0,0,0,0,0,0,0,0,0,0,0,0,0,0,0,0,0,0,0,0,0,0
785.4,"Manoa Lyon Arbo","NWS","HydroNet-UaNet","OA",151.7904,21.3330002,-157.8024,"USC00516128","MNLH1",NA,NA,NA,0,2.286,18.6179477959379,4.17495192529186,2.5,0,5.1,2.5,1.3,3.8,44.5,NA,2.5,2.8,0,4.3,8.6,6.9,0,5.1,5.01755140744659,1.5,6.9,7.1,0,0,7.6,0,0,6.4
787.2,"Maunawili","NWS","HydroNet-UaNet","OA",127.1016,21.3509998,-157.7668,NA,"MAUH1","19007374",NA,NA,0,0.253999999999905,11.9380000000001,2.53999999999996,0,0.508000000000038,0,0,1.01600000000008,0.253999999999905,25.654,7.62000000000012,0.507999999999811,0,0,0,3.04800000000023,0.253999999999905,0.253999999999905,0.253999999999905,2.7940000000001,0,11.684,0,0,0,0,0.254000000000133,0,0
788.1,"PALI GOLF COURSE 788.1","C&C PARKS & RECR","COOP","OA",146,21.37183016,-157.7839226,"USC00517656",NA,NA,NA,NA,0.3,1,0,5.6,0,0,0.522780336742827,0,0,0,12.8952483063231,5.7505837041711,NA,NA,0,0,0,1.74260112247609,0,4.87928314293305,5.7505837041711,1,7.14466460215197,0,0.5,0,0,0,0,0.5
788.2,"St Stephens Seminary","NWS","HydroNet-UaNet","OA",142.9512,21.3666992,-157.7786,NA,"STVH1","19005598",NA,NA,0,1.77800000000002,8.63600000000008,2.79399999999998,0,0,0,0,0,0,16.764,1.524,0.253999999999905,0.254000000000019,0.254000000000133,0.253999999999905,1.77800000000002,0.507999999999925,0.254000000000133,1.01599999999996,2.03199999999993,0.254000000000019,9.65200000000004,0,0,0,0,0,0,0
790.11,"Olomana Fire Stn","NWS","HydroNet-UaNet","OA",45.1104,21.3777008,-157.7507,"USC00517052","OFSH1","19011468",NA,NA,0,0,4.31800000000004,1.01600000000002,0,0,0,0,0.253999999999905,0,10.1600000000001,0.507999999999981,0.253999999999962,0,0,0,0,0,0,0,1.01600000000008,0,3.04799999999994,0,0,0,0,0,0,0
793.1,"WAIMANALO EXPERIMENTAL FARM","CoCoRaHS","CoCoRaHS","OA",38,21.3727,-157.725,"US1HIHN0022",NA,NA,NA,NA,0,0,0,2.5,0,0,0,0,0,0,3.6,5.1,0.8,0,0,0,0.5,0,0,0,0,0,4.1,0,0,0,0,0,0,0
793.2,"BELLOWS AFS AT WAIMANALO","NWS","STATE","OA",6.66,21.3667,-157.717,NA,"BELH1","B14036D2",NA,NA,0,0,1.27000000000004,0,0,0,0,0,0,0,4.06399999999996,0,0,0,0,0,0,0,0,0,0,0,5.07999999999998,0,0,0,0,0,0,0
795.1,"WAIMANALO EXP F 795.1","HAES","COOP","OA",18,21.33516407,-157.7105906,"USC00519523",NA,NA,NA,NA,0,0,0,7.9,0,0,0,0,0,0,3,0,0,0,0,0,0,0,0,0,0.3,NA,NA,NA,NA,NA,NA,NA,NA,NA
795.3,"Waimanalo Nonokio","NWS","HydroNet-UaNet","OA",20.1168,21.3356991,-157.7116,NA,"WMLH1","224185AC",NA,NA,0,0,2.794,1.778,0,0,0,0,0,0,2.54,0.254,0,0,0,0,0,0,0,2.032,0,1.27,4.064,0,0,0,0,0,0,0
801.1,"Waianae Kawiwi","MT VIEW DAIRY","HydroNet-UaNet","OA",19.812,21.4566994,-158.18,NA,"WAIH1",NA,NA,NA,0,0,NA,NA,NA,NA,NA,NA,NA,NA,NA,NA,NA,NA,NA,NA,NA,NA,NA,NA,NA,NA,NA,NA,NA,NA,NA,NA,NA,NA
801.2,"WAIANAE BOAT HARBOR","NWS","STATE","OA",4.25,21.4503,-158.184,NA,"WBHH1","15D13434",NA,NA,0,0,0,0,0,0,0,0,0,0,NA,0,0,0,0,0,0,0,2.03200000000004,0.254000000000133,0,0,NA,NA,0,0,0,0,0,0
803.2,"WAIANAE VALLEY","RAWS","RAWS","OA",291.6936,21.48055556,-158.1552778,"USR0000HWVA","WNVH1","487005DA",NA,NA,0,0,0,0,0,0,0,0,0,2.28600000000006,1.26999999999998,2.53999999999996,0.254000000000019,0,0,0,0,0,2.28600000000006,0,2.03199999999993,0,0,0,0,0,0,0,0,0
804,"Lualualei","US VY","HydroNet-UaNet","OA",35.9664,21.4211006,-158.1352,"USC00515647","LUAH1","8170406C",NA,NA,0,0,0.254000000000133,0,0,0.762000000000057,2.03199999999993,0.762000000000057,0,0.254000000000019,3.06762751999639,1.77799999999991,2.54000000000008,1.26999999999998,0,0,0,0,NA,0,0,0,1.29163263999845,0,0,0,0,0,0,0
810.1,"WHEELER ARMY AIR FIELD 810.1","COOP","NWS","OA",255,21.48722,-158.02806,"USW00022508","WAFH1","B14101B2",NA,NA,0,0,0,0.761999999999716,0,1.01600000000008,1.26999999999998,0.762000000000171,0.253999999999905,5.33399999999983,2.55906966312984,4.82600000000002,1.52399999999989,0,1.01600000000008,0.508000000000266,0,0,0,0.507999999999811,2.03200000000015,0,0.253999999999905,0,0,0,0,0,0,0
820.6,"Mililani","NWS","HydroNet-UaNet","OA",226.7712,21.4638004,-157.9991,"USC00516261","MITH1",NA,NA,NA,0,0,0.762,0.835504247156463,0,3.51368216750232,3.16189775304034,2.65631762196347,0.500870567616914,2.30385265283172,4.60510109328014,4.92193286363648,0.471587701377768,0.254990168776787,1.90880596708319,1.01880872663496,1.82239730395596,0,0.597869656898835,2.53509452886722,1.55001083603204,0.121079099537272,1.20785131570491,0.0710064421315001,0,0,0.0502166509647843,0,0.618227467388482,0.731636732579216
824.2,"Waipio","NWS","HydroNet-UaNet","OA",124.968,21.4199009,-158.0058,NA,"PECH1",NA,NA,NA,0,0,0,0,0,0.187497777461788,0.28623334472183,0.222817770526686,0.0606666290715588,1.2408220326667,2.87524558575372,1.35880021579148,0.47098217706008,0,0.0606666290715588,0.060666629071586,0.0959866221365041,0,0.189946333000379,0,0.845977731983628,0.383946488546005,0.738995329352958,0,0,0,0,0,0,0
828,"SCHOFIELD EAST","RAWS","RAWS","OA",381,21.49944444,-157.9933333,"USR0000HSCH","SCEH1","325AB384",NA,NA,0,0,4.06400000000031,2.53999999999996,0,7.87400000000025,10.085300892794,5.33399999999983,2.28600000000006,4.32227181119744,NA,14.4075727039916,2.0319999999997,0.25400000000036,3.30199999999968,3.04800000000023,0,0,0.253999999999905,5.33399999999983,2.79400000000032,0.253999999999905,1.52400000000034,0,0,0,0,0,1.01599999999962,0.507999999999811
834.13,"Waiawa CF","NWS","HydroNet-UaNet","OA",235.6104,21.4440994,-157.9669,"USC00519257","WAWH1",NA,NA,NA,0,0,5.334,2.02540944790007,0,5.02230738738572,4.7916082656835,3.7968270833993,0.715923020907338,2.31181851055005,12.9621679035468,7.04935049852034,0.674067341188522,0.364472068704131,2.72836581470953,1.45624172881551,2.60485695805432,0,0.854569380892871,3.62355596582073,2.21551936152077,0.173065299328515,1.72645114058237,0.101493579062818,0,0,0.0717775385158082,0,0.8836679666895,1.0457703320182
834.14,"Pearl City HI US F9678-FW9678 ","unknown","APRSWXNET","OA",182.69,21.423,-157.952,NA,"F9678",NA,NA,NA,0,0,9.39799976348877,1.77799999713898,0,1.77799999713898,4.31799983978272,2.79399991035461,0.76199996471405,5.58799982070923,NA,6.34999990463257,0,0,3.0479998588562,0.508000016212463,0.508000016212463,0,0.508000016212463,0.254000008106232,1.5239999294281,0.254000008106232,0.76199996471405,0,0,0,0,0,0,0.254000008106232
835.2,"Palisades","NWS","HydroNet-UaNet","OA",261.8232,21.4298,-157.9452,NA,"PACH1",NA,NA,NA,0,0,7.112,1.95978271850033,0.35071227403765,2.74933593495509,4.69889274340998,2.6001488005106,0.252759057067834,2.26708583443745,12.7113556291835,6.9129486524345,0.450241996777401,0.680030601843936,1.76314422607168,1.18904713448578,3.76090433895824,0.967965876343914,0.767846998674296,2.79497116820179,2.17265003178411,0.309957087162341,2.23988991029344,1.09555258100668,0,0,1.13655398764271,0,0.585822023140977,1.7829848778244
837,"WAIAHOLE 837 ","OAHU SUGAR","COOP","OA",227,21.47016136,-157.8833636,"USC00518964",NA,NA,NA,NA,1.3,0.3,0,NA,NA,NA,NA,0,0,2.5,NA,NA,NA,NA,0,0.5,1.3,2.5,NA,NA,NA,1,2.5,3.8,0,NA,NA,NA,0,0
837.12,"WAIAHOLE STREAM NEAR KAHALUU 2N","USGS","USGS","OA",4,21.48194,-157.8458,NA,"WHSH1","162B784C",NA,NA,0,0.253999999999991,2.032,4.57200000000002,0,0,0,0,0,0.253999999999991,6.604,2.032,0.762,0,0,0,0,0.762,0,0,1.778,1.016,1.016,0,0,1.016,0,0,0,0
837.5,"WAIHEE 837.5","COOP","COOP","OA",34,21.45167,-157.84889,"USC00519281",NA,NA,NA,NA,0.3,0.3,0,7.6,0,0,0,0,0.3,0.8,4.3,6.4,1.3,0,0,0,0,0.8,0,0,3,0.8,0.3,0,0,0.3,0,0,0,0
839.15,"Ahuimanu Loop ","NWS","HydroNet-UaNet","OA",74.0664,21.4319992,-157.8373,NA,"AHUH1","15CE7632",NA,NA,NA,NA,NA,NA,NA,NA,NA,NA,NA,NA,NA,NA,NA,NA,NA,NA,NA,0,0.254,0.254,4.318,0.508,1.016,0.508,0,0.254,0,0,0,0
839.8,"Waihee Pump","USGS","HydroNet-UaNet","OA",64.3128,21.4463997,-157.8584,"USC00519286","WPPH1","195042AC",NA,NA,1.01600000000008,0.254000000000133,5.07999999999981,4.06400000000008,0,0.254000000000019,0,0.253999999999905,0.508000000000152,1.77799999999991,12.906377080459,2.03199999999993,1.26999999999998,0.508000000000038,0,0,2.03199999999993,0,0,0.254000000000133,4.572,0.76199999999983,1.2700000000001,0,0,0,0,0,0,0.254000000000019
840,"KANEOHE BAY MCAS","USMC","NWS","OA",3,21.44404851,-157.7730876,"USW00022519",NA,NA,NA,NA,0,0.3,0.3,4.3,0,0,0,0,0.5,0,NA,0,0.5,0,0,0,0,0,0.8,0,0,0,0.5,0,0,0,0,0,NA,0
841.2,"KUAOKALA","S&PF","RAWS","OA",267.0048,21.57027778,-158.26,NA,"KKRH1","48710720",NA,NA,0,0,0,0,0,0,0,0,0,0,0.762,0,0.254000000000019,0,0,0,0,0,0,0,0.761999999999944,0,0,1.77800000000002,0,0,0,0,0,0
841.3,"KAENA POINT 841.3","LOCKHEED BALLISTIC","COOP","OA",378,21.56322317,-158.2430755,"USC00512410",NA,NA,NA,NA,NA,NA,NA,NA,NA,NA,NA,0,0,0.5,3,NA,NA,NA,NA,NA,NA,NA,NA,NA,NA,1.3,0,NA,4.1,NA,NA,NA,0,NA
842.1,"MakahaRainGage","USGS","USGS","OA",286.097472,21.50158333,-158.1801667,NA,"MKHH1","DD1423F8",NA,NA,0,0,0,0.253999999999998,0,0,0,0,0,1.778,5.588,4.064,0.254,0,0,0,0,0,7.874,0.762,0.507999999999996,0,2.286,0,0.253999999999998,0,0,0,0,0
842.8,"MAKUA RANGE","RAWS","RAWS","OA",6.096,21.52861111,-158.2261111,"USR0000HMAR","MKRH1","3266B468",NA,NA,0,0,0,0.254000000000019,0,0,0,0,0,0,1.77800000000002,NA,0,0,0,0,0,0.507999999999925,1.524,0,2.28599999999994,0,1.01600000000008,9.14400000000001,0,0,0,0,0,0
842.9,"MAKUA RIDGE","RAWS","RAWS","OA",533.4,21.54277778,-158.1988889,"USR0000HMRG","MKGH1","3266C2F8",NA,NA,0,0.254000000000019,1.2700000000001,1.26999999999998,0,0.508000000000038,0,0,0,1.52399999999989,6.35000000000002,1.26999999999998,1.524,0,0,0,0,0,1.01600000000008,0.253999999999905,0.762000000000057,0,1.77800000000002,7.11199999999997,0,0,0,0,0,0
843.7,"DILLIINGHAM","RAWS","RAWS","OA",31.0896,21.57194444,-158.1986111,NA,"DLGH1","3278D278",NA,NA,0,0,0,1.01599999999996,0,0,0,0,0,0,3.30200000000008,0.253999999999962,0.254000000000019,0,0,0,0,0,0,0,1.01599999999996,0,0.508000000000038,0.507999999999981,0,0,0,0,0,0
855.3,"Poamoho Exp Farm","NWS","HydroNet-UaNet","OA",220.0656,21.5382004,-158.0893,NA,"POAH1",NA,NA,NA,0,0,0.254,0.468927080350802,0,0.435848111506805,0.3724159190497,0.248277279366411,0,1.80409889325315,3.46188315890304,2.70342259464884,1.05926705515391,0,0,0,0,0,0.750283328561354,0.0937854160701268,1.27446536567632,0,1.15305247122408,2.62599164996452,0,0,0,0,0,0
858,"SCHOFIELD BARRACKS","RAWS","RAWS","OA",298.704,21.495,-158.0819444,"USR0000HSCO","SCBH1","3266A71E",NA,NA,0,0,0,0,0,0.508000000000038,0.762000000000057,0.507999999999925,0,2.53999999999996,2.28599999999994,4.572,1.01600000000008,0,0,0,0,0,4.19356852840472,0,2.03200000000004,0,1.01600000000008,0,0,0,0,0,0,0
884.4,"PunaluuRainGageatalt","USGS","USGS","OA",73.152,21.55644444,-157.899,NA,"PNSH1","DD989652",NA,NA,0,0.25400000000036,2.79399999999987,8.1279999999997,0,1.26999999999998,0.25400000000036,0.761999999999716,0.762000000000171,4.06399999999985,20.3200000000002,1.26999999999998,9.14400000000023,0,0,0.253999999999905,1.01600000000008,0.253999999999451,4.06400000000031,2.80059122882613,2.0319999999997,2.03200000000015,2.79399999999987,0,0,0,0,0,0,9.65200000000004
885.6,"KUALOA RANCH 885.6","COOP","COOP","OA",25,21.53,-157.85028,"USC00514829",NA,NA,NA,NA,0,0,0,4.1,0,0,0.5,0,0,1.3,7.00830571470765,5.3,0.514104488017916,0.178390746490245,0,0,0,0,0,0.3,3,0,2.5,0,0,0,0,0,1,0.3
885.7,"OAHU FOREST NWR","RAWS","RAWS","OA",698.9,21.47747,-157.9369,NA,"OFRH1","8379F6FA",NA,NA,0,0.253999999999999,17.2576390034332,6.096,0.253999999999998,3.048,5.08,2.794,0.507999999999996,6.858,37.0141988169493,5.09632625043993,0.507999999999996,0.507999999999996,2.286,1.77800000000001,4.06399999999999,0,2.03200000000001,6.096,9.39799999999998,2.28600000000002,4.06399999999999,0,0,0,0.253999999999991,0,0.50800000000001,3.048
886.1,"Waikane - Hakipuu Mauka","KUALOA RANCH","HydroNet-UaNet","OA",14,21.5084922,-157.8555853,NA,"HAKH1","16C69380",NA,NA,0.762,0.253999999999991,6.60400000000001,3.048,0.253999999999991,0.253999999999991,0.254000000000019,0.761999999999972,1.01600000000002,1.524,3.80999999999997,2.53999999999999,0,0,0,0,0.508000000000038,0,3.30199999999999,8.38200000000001,1.01600000000002,3.30199999999996,4.82599999999999,0.254000000000048,0,0.507999999999981,1.524,2.03199999999995,2.54000000000005,3.04799999999997
886.11,"KUALOA RANCH HAKIPUU 886.11, HI US","COOP","COOP","OA",74.04,21.51083,-157.86222,"USC00514828",NA,NA,NA,NA,0.109917108993044,0,0,10.3944539027295,0,0,0.435570093713995,0,0.5,1.5,9.4,8.4,1.42892241690957,0,0,0,0,1.3,0,6.1,5.6,2.3,6.4,0,0,0,0,0,0,0
886.4,"KahanaRainGageatalt","USGS","USGS","OA",28.956,21.54041667,-157.8825556,NA,"KNRH1","17B972EE",NA,NA,0,0,3.556,5.334,0,0.508000000000001,0.254,0.254000000000001,0.254,4.826,18.288,5.588,3.30199999999999,0,0,0,3.30200000000001,0,1.27,3.81,2.794,0.762,6.60400000000001,0,0,0,0.253999999999991,0.254000000000005,0.508000000000003,2.03199999999999
886.8,"Hakipuu Mauka","RILEY W","HydroNet-UaNet","OA",8.5344,21.5067005,-157.8547,"USC00510920","PTRH1","16C69380",NA,NA,0.762,0.253999999999991,6.60400000000001,3.048,0.253999999999991,0.253999999999991,0.254000000000019,0.761999999999972,1.01600000000002,1.524,3.80999999999997,2.53999999999999,0,0,0,0,0.508000000000038,0,3.30199999999999,8.38200000000001,1.01600000000002,3.30199999999996,4.82599999999999,0.254000000000048,0,0.507999999999981,1.524,2.03199999999995,2.54000000000005,3.04799999999997
886.9,"KUALOA RANCH HEADQUATERTERS 886.9","COOP","COOP","OA",7,21.5213,-157.8374,"USC00514830",NA,NA,NA,NA,0,0,0,8.4,0,0,0.3,0,0.3,0.8,7.4,3.3,0.350311737480102,0.121555780604647,0,0,0,1,0,2.8,3.3,0.3,4.1,0,0,0,0,0,0,0.3
892.2,"WAIMEA ARBORETUM 892.2","COOP / WB","COOP","OA",8,21.638859,-158.058759,"USC00519603",NA,NA,NA,NA,0.5,0.3,1,7.1,0.0917134209634448,0.191864402958284,3.3,6.6,0.3,3,7.91824195714381,4.08528711477885,0.319774004930473,1,0.3,3.8,0.5,0,0,4.1,1.8,0.3,3,1,0,0,0,0,0,0.3
897.11,"KamananuiRainGageatalt","USGS","USGS","OA",219.456,21.62238889,-158.0143056,NA,"KMRH1","DD34C1E4",NA,NA,0,0.508,5.08,5.03008418189751,0.0403944159858999,3.24084232342536,4.0349740818875,4.52124601563595,0.321591771626197,3.27380229584118,16.4180461182888,3.30890855581148,0.414159518127714,0.819214916823,1.15048091916689,2.36917577090514,2.20415574047397,0,0.96565913452178,3.74643644696404,3.32491331338543,0.507977112532316,3.15071562331356,0.48142456219737,0,0,0.136769986981085,0,0.337790354625633,1.43229011878323
897.9,"PupukeaRdRainGageatalt","USGS","USGS","OA",353.568,21.59902778,-158.0169167,NA,"PPRH1","1713D512",NA,NA,0,0.762,4.318,5.71699820862132,0,3.94269273741969,6.86169032772588,6.09640736974981,0.234610798823082,3.72026609902644,15.9221300540627,6.39691303313967,2.11366762025429,0.852208772794066,2.49271842427376,2.56384757524413,3.6421215862732,0,1.02429506808936,4.69712670894654,2.71265096789624,0.273484470234902,3.10386024078538,0.601815930351611,0,0,0.0938973159159206,0,0.781476791753359,1.321504077523
901.2,"KII KAHUKU 911","NWS","COOP","OA",7.6,21.6793,-157.945,"USC00514500",NA,NA,NA,NA,0,0,0,2.8,0,0.5,2.8,1.5,0,1.3,1.8,1,0.3,2,0,0.5,0,0,0,0,1.8,1,3.6,1.8,0.3,0,0,0,0,0
903.2,"LAIE 0.2 WNW","CoCoRaHS","CoCoRaHS","OA",2,21.65,-157.9287,"US1HIHN0002",NA,NA,NA,NA,0,0,1.5,9.1,0,0.3,0.3,0,0.5,0,4.8,0.3,4.8,1.8,0,0,0,0.5,0,0,0.5,0.3,8.1,0,0,0.200569380562671,0,0,0,0
903.4,"Laie HI US C5306-CW5306 ","unknown","APRSWXNET","OA",3.96,21.65,-157.929,NA,"C5306",NA,NA,NA,NA,1.5239999294281,2.79399982057342,6.35000014305115,0,0.508000016212463,NA,0.508000016212463,NA,0.508000016212463,5.3340000076294,0.25400010149993,6.60399962282181,NA,0,0,0.508000016212463,NA,0,0.508000016212463,NA,0,8.12800025939941,NA,0,0,0,0,0,0
904.1,"KAPAKA FARM 904.1","HON. FIRE DEPT","COOP","OA",1,21.60987636,-157.9100271,"USC00513208",NA,NA,NA,NA,0.3,0.3,0.3,3.8,0,0.5,0.3,0,0.3,1.3,4.1,6.4,0,0.3,0,0.3,0,0.3,0.8,1,1,0,1.5,0,0,0,0,0,0,0
905.22,"Punaluu Pump","NWS","HydroNet-UaNet","OA",3.9624,21.5842991,-157.8916,NA,"PUNH1","19051152",NA,NA,1.01600000000001,0,0.254000000000019,6.35000000000001,0,0.507999999999981,0,0,0,0.762,10.16,1.524,1.27000000000001,0,0,0,2.28599999999997,0,1.01600000000002,3.048,0.762,1.524,2.79400000000001,0,0,0,0,0,0,0
909,"KAHUKU TRAINING AREA","RAWS","RAWS","OA",181.6608,21.67916667,-157.9894444,"USR0000HKAH","KTAH1","325A861E",NA,NA,0,0.761999999999944,2.03200000000004,2.53999999999996,0,1.77800000000002,0.762000000000057,1.26999999999998,0,1.77800000000002,4.82599999999991,0.254000000000019,3.30200000000002,0,1.01599999999996,0.508000000000038,2.03200000000004,0,0,2.53999999999996,2.53999999999996,1.77800000000002,6.60400000000004,0.254000000000019,0,0,0,0,0,0
911.1,"KII","RAWS","RAWS","OA",1.524,21.68833333,-157.9525,"USR0000HKII","KFWH1","8375210E",NA,NA,0,0.253999999999962,1.27000000000004,2.286,0,1.524,1.77799999999996,0.508000000000038,1.26999999999998,0.762,2.54000000000002,0.253999999999962,2.03200000000004,0,1.77800000000002,0,0,0,0,0,0.253999999999962,0,2.54000000000002,0.507999999999981,0,0,0,0,0,0
912,"KAUHUKU 912","KUILIMA  GOLF","COOP","OA",4,21.695,-157.9811,"USC00512570","KAHH1","B1404042",NA,NA,0,0,0.761999999999944,1.52399999999989,0,1.0160000000003,0.507999999999811,0.508000000000038,0.508000000000038,1.01599999999985,2.7940000000001,2.28600000000006,2.28599999999983,0,4.06400000000008,0,0,0,0.508000000000038,0.254000000000133,0.761999999999944,0,12.4459999999999,0.253999999999905,0,0,0,0.508000000000266,0,0
926,"PORT ALLEN CAA AIRPORT","FAA","COOP","KA",9,21.89381249,-159.6010997,"USW0022526","PAKH1","B159A272",NA,NA,NA,0.254000000000076,3.55599999999998,0.508000000000038,0,0.253999999999905,2.286,NA,0,0,0,2.03200000000004,0,0,0,0,0,NA,NA,NA,0,0,NA,0,0,0,NA,0,0,0
927,"ELEELE 927","MCBRYDE SUGAR","COOP","KA",50,21.90353436,-159.5772088,"USC00510470",NA,NA,NA,NA,2.8,0,0.8,1.3,0,0,3.94980414208496,3,1,0,0.8,0,0,NA,0,2,1.8987449217397,0,0,0,0.8,0.5,0,0,0,0,0,0,0,0
930,"WAHIAWA 930","MCBRYDE SUGAR","COOP","KA",66,21.89631087,-159.5572079,"USC00518941",NA,NA,NA,NA,3.6,0.3,0.5,1.3,0,0,5.8,3.6,1.3,0,1,0,0,NA,2.5,0,0.8,0.5,0,0,0.3,0.5,0,0,0,0,0,0,0,0
931,"WEST LAWAI 931","MCBRYDE SUGAR","COOP","KA",64,21.89019743,-159.5172067,"USC00519955",NA,NA,NA,NA,1.8,0,1.5,4.8,0,0,6.1,2.8,1.5,0.3,1.8,0,0,0,0,0.5,5.1,1.3,0,0,1.8,1.3,0.3,1.3,0,0,0,0,0,0
936,"KOLOA 936","MCBRYDE SUGAR","COOP","KA",73,21.90686471,-159.4622057,"USC00514742",NA,NA,NA,NA,2.3,0,3.6,5.8,0,0,4.6,0.8,1.3,0.8,1.3,0,0,NA,0,1.8,1.5,0,0,0,5.3,0.8,0.5,0.8,0,0,0,0,0,0.3
940.2,"KOLOA 2.1 SSE","CoCoRaHS","CoCoRaHS","KA",12,21.8788,-159.4518,"US1HIKI0020",NA,NA,NA,NA,1.8,0,2.54588049388869,8.30981453964844,2.5,0,0.660508734296635,0.8,0,1.8,0.5,7.88243647618172,3,0,0.134055042111934,1.24866794455675,0,0.965196303205925,0,0.663572458454073,0,1.8,0.5,0.5,0.5,0.0603247689503703,0,0,0,1.55327184127334
941.1,"MAHAULEPU 941.1","GROVE FARM","COOP","KA",24,21.90102957,-159.422207,"USC00515710",NA,NA,NA,NA,4.6,0,2.8,7.1,0,0,3.3,0.3,0.961488806552073,3.8,1.8,0,0,NA,0.3,1.3,1.3,0,0,0,1.3,1.8563836592025,0.8,1,0,0,0,0,0,0.3
946,"WAIMEA HTS","RAWS","RAWS","KA",159.7152,21.96638889,-159.6638889,NA,"WHGH1","487090B8",NA,NA,0,0.253999999999905,2.286,1.77800000000002,0,0.250481907182485,0,0,0,0,0,2.03200000000004,0,0,0.751445721547345,4.13295146851067,0,3.55600000000004,0.253999999999905,4.3180000000001,1.75337335027728,0,2.03199999999993,0,0.125240953591299,0,0,0,0,0.125240953591186
946.1,"WAIMEA TANK AT WAIMEA","NWS","unknown","KA",70,21.964722,-159.666944,NA,"WMTH1","1900E616",NA,NA,NA,NA,2.03199999999993,2.03200000000015,NA,NA,NA,NA,NA,NA,NA,2.03199999999993,NA,NA,NA,NA,NA,2.53999999999996,NA,7.36599999999999,NA,NA,2.53999999999996,NA,NA,NA,NA,NA,NA,NA
965,"MAKAWELI 965","OLOKELE SUGAR","COOP","KA",43,21.91909048,-159.6272113,"USC00515864",NA,NA,NA,NA,1.3,0.5,0.494066156037331,4.8,0,0,4.09931129469146,0.3,1.11009062604254,0.3,0.973749920652378,0,0,NA,0.639948035880598,0.8,1.69596677983967,0.255878391699366,0,0,1.08231423578311,0.596578921195464,0,0,0,0,0,0,0,0.0479582941962173
966.4,"Hanapepe","NWS","HydroNet-UaNet","KA",110.6424,21.9365005,-159.5866,NA,"HNPH1","156011EA",NA,NA,0,0.508,3.302,2.794,0,0.254000000000001,0,0,0,0,0.254,3.048,0,0,0,0.254,0,0,2.794,0,0,0,0,0,0,0,0,0,0,0
985,"BRYDESWOOD STA 985","MCBRYDE SUGAR","COOP","KA",220,21.92519845,-159.5338717,"USC00510240",NA,NA,NA,NA,3.3,0.3,0.8,7.6,0,0,7.35635280046817,2.8,3,0.5,3,0,0,0,0,1.45497346785468,2.8,0.8,0,0,4.8,2,0,0,0,0,0,0,0,0.3
986.2,"Kalaheo","KUKUILONO GOLF COU","HydroNet-UaNet","KA",263.0424,21.9183006,-159.5265,NA,"KHEH1","1560740C",NA,NA,0,0.507999999999811,0.743510033473243,6.40816958583916,0,5.8420000000001,1.26999999999975,5.58799999999997,0.254000000000133,4.31799999999998,1.52400000000011,6.67187584103958,0.508000000000038,0,0,NA,0.253999999999905,1.52400000000011,0,2.54000000000019,4.14819471831405,0,0,0,0,0,0,0,0,0.761999999999944
992.1,"Omao","NWS","HydroNet-UaNet","KA",99.9744,21.9071007,-159.4768,"USC00517116","OMAH1","195001A6",NA,NA,0,1.26999999999998,NA,6.096,0,4.31799999999998,1.53693059964537,3.55600000000004,0,2.03199999999993,2.54000000000019,14.1393355047453,0.253999999999905,0,0.253999999999905,3.61338574010156,0,2.28599999999983,0.508000000000038,4.06399999999985,4.06400000000031,0,1.01599999999985,0,0,0,0,0,0,0
1006,"HALENANAHO 1006","GROVE FARM","COOP","KA",149,21.96491938,-159.4305374,"USC00511038",NA,NA,NA,NA,4.85436663007786,0.448331421754063,4.8387420779767,11.0596051251685,0,0,5.17379859583389,0.868750218278191,1.86639858730324,3.80592792096075,2.92786730833053,0,0,NA,0.328614903959202,3.69288121549632,4.28611874624016,0.134499426526219,0,0,5.02538877690991,3.6035280030488,1.47168154951583,1.68035146969173,0,0,0,0.5,0,0.497540790197268
1013,"PUHI 1013","LIHUE PLANTATION","COOP","KA",101,21.96491954,-159.3972052,"USC00518217",NA,NA,NA,NA,1.3,1,3.59759309236418,8.2227897997859,0,0,1,0.5,0.3,2,2.3,0,0,NA,0.3,4.1,5.8,0.3,0,0,3.73636446392599,5.1,1.5,1.3,0,0,0,1.8,0,0.3
1020.1,"LIHUE WEATHER SERVICE OFFICE AIRPORT 1020.1","LIHUE WEATHER SERVICE OFFICE AIRPORT 1020.1","NWS","KA",45,21.98156999,-159.3422063,"USW00022536","PHLI",NA,NA,NA,0,0.762,4.318,3.8,0,0.8,0.3,0,0,0.5,0.3,10.2059107223789,0,0,0,1.3,0.453596032105736,0,0,6.1,1.3,0.8,0.8,0,0,0,0,0,0,0.3
1020.6,"LIHUE 1.3 NE","CoCoRaHS","CoCoRaHS","KA",25,21.987,-159.338,"US1HIKI0009",NA,NA,NA,NA,0,1.5,1.8,5.1,3.3,0,1,0,0,0.8,0.3,8.49854238029544,1,0,0,0.5,4.1,0,0,0,3.3,2.11212964297122,1.8,0.8,0,0,0,0,0,1.3
1022.1,"LIHUE 1.2 NNW","CoCoRaHS","CoCoRaHS","KA",60,21.9923,-159.3586,"US1HIKI0002",NA,NA,NA,NA,1.5,0.5,3.3,5.8,2.70833091657503,0,0.5,0,0,2.5,0.8,10.0703536179864,1.43529473869234,0.3,0,0.8,3.6,1.23110270018881,0.0849048977365113,0.700103240631621,2.20343766988934,2.50276946798165,1.18820287452947,2.00275193979764,0.478409153985243,0.0512959458412003,0,0,0.0849048977365113,2.3
1029,"MANA","RAWS","RAWS","KA",26.2128,22.02944444,-159.7622222,NA,"MNRH1","4870603C",NA,NA,0,0,5.334,NA,0,0,0,0,0,0,0,NA,0,0,0,5.08000000000004,0,0,0,NA,3.048,0,0,0,0,0,0.253999999999962,0,0,0
1036,"PUU OPAE","RAWS","RAWS","KA",652.8816,22.04083333,-159.6958333,NA,"POPH1","4870734A",NA,NA,0,0,4.63621509857814,3.81000000000006,0,0.508000000000038,0,0,0,0,0,1.77800000000002,0,0,1.52399999999989,8.38199999999995,0,1.77800000000002,0,4.82600000000002,3.55600000000004,0,2.03199999999993,0,0.254000000000133,0,0,0,0,0.253999999999905
1042,"WaialaeRainGagenrWaimea","USGS","USGS","KA",1219.2,22.08972222,-159.5925,NA,"WLGH1","DDF7C28E",NA,NA,0,1.016,8.636,3.556,0,4.064,1.81258271966881,2.286,0,2.54000000000001,1.26999999999999,7.52883403769629,0.254000000000005,0,2.28599999999999,3.048,0.508000000000003,0.253999999999991,0,6.50397328822338,1.27,0.253999999999998,2.54,0.254000000000005,0.761999999999993,0.253999999999998,0.254000000000005,0,0.508000000000003,1.016
1047,"Mt.WaialealeRainGagenrLihue","USGS","USGS","KA",1569.72,22.07088889,-159.4979722,"USC00516565","WLLH1","DD5E818E",NA,NA,0.253999999999998,7.874,117.602,71.882,2.286,28.956,30.48,22.86,9.90600000000006,29.21,7.36599999999999,91.186,5.58799999999997,0.507999999999981,20.066,39.878,3.14902252023821,10.668,0.761999999999944,28.1940000000001,37.846,3.80999999999995,22.0980000000001,7.62,NA,0,1.77800000000002,1.2700000000001,2.28599999999994,7.08604562939267
1051,"NWailuaDitchRainGagenrLihue","LIHUE PLANTATION","USGS","KA",338.328,22.0625,-159.4677222,"USC00516888","WLDH1","1732B3E0",NA,NA,0,2.286,33.274,32.258,0.254000000000005,12.954,8.636,6.35000000000001,3.30199999999999,12.7,3.048,30.988,1.26999999999998,0,4.06400000000002,18.542,2.53999999999999,4.06399999999999,0.50800000000001,15.494,24.892,3.04800000000003,3.55599999999998,3.81,0.96310585922036,0.253999999999991,0.254000000000048,0.761999999999972,0.254000000000019,5.84199999999998
1059,"Lihue Variety Stn","NWS","HydroNet-UaNet","KA",117.0432,22.0240002,-159.3868,NA,"LIHH1","1561501A",NA,NA,0,1.524,NA,14.478,0,1.01599999999999,1.01600000000001,0,0.762000000000015,6.34999999999999,1.01600000000001,18.034,0.253999999999991,0,1.27000000000001,NA,0,1.27,2.79399999999998,6.096,1.27,2.79400000000001,0.762,5.334,2.03200000000001,0,0,0,0.253999999999991,0.507999999999981
1060,"Wailua UH Exp Stn","NWS","HydroNet-UaNet","KA",158.1912,22.0660992,-159.396,"USC00519475","WUHH1",NA,NA,NA,0,0.762,11.7025249133279,17.6720987389679,0.0553291584553235,6.03702030946781,3.16798536293767,1.38322896138306,1.65512922388772,5.22212565883551,3.23753785237731,17.2784716761952,0.393627062772695,0,1.93809796974974,6.72959778864803,0.829639458665564,2.99092940421433,0.695564669390964,5.94866661668811,9.3996207254878,1.24885625394422,2.06140219383122,3.2865440572472,0.155975027328081,0.0553291584553205,0.172310428951407,0.399950016358083,0.1723104289514,2.07474060920989
1061.5,"Wailua UH Exp Stn","NWS","HydroNet-UaNet","KA",158,22.066,-159.3962,NA,"WUHH1","15C163D6",NA,NA,0,0.762,12.7047745138196,23.114,0,6.55405413235105,2.79399999999998,0,2.03200000000001,5.6693687447549,5.58800000000002,22.86,0.254000000000048,0,2.28599999999997,5.84199999999998,1.01600000000002,4.572,1.26999999999998,5.58800000000002,8.63599999999997,1.27000000000004,2.79399999999998,5.334,0.507999999999981,0,0.254000000000019,0.507999999999981,0.254000000000019,2.54000000000002
1063.2,"KAPAA 2.7 SSW, HI US","CoCoRaHs","CoCoRaHs","KA",90.04,22.0593,-159.365,"US1HIKI0023",NA,NA,NA,NA,0.5,3.3,NA,27.9,NA,0.3,2.5,0.5,0.3,7.6,NA,15.5,3,0.8,0.3,NA,1,0.3,0.3,0.8,3,1.5,NA,NA,NA,NA,0.3,0.3,0.5,0.5
1063.3,"Kapaa HI US F0098-AH7L ","unknown","APRSWXNET","KA",122,22.071,-159.359,NA,"F0098",NA,NA,NA,NA,1.01600003242493,NA,18.7960017547609,NA,3.0479998588562,NA,0,2.03200006484985,3.30199963378907,2.032000012603,15.7480003967285,NA,NA,1.01600003242493,NA,0.25400019427795,1.26999998903274,NA,3.81000018119812,1.01599981280823,1.01600018405916,4.82599953079223,3.55600026948242,0.76199996471405,0.25400007242493,0,0,1.26999998092651,4.06399967193604
1065.2,"KAPAA 2.3 SW, HI US","CoCoRaHs","CoCoRaHs","KA",105.03,22.0721,-159.3767,"US1HIKI0026",NA,NA,NA,NA,0,0.5,7.1,27.9,NA,0.3,4.8,1.3,0,5.8,2.8,15.7,2.5,0.3,1.3,2.5,3.8,1.8,0,0.8,4.1,5.6,0.8,4.6,2.3,0,0,0,0,3
1065.3,"Kapaa HI US F9608-FW9608 ","unknown","APRSWXNET","KA",106.41,22.072,-159.376,NA,"F9608",NA,NA,NA,NA,0.508000016212463,NA,20.828003250122,NA,4.57200002670288,1.77799942779541,NA,1.77799999713898,6.85800016212463,1.52400018937377,15.7479987792969,0.253999710082999,0.254000016212464,2.7939998588562,5.33400015177003,1.52399969100952,1.52399999189377,0.254000037534332,2.28599996185303,7.11199928665161,0.76200009536744,3.0479998039656,2.54000043869019,1.01600003242493,NA,0,0,1.77799999713898,1.26999986457824
1069,"PUU LUA","RAWS","RAWS","KA",1021.08,22.08916667,-159.6791667,NA,"PLRH1","487083CE",NA,NA,1.2700000000001,0,4.48173151197568,2.7940000000001,0,0.253999999999905,0.253999999999905,0.254000000000133,0,0,0,2.53999999999985,0,0,2.79399999999998,4.57200000000023,0.507999999999925,1.26999999999987,0,5.33400000000006,5.8420000000001,0,5.07999999999993,0,5.08000000000004,0.253999999999905,0,0,0,0
1074,"MAKAHA RIDGE","RAWS","RAWS","KA",544.9824,22.13055556,-159.7152778,"USR0000HMAH","MKAH1","3286026C",NA,NA,0.762000000000057,0,5.58799999999997,5.33400000000006,0,0,0,0,0,0,0,4.31799999999998,0,0,3.55599999999993,6.85800000000006,0,0.254000000000019,0,0.507999999999925,8.63600000000008,0,0,0,0,0,0,0,0,0
1076,"Kokee","NWS","HydroNet-UaNet","KA",1279.2456,22.1485996,-159.6448,NA,"KOKH1","1900E616",NA,NA,0,0,13.0393587110941,2.03200000000015,0,0,0,0,0,0,0,2.03199999999993,0,0,0,0,0,2.53999999999996,0,NA,0,0,2.53999999999996,0,0,0,0,0,0,0
1082,"WaiakoaliRainGagenrWaimea","USGS","USGS","KA",1042.416,22.1245,-159.6220833,"519130","WKRH1","17B79574",NA,NA,0.254,1.016,8.89,3.7275479340985,0,1.53100267968206,1.38381847792084,0.934665166209146,0.0711162476767629,0.851910733532956,1.13711784353409,6.72976571202752,0.796353550120909,0.0355581238383834,2.61412022650305,4.04531198876891,0.241498394383354,0.944531499389326,0.0355581238383834,8.56241217310478,1.17267596737248,0.0851910733532946,2.31573926482146,0.120749197191676,0.291131343898267,0.0851910733532946,0.085191073353297,0.0355581238383795,0.170382146706592,0.482996788766707
1083,"MoCrsgRainGagenrWaimea","USGS","USGS","KA",1042.416,22.11708333,-159.6009722,"USC00516433","MCRH1","D109224A",NA,NA,0,0.508,12.446,6.35726911646707,0,3.15484734794013,1.80548516663713,1.64405797533447,0.0704017241140687,2.61343486001745,1.12569292279786,7.49935328723484,0.788352377472109,0.0352008620570363,1.32544294592792,3.59634354116373,0.239071996776945,0.935041544082801,0.0352008620570363,6.47850559793322,1.1608937848549,0.0843351363314369,2.29247242603531,0.119535998388472,0.288206271051347,0.0843351363314369,0.0843351363314392,0.0352008620570324,0.168670272662876,0.478143993553888
1084,"KilohanaRainGafenrHanalei","USGS","USGS","KA",1219.2,22.15408333,-159.5946111,"USC00514610","KLOH1","DDCC972A",NA,NA,1.27,2.54,43.434,15.290784195061,0,7.58817804971602,7.83549382909265,3.95436078675536,0.50800000000001,6.28594884379914,5.08,26.8052298862955,5.07999999999998,0.254000000000019,3.18801385905662,8.65008417479046,0.50800000000001,0,0.254000000000019,10.739708150269,5.33400000000003,0,4.31799999999998,0.253999999999991,0.254000000000019,0,0,0.253999999999991,0,1.01600000000002
1094.2,"Kapahi","NWS","HydroNet-UaNet","KA",158.496,22.1021004,-159.3856,"USC00513171","KPIH1","15608488",NA,NA,0,0,16.493474508301,18.2880000000005,0,6.42112366353704,1.52400000000125,0,0,5.58799999999792,1.77800000000207,24.1299999999974,0.508000000003449,0,6.09599999999955,5.33399999999892,0.507999999999811,3.40300792026026,1.01600000000144,4.06400000000031,3.80999999999949,1.01599999999962,4.06400000000031,1.52399999999943,0,0,3.55600000000049,0.253999999998996,0.762000000002445,1.52399999999761
1094.3,"KAPAA 1.4 W","CoCoRaHS","CoCoRaHS","KA",139,22.0936,-159.3758,"US1HIKI0005",NA,NA,NA,NA,1.17271284300681,0.5,7.1,19.8,4.09057248546136,1.5,4.13168299401565,1.83653939708484,5.3,3.8,3.8,19.8,2.3,0,1,7.6,1.3,1.92089861537499,0.5,0.8,5.3,5.6,1.3,5.1,0.3,0,0,0,0.5,2.3
1097.4,"KAPAA 1.9 WSW","CoCoRaHS","CoCoRaHS","KA",157,22.0829,-159.3786,"US1HIKI0019",NA,NA,NA,NA,0,0.5,8.4,38.9,2,0.8,4.10324967792863,0.8,0,6.6,3.6,19.6,3.8,0.3,1,6.6,3,4.8,0,3.3,6.04268027891586,4.6,1.5,4.8,2.5,0.3,0,0,0,4.1
1111.4,"Anahola","HAWN FRUIT PACKERS","HydroNet-UaNet","KA",75.2856,22.1373997,-159.312,NA,"ANHH1","1560029C",NA,NA,0,0,4.31799999999976,3.04800000000023,0,1.01600000000008,0,0,0,0.508000000000266,2.53999999999951,0.25400000000036,0.253999999999905,0,2.03200000000015,7.8739999999998,0,0,0,2.03200000000015,NA,1.01600000000053,2.53999999999951,0.508000000000266,0,0,1.26999999999998,0,0,0
1116.1,"HANALEI 3.0 W, HI US","CoCoRaHs","CoCoRaHs","KA",10.457,22.2103,-159.5492,"US1HIKI0024",NA,NA,NA,NA,0,0,NA,NA,NA,1.3,2.3,3.3,0.5,0.8,1,4.6,2.5,1,1.8,4.3,6.1,0.3,0,1.3,NA,5.3,0,2.3,0,0,0,0,0,0.8
1117,"PRINCEVILLE RANCH 1117","PRINCEVILLE RANCH","COOP","KA",90,22.213196,-159.4722008,"USC00518165",NA,NA,NA,NA,0,0,0,14.2,0.923428447132884,3,3.8,2.5,0,2,0,13.6147115141874,2.84403449345788,1.8,3.6,4.91024711672435,0,0.8,0,1.3,4.55233504501119,3.6,0,1.3,0,0,0,0.8,0,0
1117.8,"Hanalei","NWS","HydroNet-UaNet","KA",4.8768,22.1982002,-159.4951,"USC00513386","HNIH1",NA,NA,NA,0,1.016,11.0038102235539,NA,0,NA,NA,NA,1.22333543330924,NA,4.29724406874386,NA,1.42382483510046,0.0643497673892089,NA,NA,0.450678322695889,2.46293077169436,0.748497203970964,NA,6.00354768392928,0.684147436581787,2.59907040609634,2.93776900103262,0.225339161347937,0,0.136829487316363,0.338008742021898,0.136829487316363,1.08379596181358
1117.9,"PRINCEVILLE AIRPORT NEAR KILAUEA 4W","NWS","STATE","KA",88.497,22.2114,-159.443,NA,"PRIH1","B15952F6",NA,NA,0,0,NA,9.9060000000004,0,4.31799999999976,5.84199999999964,0.508000000000266,0,2.28600000000006,1.52399999999989,5.84199999999964,0.253999999999905,0.508000000000266,2.28600000000006,5.33400000000029,0,0.507999999999356,0,6.35000000000036,NA,0.762000000000171,0,0.508000000000266,0,0,1.26999999999953,0,0,0
1134.2,"KILAUEA 0.5 SE","CoCoRaHS","CoCoRaHS","KA",79,22.2057,-159.4048,"US1HIKI0006",NA,NA,NA,NA,0.5,0.5,1,17.3,2.00281530553678,4.3,6.1,4.1,0,2.3,0.5,6.9,3.3,0,0.3,2.5,1.3,0,0,1.5,4.6,4.1877705013863,0.3,0.5,0.818512171154073,0,0.5,1.3,0.3,0
1144.1,"ANAHOLA 2.8 N","CoCoRaHS","CoCoRaHS","KA",74,22.1869,-159.3236,"US1HIKI0021",NA,NA,NA,NA,0.5,1,0,15.2634035038888,1.5,2.8,4.06597679603242,0.3,0.5,1,0.3,1.8,1.3,0,0.8,3.6,1.5,0,0,2.3,1.5,4.8,5.1,2.03469473093445,3,0,0.5,0,0,0.3
1146,"Moloaa Dairy","RAWS","RAWS","KA",85.344,22.18333333,-159.3375,"USR0000HMOL","MLDH1","AAB6D15A",NA,NA,0,0,0,0,0,0,0,0,0,0,0,0,0,0,0,0,0,0,0,0,0,0,0,0,0,0,0,0,0,0
