"SKN","Station.Name","Observer","Network","Island","ELEV.m.","LAT","LON","NCEI.id","NWS.id","NESDIS.id","SCAN.id","SMART_NODE_RF.id","X2019.07.01","X2019.07.02","X2019.07.03","X2019.07.04","X2019.07.05","X2019.07.06","X2019.07.07","X2019.07.08","X2019.07.09","X2019.07.10","X2019.07.11","X2019.07.12","X2019.07.13","X2019.07.14","X2019.07.15","X2019.07.16","X2019.07.17","X2019.07.18","X2019.07.19","X2019.07.20","X2019.07.21","X2019.07.22","X2019.07.23","X2019.07.24","X2019.07.25","X2019.07.26","X2019.07.27","X2019.07.28","X2019.07.29","X2019.07.30","X2019.07.31"
2.1,"KAHUKU MAUKA","COOP","COOP","BI",957,19.1089,-155.7467,"USC00512566",NA,NA,NA,NA,0.54272571401192,6.94688913935258,4.12471542649059,6.94688913935258,0,0,0,6.62125371094542,13.2425074218908,0,0,0,0,0,0,0,0.868361142419072,0,0,0,0,0.868361142419072,0,0,0,2.17090285604768,0,0,1.41108685643099,2.49653828445483,0
2.32,"SOUTH KONA 2 2.32","COOP","COOP","BI",647,19.10778,-155.78944,"USC00518652",NA,NA,NA,NA,0.5,6.4,3.8,6.4,0,0,0,6.1,12.2,0,0,0,0,0,0,0,0.8,0,0,0,0,0.8,0,0,0,2,0,0,1.3,2.3,0
2.34,"MILOLII 2.34","COOP","COOP","BI",280,19.186302,-155.886763,"USC00516304",NA,NA,NA,NA,22.9,0,0,12.7,0.5,0,0,0,1.8,6.6,21.6,1.5,0,0,0,0,4.1,0,7.1,9.7,1.5,0,0,5.1,0,0,17.3,0,0,12.7,1
2.36,"KAPUA 2.36","COOP","COOP","BI",533,19.14472,-155.84944,"USC00513376",NA,NA,NA,NA,17.3,0,4.3,6.6,0,0,0,0,0,35.6,0.8,0.3,0,0,1.8,0,0,0,4.3,4.6,3.6,17.3,0,0,0,1,0,8.1,3.6,19.8,0
3.22,"HAWAIIAN OCEAN VIEW 4.7 NNE","HAWAIIAN OCEAN VIEW 4.7 NNE","CoCoRaHS","BI",1273,19.135,-155.747,"US1HIHI0035",NA,NA,NA,NA,0.8,0,7.4,8.6,9.7,0.5,0,0,21.1,0,0.5,0,0.3,0,0,0,0,0.3,0,0,0,1,0.5,0,0,0,0,0,0,0,1.8
3.9,"LOWER KAHUKU CS","LOWER KAHUKU CS","RAWS","BI",953.7192,19.10083333,-155.6697222,NA,"LKHH1","32D620C2",NA,NA,2,0.5,2.10000000000002,5,6.10000000000002,6.89999999999998,0.300000000000011,88.1,9.60000000000002,0.300000000000011,0,2,0.5,0,0,9.69999999999999,5.29999999999995,2.30000000000007,6.11000000000002,6.33,3.04,11.67,0,2.79,3.54,3.56,1.77,0,1.77,0,0.25
4.12,"NAALEHU 4.6 WSW","NAALEHU 4.6 WSW","CoCoRaHS","BI",391,19.0424,-155.6354,"US1HIHI0001",NA,NA,NA,NA,19.1,0,1.3,15.5,2,7.1,3,0,58.2,6.9,0,0,0,0,0,0,1.3,0,1.8,4.3,0,7.4,0.5,0,0,0,1.3,0,1.3,1.3,0
4.13,"NAALEHU 5.0 WSW","NAALEHU 5.0 WSW","CoCoRaHS","BI",436,19.0424,-155.643,"US1HIHI0010",NA,NA,NA,NA,22.8744037018108,2.5657751237088,0.717894546240326,17.483947110381,1.55067490870705,6.04036203868403,1.65667972209306,2.5657751237088,63.4308875738366,12.9021317339561,0,0,0,0,0,0,0.717894546240326,0,0.994007833255836,2.82079602897839,0,5.92714141049021,0.55222657403102,0,0,0,0.996783146643456,0,2.11233754825598,3.39522511011037,0
4.14,"NAALEHU 4.7 WSW, HI US","CoCoRaHs","CoCoRaHs","BI",393.18,19.0421,-155.6371,"US1HIHI0057",NA,NA,NA,NA,16.5,4.1,1.5,13,1.8,6.6,2.5,0,41.9,2.5,0,0,NA,0,0,0,1.3,0,1.8,2.5,0,6.6,0.8,0,0,0,0.8,0,1.8,0,0
4.15,"SOUTH POINT NEAR NAALEHU 12SSW","NWS","STATE","BI",295.78,18.9928,-155.668,NA,"SOPH1","B1507246",NA,NA,NA,NA,NA,NA,NA,NA,NA,NA,NA,NA,NA,NA,NA,NA,NA,NA,NA,NA,NA,NA,NA,NA,NA,NA,NA,NA,0,0,NA,0,0
5.1,"Kamaoa Puueo 5.1","COOP","COOP","BI",317,19.01361,-155.66194,"USC00513054",NA,NA,NA,NA,20.3,3.64263482603476,0,12.6700341775122,0.633501708875611,3.00913311715915,0,3.64263482603476,44.4243073349022,12.9075973183406,0,0,0,0,0,0,0,0,0,0.633501708875611,0,2.61319454911189,NA,NA,NA,0,0.395938568047257,0,1.97969284023628,3.80101025325366,0
6,"KIOLAKAA A&F 6","STATE DIV FTRY","COOP","BI",587,19.07032619,-155.6355484,"USC00514625",NA,NA,NA,NA,27.3642503793059,5.27389911482904,0,18.3439969211445,0.917199846057224,4.35669926877181,0,5.27389911482904,64.3186392047628,18.6879468634159,0,0,0,0,0,0,0,0,0,0.917199846057224,0,3.78344936498605,NA,NA,NA,0,0.573249903785765,0,2.86624951892883,5.50319907634334,0
6.2,"NAALEHU 5.7 W","NAALEHU 5.7 W","CoCoRaHS","BI",679,19.0732,-155.6632,"US1HIHI0012",NA,NA,NA,NA,14,4.3,0.3,12.7,1.3,0.5,5.3,0,58.2,14,0.5,0.3,0.3,0.5,0,0,6.9,0.8,4.8,6.6,0.3,5.6,6.1,1.8,1,3.3,2.8,0.3,1,0.5,0
9.2,"Nene Cabin","Nene Cabin","RAWS","BI",710.4888,19.34805556,-155.1258333,NA,"AHMH1","32D64524",NA,NA,1.3,0.200000000000003,2.8,2.5,1.3,0.5,0,113,NA,6.89999999999998,0,0,0,0,0,3.5,2.30000000000001,0,0,0,0,1.76,0,2.03,6.09,3.53,1,0,5.05,6.85,0
12.15,"SEA MOUNTAIN 12.15","SEA MOUNTAIN","COOP","BI",21,19.13310292,-155.5152744,"USC00518600",NA,NA,NA,NA,0,5.3,0,0,0,0,12.4,2,48.5,5.1,0,0,0,0,0,0,0,0,0,0.690935800062858,0,2.85011017525929,4.56593864779157,0,0,0,0.431834875039286,0,2.15917437519643,3.98151945787194,0
14,"NAALEHU 14","KAU SUGAR","COOP","BI",206,19.06032754,-155.5855501,"USC00516588",NA,NA,NA,NA,22.1,4.6,0,16,0.8,3.8,0,4.6,56.1,16.3,0,0,0,0,0,0,0,0,0,0.8,0,3.3,3.41672838717453,0.439523495526842,0.244179719737134,0,0.5,0,2.5,4.8,0
21,"Pahala","KAU SUGAR","HydroNet-UaNet","BI",346.8624,19.2042999,-155.4872,"USC00517421","PPLH1","B16084B2",NA,NA,19.8119999999999,1.52400000000011,2.03199999999993,12.192,10.6680000000001,0.253999999999905,0,58.4199999999998,12.4460000000001,0.253999999999905,0,0,1.77800000000002,0,0,0,0,0,0,0,0.254000000000133,5.84199999999987,0,0,0,5.33400000000006,0,0,4.57199999999989,0,0
21.3,"PAHALA MAUKA 21.3","COOP","COOP","BI",332,19.20667,-155.48861,"USC00517437",NA,NA,NA,NA,17.7585930615874,16.5,1.8,11.8514409603493,5.29309284375733,1.58023701910075,5.52204820919536,29.9608865574852,42.9,9.1,0.8,0,0.830900140661087,0,0,0,0,0,0,0.461537999686216,0.178050030141753,5.99899494196372,6.1,0,0,0,0.288461249803885,0,4.64720679156922,5.1,0
21.4,"HAWAIIAN OCEAN VIEW 1.7 NNE, HI US","CoCoRaHs","CoCoRaHs","BI",733.03,19.0908,-155.7552,"US1HIHI0059",NA,NA,NA,NA,0.5,0,13.7,3.6,2.5,0,0,NA,13,1.3,0,0,1,0,0,0,0,1,0,0,0,1,0.8,0,0,0,0,0,0,0,1.5
23,"KAHUKU","RAWS","RAWS","BI",1796.4912,19.23222222,-155.78,NA,"KRCH1","32639544",NA,NA,3.04799999999989,4.30000000000007,10.4,9.10000000000002,1.29999999999995,1.29999999999995,0,12.4000000000001,28.1999999999999,15,6.30000000000007,0.799999999999954,0,0,0,0,2.29999999999995,0,0.5,1.01,0.25,4.31,0.25,3.8,0.25,18.03,21.32,0.25,32.77,6.35,0
26.2,"KEALAKEKUA 26.2","GREENWELL ESTATE","COOP","BI",442,19.48975723,-155.9122125,"USC00513977",NA,NA,NA,NA,8.77060292698624,8.44151513478133,9.39318778186618,9.4,9.9,9.9,3.14942222736189,0.234486531521616,2.93108164402136,0.975272034013679,0.8,38.1,7.9,0,0,1.28967592336941,5.1814729294865,0,0,2.5,7.73805554021627,0,1.19597473357393,0.781621771738999,3,0,61.7,9.37946126086823,24.3865992782571,8.90847540384602,0
27,"HONAUNAU 27","TANAKA S","COOP","BI",332,19.4403158,-155.8788789,"USC00511665",NA,NA,NA,NA,1,NA,3.47596080776283,9.05175722264212,10.8175848498717,2,5.57770455199152,NA,0,0.5,1,15.7,22.9,NA,NA,0,9.1,0,0,8.6,NA,NA,3.3,0,3.3,0,34,NA,NA,2.8,0
27.6,"Honaunau No. 2","NWS","HydroNet-UaNet","BI",398.0688,19.4629002,-155.8824,NA,"HAUH1","15D12742",NA,NA,0,27.9400000000001,0.253999999999451,6.35000000000036,7.8739999999998,5.33400000000029,0.253999999999905,0.25400000000036,3.80999999999949,18.288,24.6379999999999,30.4800000000005,0,0,0,4.57200000000012,0,0,10.6679999999997,14.7320000000004,7.36599999999953,4.31799999999976,0,1.27000000000044,0.253999999999905,42.9259999999999,21.5900000000006,16.0019999999995,18.288,19.5579999999995,0
28,"NAPOOPOO 28","KONA EXP STATION","COOP","BI",122,19.46864784,-155.9055458,"USC00516697",NA,NA,NA,NA,15.8358349472528,NA,2.44064839688842,6.35569788506432,7.59557503153678,6.14821377291691,3.91638928803026,NA,NA,NA,0.485358837196534,25.2720666931538,7.09166875159441,NA,NA,NA,NA,0,0,1.61451110638042,NA,NA,0,0,1.4795400492235,0,39.8461341054688,NA,NA,NA,NA
29.12,"Kealakekua","NWS","HydroNet-UaNet","BI",537.972,19.5181007,-155.9159,NA,"KLEH1","81708572",NA,NA,0.761999999999944,9.14400000000001,16.2560000000001,11.1759999999999,19.3039999999999,10.922,0.254000000000133,0.253999999999905,6.35000000000014,1.52399999999989,47.2440000000001,8.12799999999993,0,0,0,2.7940000000001,0.507999999999811,0,2.28600000000006,8.63599999999997,8.38200000000006,0,0,2.53999999999996,0,52.0699999999999,24.384,10.1600000000001,26.4159999999999,16.0020000000002,0
34,"Kapapala Ranch","NWS","HydroNet-UaNet","BI",638.556,19.2754993,-155.4514,"USC00513300","KAYH1","B16097C4",NA,NA,24.1299999999999,2.54000000000019,9.39799999999991,12.4459999999999,1.52399999999989,0,0,78.4860000000001,18.796,0,0.253999999999905,0,1.01600000000008,0,0,0.253999999999905,0,0,0,0,1.27000000000021,9.14400000000001,0,0,0,2.03199999999993,0,0,2.03199999999993,0,0
36.3,"KAPAPALA RANCH","KAPAPALA RANCH","RAWS","BI",1081,19.25811,-155.441781,NA,"KPRH1","AA10E258",NA,NA,3.30000000000007,1.5,1.19999999999993,6.70000000000005,0,0,0,61.1999999999999,19.3000000000001,0.199999999999932,0.300000000000068,0,0,0,0,0,0,0,0,0,0.25,4.83,0,0,0,0,0,0,2.53,0,0
38.9,"KAELAKOMO","KAELAKOMO","RAWS","BI",29.5656,19.29277778,-155.1075,NA,"KMOH1","32807432",NA,NA,2.79400000000004,0,8.90000000000003,4.572,0.200000000000045,0,0,10.1600000000001,42.4,0,0,0,0,0,0,0,0.199999999999932,1.10000000000002,0,2.28,1.78,1.52,0.25,0.25,0,0,0.76,0.25,30.47,0.25,1.01
39,"Mauna Loa Observatory","NWS","ESRL/GMD","BI",3397,19.5362,-155.5763,"USC00516198","MOBH1",NA,NA,NA,NA,0,0,NA,NA,NA,NA,NA,8.6,2.3,16.8,0,NA,NA,NA,0,0,0,0,NA,NA,NA,0.3,0,0,0,NA,NA,NA,17.5,0
39.1,"Mauna Loa Upper","NWS","STATE","BI",3341,19.53863295,-155.5722206,NA,NA,NA,NA,NA,NA,0,0,NA,NA,NA,NA,NA,6.73315105634929,1.80072644530272,13.1531322961242,0,NA,NA,NA,0,0,0,0,NA,NA,NA,0.234877362430789,0,0,0,NA,NA,NA,13.7011794751294,0
39.2,"MAUNA LOA 5 NNE","MAUNA LOA 5 NNE","USCRN","BI",3398,19.5354,-155.576,"USW00021514","MLBH1","CD07379A",NA,NA,0,0,0,0,0,0,0,11.5,1.4,14.5,0,0,0,0,0,0,0,0,0,0,30.2,0,0,0,0,0,0,0,18.5,0,0
43.3,"PUHE CS","PUHE CS","RAWS","BI",34.126,20.025,-155.8211111,NA,"PHRH1","32D61558",NA,NA,0,0,0,0,0,0,0,0,1.7,0,0,0,0,0,0,0,0,0,0,0,0,0,0,1.27,0,0,0,0,0,0,0
47,"KEMOKU LAVA FLOW","RAWS","RAWS","BI",1706.88,19.47555556,-155.3627778,"USR0000HKEA","KKUH1","FA4447E8",NA,NA,1.52399999999994,0.508000000000038,7.87399999999997,5.08000000000004,0,0,0,112.014,10.414,0.761999999999944,0,0,0,0,0,0.762,0,0,0,0,1.27000000000004,5.58799999999997,0.254000000000019,0.507999999999981,0.253999999999962,0,0,0,1.52400000000006,1.01599999999996,5.07999999999998
48,"PALI 2","RAWS","RAWS","BI",847.344,19.3175,-155.2922222,"USR0000HPAL","PLIH1","FA900222",NA,NA,0,0,2.80000000000007,7.29999999999995,0.299999999999955,0,0,58.1,13.2,0,0,0,0,0,0,0,0,0,0,0,0,1.26,0,0,0,0,0,1.02,6.84,0,0
49,"KEAUMO","RAWS","RAWS","BI",1682.496,19.47361111,-155.3588889,"USR0000HKMO","HKMO",NA,NA,NA,1.5,0.600000000000023,7.80000000000001,5.09999999999997,0,0,0,112.3,10.4,0.5,0,0,0,0,0,0.800000000000011,0,0,0,0,1.26,5.81,0,0.5,0.25,0,0,0,1.52,1.02,5.07
54,"HAWAII VOLCNS NP HQ 54","HAW VOL NATL PARK","COOP","BI",1210,19.429741,-155.257146,"USC00511303",NA,NA,NA,NA,1.26058533557921,0.699594672776455,1.97841433388114,4.55664748896709,0.0874493340970569,0.949120448367839,0,52.1706276577487,14.407056529505,1.70436368366051,0.296096255689582,0.0986987518965367,0,0.148048127844789,0.160469970416121,8.60311370205512,2.77226846260357,4.98029006398376,5.32713544108466,8.18984360687371,6.09487796247931,5.41644162466257,3.42942197710185,3.39712126171824,4.12145786154286,5.83757343751467,4.45896819634188,7.92569090396988,8.74593138660422,7.12161019081973,25.7070791245528
54.2,"Glenwood","HELBUSH XL","HydroNet-UaNet","BI",802.2336,19.5076008,-155.1707,"USC00510744","GLNH1",NA,NA,NA,0,0,0,0,0,2.26221323702107,1.84878518694199,100.62539821464,28.9943716131314,1.19839141506156,0,0,0,0,0.3,9.33041885357353,3.64086000461088,8.6,8.62397661686933,10.9,12.8327857133975,15.6175207083913,2.29229880812429,2.65167596403739,5.8,7.6,6.07251526506498,4.18556092137125,18.6842050532903,15.8341306102433,50.1513687651026
54.8,"Thurston","Thurston","HavoNet","BI",1202,19.41528,-155.23833,NA,NA,NA,NA,NA,2.032,2.032,5.08,4.572,0.254,0.762,0,100.836,22.352,0.254,0,0,0,0,0,4.572,2.032,3.302,2.286,8.382,6.35,5.842,0.254,1.524,0.762,3.81,4.064,2.54,10.668,7.366,8.128
54.9,"Ola a","Ola a","HavoNet","BI",1040,19.47833,-155.215,NA,NA,NA,NA,NA,1.51948045243306,0.843275262615757,7.81535995859745,3.41206896607622,0.10540940782697,1.68438969000669,0.584664935769124,114.497937269415,20.7362978787989,2.05440062490415,0.356907588768844,0.118969196256293,0,0.178453794384419,0.193426796558578,10.9828847700574,4.01783357381502,6.00312663179826,6.42120603955168,9.87184835321806,7.02835354972195,7.32404905919701,1.05716297787724,1.22730242824324,4.96791012824488,7.03647621275112,3.61542901067874,1.23254787265412,10.291267050633,11.347338102426,37.3415057012485
55.4,"GLENWOOD NO 2 55.4","COOP","COOP","BI",671,19.52194,-155.14389,"USC00510746",NA,NA,NA,NA,1.37547788323058,2.99307515388316,21.6956966030523,3.93596754926438,10.1016286443557,2.73296039365319,1.17125223596416,31.7629634383687,23.6178442257453,0.409051898738901,0,0,1.68360477405928,1.16916998198561,3.22261532691769,9.83215745510057,3.41145608372174,7.21691129494322,9.65345299867993,11.4284168715411,10.1845890832097,11.3118912422388,2.93217995802759,14.2681934744333,5.92557421932625,16.8140409296894,8.91121732889787,20.9127081468825,18.4587128605297,3.86433227597102,66.5034393240346
55.6,"VOLCANO 4.0","COOP","COOP","BI",1194.8,19.441359,-155.2487445,"US1HIHI0071",NA,NA,NA,NA,NA,NA,NA,NA,NA,NA,NA,NA,NA,NA,NA,NA,NA,NA,NA,NA,NA,2.5,4.3,7.6,7.4,1.3,6.6,1.8,0.3,1.5,6.4,1.3,13.2,4.6,19.1
63,"KALOKO-HONOKOHAU","RAWS","RAWS","BI",7.62,19.67277778,-156.0202778,NA,"KHOH1","FA667668",NA,NA,0,0,0,1.5,3.59999999999999,0.699999999999989,0,0,15,1.30000000000001,0,1.19999999999999,0,0,0,0,7.9,0,0.76,13.71,23.11,0.51,0,0,0,0,30.98,1.27,0,1.27,0
65.4,"PAHOA 2.1 E","PAHOA 2.1 E","CoCoRaHS","BI",137,19.5043,-154.9165,"US1HIHI0003",NA,NA,NA,NA,11.2,3.3,2.8,16.5,0.5,0,0,24.6,63.5,8.1,0.3,2.3,2.8,0.8,1,0.5,8.4,1.3,24.4,9.4,18.3,7.1,3,4.6,0.8,2.3,6.6,9.1,5.3,11.7,35.3
65.6,"KURTISTOWN 6.6 SSE, HI US","CoCoRaHs","CoCoRaHs","BI",339.63,19.5021,-155.029,"US1HIHI0055",NA,NA,NA,NA,4.6,2,1.3,18,4.3,0,0.5,30,60.7,43.9,0.8,1,0,0.8,0.8,0.3,3.3,8.6,10.9,8.4,15.2,5.1,13.7,2.8,0.8,3.8,16.5,10.9,6.9,6.1,33.8
67.7,"PAHOA 2.7 SSE","PAHOA 2.7 SSE","CoCoRaHS","BI",259,19.4654,-154.927,"US1HIHI0051",NA,NA,NA,NA,3.6,1.5,3.3,11.2,1,0.5,1.5,22.4,48.5,1.3,0.5,0.8,1.3,0.5,1,0.3,5.8,6.9,11.4,6.6,13,15.2,6.6,7.1,0.5,1.3,9.9,2.8,9.7,8.6,24.6
68.14,"HONOKOHAU HARBOR 68.14","COOP","COOP","BI",9,19.67944,-156.02333,"USC00511880",NA,NA,NA,NA,0,0,0,0,2.3,0,4.1,0,1.5,12.7,0,0,0,2,0,0,10.2,0,0,2,36.8,0,0.5,0,0,0,5.1,17.3,0.5,0,1
68.21,"KAILUA KONA KE AHOLE AIRPORT","KAILUA KONA KE AHOLE AIRPORT","NWS","BI",27,19.73556,-156.04889,"USW00021510","HKO",NA,NA,NA,0,0,0,3.8,0.5,0,0,0,0.5,0,0,0,0,0,0,0,NA,0,0,2,2.5,0,0,0,0,0,1.5,11.4,0,0,0
69.27,"KALAOA 1.7","KALAOA 1.7","CoCoRaHS","BI",304.5,19.7238,-155.9926,"US1HIHI0006","","",NA,NA,0.5,6.1,1.3,11.2,19.6,7.6,0.5,0,0,9.9,0,9.7,0,0,0.3,0,12.2,0.5,1.5,2,18.5,0.3,0,0,0,2.8,3,5.3,6.4,7.9,0.8
70.16,"Waiaha Stream","NWS","HydroNet-UaNet","BI",460.5528,19.6331997,-155.9486,NA,"WIHH1","9321011E",NA,NA,10.9220000000003,8.63599999999974,5.58799999999997,32.7660000000001,27.9399999999998,3.81000000000017,0.254000000000133,0,18.0339999999999,5.08000000000015,25.6539999999998,1.52400000000011,0,0,0.508000000000038,0.508000000000038,8.38199999999983,0,2.03200000000015,25.654,3.30199999999991,0,0.254000000000133,12.4459999999999,0.507999999999811,14.4780000000003,52.578,25.1460000000002,15.2399999999998,4.06399999999985,0.253999999999905
73.29,"Kainaliu Upper","NWS","HydroNet-UaNet","BI",713.232,19.5310993,-155.9066,NA,"KNUH1",NA,NA,NA,8.50641692115984,8.18724183280352,9.11024842379387,9.69892757449522,13.366153687542,9.41538473176075,3.05455608351361,0.227423384244457,2.84279230305684,0.945895122824657,14.5861956639881,27.7284807172014,7.10024557142374,0,0,1.25082861334503,5.02539783990211,0,0.682270152733644,6.40859654425563,7.50497168006994,0,1.15994986840075,0.758077947481795,1.48132943743056,15.540597923377,39.1757093872347,9.09693536978177,23.6520319614323,8.64013643621321,0
73.34,"Kainaliu","SCAN","SCAN","BI",416,19.53333333,-155.9333333,NA,NA,NA,2096,NA,2.032,1.27,0.508,17.526,20.066,17.018,4.826,0.254,0,2.54,0.762,26.162,4.572,0,0,0.254,0.508,0.762,0,1.524,11.684,6.604,0,0,2.54,0.254,10.414,21.336,7.874,46.482,1.778
74.8,"KEALAKEKUA 4 74.8","COOP","COOP","BI",433,19.5106,-155.9217,"USC00513987",NA,NA,NA,NA,27.9,9.60471910919752,4.3,11.7,15.5,10.4,6.9,0.266797753033164,3.33497191291588,1.10966026740409,0.8,45.7,16,0,0,1.46738764168301,5.89545730417243,0,0,7.51813259565974,8.80432585009778,0,0,0,1.8,18.2311797906064,45.9582961212099,10.6719101213307,27.7469663154594,10.1360244670523,0
75.1,"PTA KIPUKA ALALA","RAWS","RAWS","BI",1641.348,19.66694444,-155.7077778,"USR0000HPTK","PKAH1","32666200",NA,NA,0,0,3.30000000000001,1.29999999999998,2.286,0.299999999999983,0.200000000000017,1.29999999999998,17.8,11.2,0,0,0,0,0,0,0,0,0,0,0,0.5,0.25,0,0,0,0,0,7.37,0.25,7.87
79,"KULANI CAMP 79","DEPT SOCIAL SVC","COOP","BI",1576,19.54863532,-155.3005575,"USC00515011",NA,NA,NA,NA,1.34973486351774,2.05133009897025,6.74229243309924,6.6497103386335,5.05777444916977,0.162488467864606,0.0497824961170961,58.9118471315767,10.089856556678,2.58515944803822,0.557706219567009,0.104742918442062,0.811482996582068,0.720644236400623,1.59246174550918,7.75250842007512,2.19960128728314,4.24206145221164,2.54932532132777,5.1041342845514,4.61165084143444,4.31373701983738,3.99745402420596,3.04832835935449,5.5798519836091,7.77605508645359,3.47897850106647,7.4830025412512,6.19974403364238,5.38484112303634,25.6189848599188
79.6,"Kulani NWR","NWS","HydroNet-UaNet","BI",1623.3648,19.5543995,-155.3089,NA,"KNWH1",NA,NA,NA,1.93050038218037,0.792379251292738,3.11906925911942,4.90031554349206,0.247497988701313,0.297142219234777,0.744101132335158,116.936679691682,19.4847553535705,2.85810601657326,0.335366375022218,0.111788791674083,0,0.167683187511106,0.181752491780228,10.2541586179352,3.63477915074727,5.64080697821593,3.29949312727682,9.27603139066901,6.6041561639962,6.88200492441363,0.993357739804195,1.15322839683993,4.66807112982038,6.61178858241862,3.39721922317201,1.15815725162704,9.67013600652714,10.6624677236179,24.2937823750857
83,"QuarryRainGageatSaddleRd","USGS","USGS","BI",1286.256,19.68586111,-155.2942222,NA,"SDQH1","DDF6B6E4",NA,NA,2.92424723284389,1.20026541012061,4.72464534802472,7.42280825240454,0.374900370533375,1.40139522800015,0.0804812023051004,154.692893631717,34.544,7.36600000000001,1.52399999999997,0.508000000000038,0,0.761999999999972,0.50800000000001,31.75,10.668,10.668,9.14399999999998,15.748,16.51,17.526,4.06400000000002,2.54000000000002,13.716,15.24,7.11200000000002,0.762,21.082,18.288,42.926
85.2,"Waiakea Uka","NWS","HydroNet-UaNet","BI",303.8856,19.6585999,-155.1277,"USC00519084","WKAH1",NA,NA,NA,2.5,3.3,21.1,5.6,0,1.68607779503465,1.69642921220549,92.3329904560091,29.5822808761742,0,0,0,0,0,0,6.1,2.5,6.66617935361109,8.86655986767293,9.56348837932758,7.79103053128941,12.4928193890707,2.06904154269051,3.94467229354618,29.7,5.49467500559152,6.21950402055413,4.01107648923263,17.1106164809507,14.1957606604043,81.499994067149
87,"HILO INTERNATIONAL AIRPORT 87","NWS","HydroNet-UaNet","BI",11.6,19.7191,-155.053,"USW00021504","HTO",NA,NA,NA,0,1.5,2.8,5.8,0,0,1.8,35.6,13,1,0.3,0,0,0.5,2.5,0,4.6,6.1,5.8,6.6,9.4,15.7,2,2.3,10.4,4.1,3.6,5.8,14,13.7,73.9
87.5,"HILO 5 S","HILO 5 S","USCRN","BI",189,19.645,-155.0827,"USW00021515",NA,NA,NA,NA,2.9,0.2,28,4.1,0,0,3,81.5,39.8,0.8,0,0,0,0.2,0,2.3,2.2,4.9,7.5,12.4,2.4,9.9,3.5,6.9,4.4,4.7,8.3,1.2,18.6,15.2,69
87.8,"HILO 0.4 SW","HILO 0.4 SW","CoCoRaHS","BI",107,19.692,-155.0925,"US1HIHI0039",NA,NA,NA,NA,4.8,1.3,1,23.1,0.8,0,1.5,28.2,48.5,16.3,1.3,0,0,0,0,0.8,2,2.5,8.1,8.6,10.9,14.2,6.1,5.1,1,10.7,8.6,1.8,6.9,8.4,50
87.9,"IPIF","Hilo Forest Service","HIPPNET","BI",111,19.69748,-155.0954,NA,NA,NA,NA,NA,1.22766285613765,1.20892609428486,7.70705551728008,4.56796258842391,0,1.59363052862559,1.60341437992033,87.2703933491793,27.9602910669251,1.03934088246407,0,0,0,0.189171119510678,1.3858765996602,5.88203514279651,3.91577469863516,6.30067423845641,8.38040838365923,9.03912446171517,7.3638500789708,11.8078409108161,1.9555964601019,3.72838679859936,14.8569976302822,5.19340321044122,5.87849001348182,3.79115006716644,16.1724452263999,13.4174102951266,77.0313677166619
88.1,"KAUMANA 88.1","HILO SUGAR","COOP","BI",343,19.68362898,-155.1405634,"USC00513510",NA,NA,NA,NA,1.80426795967388,4.27055331341861,19.3928521928785,4.27273507489271,8.82396079605958,2.38729181400406,1.02311064644211,27.7455402504271,27.3681603329532,1.06642579520815,0,0,1.4706601326766,1.02129175880319,3.29897264922764,8.58857269248051,2.97997043843612,5.98718327268208,8.43247102085375,7.80161946290669,8.89642828480268,9.88114772033088,7.47029858724252,6.91021663211482,15.6971492334938,13.8025840267514,7.75063588864856,18.2676401325281,9.52594148495884,5.36122299060926,58.0919930892823
88.2,"WAIAKEA SCD 88.2","SHINICHI KANESHIRO","COOP","BI",287,19.65529741,-155.1205634,"USC00519025",NA,NA,NA,NA,1.80918019175328,4.28218016123269,19.4456504427959,4.28436786268852,8.84798457980926,1.3646106976118,1.02589612900377,27.8210792146634,27.4426718568213,1.06932920596454,0,0,1.47466409663488,1.02407228932978,3.30795430807143,8.61195561743356,2.98808359386011,6.00348375265217,8.45542894926738,7.82285985859816,8.92064936581139,9.90804976143451,7.4906369411806,6.92903012798932,13.6806291492782,13.8401624228379,8.61225649829684,18.3173749224149,9.55187645492713,5.37581925466089,58.2501521645347
89.11,"Piihonua","NWS","HydroNet-UaNet","BI",296.8752,19.7098007,-155.1395,"USC00518053","PIIH1",NA,NA,NA,1.3,0.5,7.58991966632851,1.8,0,2.3,0.6706655932869,87.847415209805,15.7535465838809,2.3,0,0,0,0,1.3,11.7,4.1,5.84966753183157,6.23285494094298,8.90174313193154,9.44218925447321,10.5578693814581,1.83693472645666,1.53930580011944,12.4074937729461,3.69134365409627,3.75342401525893,2.36573684097809,11.3812739243072,14.2803855283544,82.3
89.13,"KAIWIKI HOMESTEAD 89.11, HI US","COOP","COOP","BI",379.67,19.7509,-155.1362,"USC00512802",NA,NA,NA,NA,19.3,6.1,2,38.1,0.3,0,1.8,39.1,80.8,18.5,1.3,0,0,0.5,0,2.8,2.8,4.3,11.2,8.6,17,17.5,7.1,4.6,1.8,4.6,5.8,3.6,12.4,5.3,48.3
89.2,"AMAUULU 89.2","HILO SUGAR","COOP","BI",390,19.73529295,-155.1455638,"USC00510150",NA,NA,NA,NA,0,2.20737308495253,4.12042975857806,8.53517592848312,0,0,2.64884770194304,52.3883212162067,19.1305667362553,1.47158205663502,0.441474616990506,0,0,0.73579102831751,3.67895514158755,0,6.76927746052109,8.97665054547362,8.53517592848312,9.71244157379113,13.8328713323692,23.1038382891698,2.94316411327004,3.38463873026055,15.3044533890042,6.03348643220358,5.29769540388607,8.53517592848312,20.6021487928903,20.1606741758998,108.749913985328
91,"MOUNTAIN VIEW 91","PU SUGAR","COOP","BI",463,19.5487,-155.1101,"USC00516552",NA,NA,NA,NA,1.25507597570257,0,7.87915035042782,2.42657844535085,0,2.5,0.696222789789096,63.6925304805031,16.0742297535727,0.8,0,0,0,0,0.53851105126447,6.01337815105681,4.00321205936194,6.53292865754617,11.9,10.4,7.77998700826863,8.95962060620951,0.899103082651853,6.67685401491973,4.8,5.71484354898359,5.80934748956208,13.4071844969856,21.0262713800511,8.93917295931655,61.0792651940454
91.11,"PUNA MACADAMIA O 91.11","COOP","COOP","BI",244,19.61861,-155.08667,"USC00518315",NA,NA,NA,NA,0,0,0,0,0,1.53364088252113,0.657265402378486,17.8242536526447,0,0,0,0,0.94477955754551,0.65609691496216,2.11932169142266,0,5.6,0,6.9,5.01190616413092,5.71523181454161,6.34783398545352,0,13,0,8.1,5.51765239453303,11.7354734641507,26.7,0,50.8
91.12,"HAWAIIAN BEACHES 91.12","COOP","COOP","BI",88,19.533,-154.917,"USC00511300",NA,NA,NA,NA,0.336901470976617,2.94907282659737,7.70073519626096,6.40561293120747,5.84832873233004,0.193199371253548,0.671232341686166,18.2030203853379,17.9554326912872,4.10960644937898,0.391502374376695,0.951915100124117,0.964856194306889,0.840050350267968,2.7105504516428,1.43402871180279,1.56410420328241,4.50263064648132,4.01737658514545,4.31505560644755,5.83668092108846,6.48272593578168,4.43671483576311,4.53358677056397,4.07785525367194,9.05546318945536,4.92897867216728,11.9848531592138,6.24968573237901,6.57747634977379,45.0651338190706
91.14,"KURTISTOWN 91.14","COOP","COOP","BI",223,19.59,-155.083,"USC00515102",NA,NA,NA,NA,0.113088295769864,4.14783826268355,10.830998749766,9.00942363049696,8.14235729543021,1.21883622479731,0.944080853102874,25.6023465306648,6.21709523155132,0.478238094734717,0.550643752750164,0,1.35705954923837,1.18152151211623,3.6835377437738,2.01694549790597,2.1998952357797,6.33290012703934,6.5674971429732,8.38505373448374,8.20922706052623,9.11788221722248,6.24019026943699,11.5462106387983,5.65220595986024,12.8127721066733,7.15194096287719,16.8565632079651,21.213108433336,9.25114762491845,63.383611514052
91.17,"PAHOA BEACON 91.9, HI US","COOP","COOP","BI",148.5,19.5407,-154.9728,"USC00517460",NA,NA,NA,NA,NA,NA,NA,NA,0,1.5,NA,NA,NA,0,0,0,0,NA,NA,NA,NA,NA,10.7,NA,NA,NA,NA,NA,NA,NA,NA,NA,NA,NA,NA
91.8,"S GLEWNWOOD 91.8","COOP","COOP","BI",694,19.488,-155.149,"USC00518638",NA,NA,NA,NA,1.64553005245265,1.39357202351178,18.5438420758068,3.18148688506561,0,2.33592803524959,0.589152463772761,32.9085564887039,28.8381779103404,1.39310776430751,0,0,0,0,0.706041813873072,8.40378525049062,2.91585488230813,6.95437999699501,8.25104218449285,9.76814718235542,6.48797541948364,5.34945841017614,7.30957137257441,6.0505001149807,16.8873722314828,14.3713716761897,7.35124029897228,17.6653316389619,15.7771129671941,5.24587359346911,67.0738570395187
91.9,"Pahoa Beacon","NWS","HydroNet-UaNet","BI",187.1472,19.5149994,-154.9644,NA,"PHAH1",NA,NA,NA,0.992050494428994,0.976909681324548,6.22792177696395,3.69128178939626,0,1.28778185798829,1.29568799807052,37.7806801284409,31.0219912123854,0.83987116753913,0,0,0,0.152865505137686,1.11989994568698,4.75315828159726,3.16426143092336,5.69610868381976,11.5019495816643,7.30434080221479,8.41517040694065,9.17825741913976,4.3179514952236,3.6605430944033,12.0056510394245,3.65044133148924,4.94627104420685,4.5303783826238,10.3337004650591,8.52142136425044,61.6330184471481
92,"KEAAU 92","PU SUGAR","COOP","BI",87,19.62918887,-155.0333418,"USC00513872",NA,NA,NA,NA,0.310334246632329,2,0.8,10.4,5.38714386121459,0.177964142317357,0.618300604234785,16.7675748085672,15.8534373006532,3.47232365655899,0.8,0.876849408221967,0.888769999432703,0.773806038388381,2.41243491509387,3,0,5.6,3.53681264543997,3.97478089638988,5.3764145678218,5.97151405594278,8.9,7.82357301219216,0.724976810347381,8.8959984200709,4.90497656329019,11.0397570108023,9.74430012990908,3.6,50.8
92.5,"KiholoRainGage","USGS","USGS","BI",283.96692,19.82580556,-155.8925833,NA,"KIRH1","DD60236E",NA,NA,1.524,0,0,0,0,0.761999999999997,0,0,8.89,7.874,6.35,0.253999999999991,0,0,0,0,0,0,0,9.14400000000001,2.53999999999999,9.14400000000001,0,0,1.016,0,1.26999999999999,1.27,10.668,0,0
93.11,"KAPOHO BEACH 93.11","ARRUDA GENVIEVE","COOP","BI",4,19.48892483,-154.8200037,"USC00513368",NA,NA,NA,NA,4.44193642150996,1.28152014828987,1.06277089754368,10.3677969916556,0.338032270330712,0,0.357849058753581,13.9687907031444,30.2622416521237,6.27293335018218,0.398443514317052,0.677025419379157,0.824204858374626,0.23548710239275,0.294358877990938,0.338032270330712,2.94974665346199,0.979081639310854,9.11474154024823,4.81864138996868,7.98713729417685,5.47758578993623,2.33832947290404,2.57073763852049,0.474053141561804,3.22968203848804,3.99443653159406,3.10808466022183,3.20620772361844,5.44795360151403,22.3191703515328
93.12,"PUUANAHULU","RAWS","RAWS","BI",830.58,19.83277778,-155.7697222,NA,"PULH1","48703040",NA,NA,1.80000000000001,0.300000000000011,4.5,4.572,5.58800000000002,0.762,0,0.300000000000011,25.9,6.10000000000002,0.254000000000019,0,0,0,0,0,0,0,0,0.51,0,0,0,0,0,0,0,0,2.79,1.27,0
93.13,"Mamalahoa","Hilo Forest Service","HIPPNET","BI",636,19.80256,-155.85062,NA,NA,NA,NA,NA,0.218406333157681,0,25.0075251465489,2.7300791644704,10.8111134913028,5.02334566262556,0,0,47.1757679620485,2.51167283131278,34.398997472327,0,0,0,0,0,0,0,0,5.26359262909893,0,6.10445701175581,0,4.43364856309993,21.0762111497115,0,15.2447620544027,0,0.54601583289408,0,0
93.61,"PAHOA 4.7 NE, HI US","CoCoRaHs","CoCoRaHs","BI",53.95,19.5473,-154.8988,"US1HIHI0065",NA,NA,NA,NA,5.1,1,3,10.4,0.3,0,0.5,31.2,31.5,0.3,0,4.8,0.8,0.5,0.3,0.3,0.3,6.9,17.8,6.6,8.9,9.7,2,4.6,3,2.5,12.2,7.6,6.4,4.8,29.5
93.62,"PAHOA 5.7 NE","COOP","COOP","BI",27.4,19.5565,-154.8865,"US1HIHI0070",NA,NA,NA,NA,1.3,0.3,3.3,6.9,0.3,0,0.5,26.2,19.3,0,0,4.3,0.5,0,0.3,0,2.3,1.5,13.2,5.8,9.1,7.9,2.5,2.8,6.4,6.4,9.1,3,5.1,5.1,29.7
93.63,"HAWAIIAN PARADISE PARK 2.4 E","COOP","COOP","BI",10.1,19.594568,-154.936038,"US1HIHI0072",NA,NA,NA,NA,2.8,0.8,0.5,5.1,2.5,0,0,21.3,25.7,11.4,0,1,0.8,1.5,0.5,0,5.8,5.8,7.6,5.8,0,5.1,2,8.6,1.5,0.5,12.7,14,8.4,2.5,57.9
93.64,"KEAAU 5.5","COOP","COOP","BI",18,19.613803,-154.955684,"US1HIHI0068",NA,NA,NA,NA,2.3,1.3,0.5,5.6,0,0,0,20.3,25.9,5.6,0,0.8,0.3,0.5,1,1.3,2.5,6.1,9.9,5.6,8.9,3.6,1.8,4.6,0.8,0,17.5,9.1,11.9,5.1,66
93.8,"KONA VILLAGE 93.8","KO VILLAGE RES","COOP","BI",12,19.8314012,-155.9858256,"USC00514765",NA,NA,NA,NA,0,2.3,0,0,6.4,2.5,0.8,0,1.3,0,15.2,8.6,0,0,0,0,0,0,0,0,0,0,0,0,0,0,0,0.3,0,0,0
94,"KAUPULEHU LAVA FLOW","RAWS","RAWS","BI",372.1608,19.80333333,-155.9180556,NA,"KPLH1","4870E628",NA,NA,3.10000000000002,0,0,0,0.199999999999989,4.30000000000001,0,0,42.5,0.699999999999989,0.800000000000011,0,0,0,0,0,0,0,0,3.56,0,0,0,0,2.03,0,0,0.25,4.57,0.25,0
94.5,"PUU WAAWAA","RAWS","RAWS","BI",708.9648,19.795,-155.8452778,"USR0000HPUW","PWWH1","487046D0",NA,NA,0.200000000000045,0,22.9,2.5,9.89999999999998,4.60000000000002,0,0,43.2,2.30000000000001,31.5,0,0,0,0,0,0,0,0,4.82,0,5.59,0,4.06,19.3,0,13.96,0,0.5,0,0
95.11,"WAIKOLOA VILLAGE 2.7 ENE","WAIKOLOA VILLAGE 2.7 ENE","CoCoRaHS","BI",265,19.9465,-155.7883,"US1HIHI0047",NA,NA,NA,NA,0,6.1,0,0,0,0,0,0,0.5,6.9,2.5,0,0,0,0,0,0,0,0,0,0,0,0.3,0.3,0,0,0,0,0,0,0
95.6,"WAIKOLOA","RAWS","RAWS","BI",297.7896,19.92416667,-155.7936111,NA,"WKVH1","4870C0C4",NA,NA,10.2,0,0,0.299999999999983,1.70000000000002,0,0,1.29999999999998,6.40000000000001,19,0,0,0,0,0,0,0,0,0,0,0,0,0,0,0,0,0,0,0,0,0
95.8,"WAIKOLOA 95.8","BOISE CASCADE","COOP","BI",268,19.93389178,-155.7877744,"USC00519142",NA,NA,NA,NA,0,12.2,0,0,0,0,0,0,3.8,8.6,35.1,0,0,0,0,0,0,0,0,0,0,0,0,0,0,0,0,0,0,0,0
95.9,"WAIKOLOA BEACH RT 95.9","COOP","COOP","BI",24,19.91278,-155.87778,"USC00519144",NA,NA,NA,NA,0,0,0,0,38.1,2.8,0,0,0,0,0,0,0,0,0,0,0,0,0,0,0,0,0,0,0,0,0,0,0,0,0
98.1,"PUUKOHOLA HEIAU 98.1","ROSE FUJIMORI","COOP","BI",43,20.02666416,-155.81944,"USC00518422",NA,NA,NA,NA,0,6.9,0,0,0,0,0,0,0,5.1,0,0,0,0,0,0,0,0,0,0,0,0,0,0,0,0,0,0,0,0,0
98.2,"PUHO CS","PUHO CS","RAWS","BI",29.5656,19.42194444,-155.9075,NA,"PERH1","32D6803A",NA,NA,0,0,3.5,2.60000000000002,3,6.09999999999991,1.30000000000007,0,3,0,8.19999999999993,17,0,0,0,0,0.200000000000045,0,0,1.02,0,0,0,0.25,0.76,2.03,17.78,2.02,3.3,6.61,0
98.91,"HOLUALOA 0.95","COOP","COOP","BI",527.3,19.6225861,-155.927558,"US1HIHI0067",NA,NA,NA,NA,10.2,9.7,86.4,11.9,NA,34.3,16.8,0.3,0,NA,42.4,64.8,2.8,NA,1,8.9,6.4,5.3,0,2.3,26.2,1.8,0.8,1.5,5.6,0.5,118.9,31.5,11.4,9.4,8.9
99,"PTA WEST","RAWS","RAWS","BI",1307.592,19.77166667,-155.7022222,"USR0000HPTW","PKWH1","32667176",NA,NA,0,0,1.79999999999995,13.2,3.5,1.09999999999997,0,1,9.10000000000002,0.800000000000011,0,0,0,0,0,0,0,0,0,0,0,0.25,0,0,0,0,0,0,0.76,1.27,0.25
100,"Waikii","PARKER RANCH","STATE","BI",1417,19.82,-155.6508,NA,NA,NA,NA,NA,0,0,0.378414941780076,52.2969449540064,19.0721130657158,0,0,1.13524482534023,9.99015446299399,0,0,0,0,0,0,1.016,0,0,0.227048965068054,0,0,4.02633498054,0.189207470890038,0,0,0,0,0,0,0,0.385983240615677
101.1,"PTA KEAMUKU","RAWS","RAWS","BI",1025.9568,19.90222222,-155.6786111,NA,"PKMH1","328FB7BE",NA,NA,0,0,0.5,69.1,25.2,0,0,1.5,13.2,0,0,0,0,0,0,0.5,0,0,0.300000000000011,0,0,5.32,0.25,0,0,0,0,0,0,0,0.51
102.8,"AUHMOA","RAWS","RAWS","BI",2001.9264,19.83638889,-155.6130556,NA,"AHMH1","4870D3B2",NA,NA,0,0,0,0,0,0,0,0,0,0,0,0,0.300000000000011,0,0,0,0,0,0,0,0,0,0,0,0,0,0,0,2.01,0.75,0
103.3,"Mana House","Mana House","SCAN","BI",1288,19.96,-155.54,NA,NA,NA,2097,NA,1.27,0,0.254,1.016,0,0,0,2.032,47.752,0,0,0,0,0,0,0.508,0,0,0,0,0,0,0,0,0,0,0,0,0,0,3.81
104.1,"Silversword","Silversword","SCAN","BI",2835,19.77,-155.42,NA,NA,NA,2101,NA,1.016,0,0,1.524,0,0,0,0,122.936,4.064,25.146,0,0,0,0,0,0,0,0,0,0,0,1.524,0,0,0.508,0.254,0,0,5.334,6.35
107.4,"PTA EAST","RAWS","RAWS","BI",1959.864,19.68277778,-155.5452778,"USR0000HPTA","PTAH1","3266D18E",NA,NA,0.199999999999989,0,3.59999999999999,0,0,0,0,16,0,21.6,0,0,0,0,0,0,0,0.699999999999989,0.300000000000011,0,1.77,2.03,0.25,0,0,0.25,0,0,3.55,0,0.76
109,"PTA RANGE 17","RAWS","RAWS","BI",1734.312,19.74583333,-155.6261111,NA,NA,"3279630C",NA,NA,0.199999999999989,0,0.5,2.09999999999999,1.20000000000002,0.299999999999983,0,0,1.80000000000001,0,0,0,0,0,0,0,0,0,0,0,0,1.52,0,0,0,0,0,0,28.71,1.27,NA
113.2,"PUU MALI","RAWS","RAWS","BI",2165,19.92666,-155.44,NA,"PMLH1","3181742E",NA,NA,0,0,1.10000000000002,3,0,0,0,11.4,0,0,0,0,0,0,0,0,0,0,0,0,0,6.86,0,0,0,0,0,0,0,0,0
125.12,"Pua Akala","SCAN","SCAN","BI",1949,19.8,-155.3333333,NA,NA,NA,2098,NA,3.76650092401171,0.94476545650013,0.400107463337101,9.26352481542977,0.162367833409547,0,0.454575222150144,9.18416602410602,98.4087848204376,7.48777708232229,16.9242590955153,0,0,0.0606608220231283,0,0.465671943525189,0.654628953818695,0.915343507510374,2.63426223279924,2.39755804590126,3.77882745895237,4.35912005928264,2.82566287083782,1.36114685636018,0.37584313452785,2.57752881410234,2.22514873075798,0.720193434006782,2.59089119536124,5.47882083741063,17.9153263743195
127.5,"Laupahoehoe","Hilo Forest Service","HIPPNET","BI",1145,19.93217,-155.29129,NA,NA,NA,NA,NA,2.55019670105832,1.20602208390388,9.79083435295409,7.26772038844967,0.213462209633747,0.510217114062468,0.583105273214273,139.286165371686,11.13862340319,1.63654360719166,0,0,0,0,0,5.84079775713323,3.10205590440737,6.45568070069352,2.6139208010183,7.76819172992822,3.79576209762523,2.45930147904018,1.45776318303565,0.583105273214273,18.1467499703611,2.7524091550289,1.09229151239782,0.437328954910679,1.91594463370752,12.2583598764928,59.9985108052409
128.1,"Hakalau","Hilo Forest Service","HIPPNET","BI",1665,19.83873,-155.30797,NA,NA,NA,NA,NA,1.38182242427333,0.653482281980693,5.06508619543719,3.53789117936194,0.115664359492127,0.720832053645679,0.428044020596104,83.8260590303539,15.181427469467,2.14970357154123,0.261298651469334,0.0870995504897862,0,0.130649325734665,0.141611337750299,7.80831759752685,2.7097007600929,4.47129581701318,2.57077980651057,5.75635954559185,5.14558771621267,5.36207187150311,0.773968582331087,0.898530822925981,5.35645461369416,4.3794996569335,2.6469224939493,0.902371109863135,7.53442708101907,8.30759624405425,33.9678273536379
129,"HAKALAU","RAWS","RAWS","BI",1950.72,19.82111111,-155.3305556,"USR0000HHAK","HKUH1","8374D370",NA,NA,2.30000000000007,0,2.29999999999995,6.29999999999995,0.300000000000068,0,0,116,6.39999999999998,2.29999999999995,0,0,0,0,0,3,1,2.80000000000007,0.799999999999955,2.79,1,1.51,0,0,5.06,1,0.5,0,1.76,7.61,23.6
132.2,"Spencer","Hilo Forest Service","HIPPNET","BI",454,19.96358,-155.25014,NA,NA,NA,NA,NA,2.03328733432179,1.36952075179267,9.95960110650294,2.96921355620529,0.0738437376130285,1.47484346647002,1.49727980713719,77.8581199756601,12.4124465733734,1.91993717793902,0,0,0.147687475226074,2.80606202929552,0.36921868806521,6.93004508826164,6.26172969779727,9.90062649228917,6.63127608020239,9.84382856804561,4.87728064856977,2.12825493963403,1.47687475226079,0.590749900904328,17.3954342226512,5.33113231560324,1.22965972060081,3.04178149021232,1.45799261839871,17.3281315425586,76.5096099131541
132.3,"POHAKUPUKA","COOP","COOP","BI",82,19.9522,-155.185,"USC00518067",NA,NA,NA,NA,0.320074058117192,1.68585991460295,6.46267734096328,1.18010780460261,5.55621887056162,0.183549530382148,0.0562350910414026,28.8395326943928,14.2722833986711,0,0,0,0.91666396325337,0.636572196703729,2.01777318058539,1.41808875808369,2.94282922016404,2.78492971862242,2.16050439529904,3.38066193188733,3.81306845950117,1.08721176013378,1.59646951749677,3.56415459442381,3.23224511216247,7.27870341316498,2.4463966279029,9.51261056005934,1.8498067227667,5.80003601279767,28.0777707265667
132.4,"KAPEHU MAUKA 132.4","COOP","COOP","BI",335,19.95,-155.217,"USC00513329",NA,NA,NA,NA,0.499920600747124,2.6331284273442,14.3769418624469,6.57874467179638,8.67820495042009,0.286684250623957,0.0878330492069866,27.4178309776191,33.6471369855797,0,0,0,2.14759297530328,1.49138401062727,4.72731085991516,0.775519685526183,2.89849062383056,2.82165751749457,3.03489386761774,3.07297150498353,3.9181317224926,1.69810561800174,2.49351042366962,5.56681886836196,1.00121164227287,11.3685370328803,4.71277347358219,14.8576551746568,2.21004093293307,3.2862078551067,23.6184785653124
132.5,"KIHALANI 132.5","COOP","COOP","BI",302,19.97278,-155.23944,"USC00514459",NA,NA,NA,NA,0.297470731964384,0.0686470919917809,0.398101664123977,2.95304474537668,0.0686470919917809,0.0686470919917809,0.0686470919917809,49.4680404818524,28.0224762398703,0,0,0,0,0,2.00900796413216,1.32700554707992,3.59235958280869,2.93336465616371,2.23328441318038,3.34975505500938,3.62893705225207,1.3271771118411,1.3271771118411,0.869529831895891,3.5405308722141,3.13488386762466,0.53080221883198,1.51023602381918,0.828272950796348,6.36529034384982,35.7654052528312
133.1,"LAUPAHOEHOE 133.1","BARNARD EW","COOP","BI",140,19.98027372,-155.2305601,"USC00515427",NA,NA,NA,NA,0.268295353859238,0.623495701459891,5.37438223369556,3.53065392190549,4.65738372164762,0.153856537122245,0.0471378834605065,14.7144899674059,18.0576085690509,0,0.230543127199754,0,0.76837430636452,0.533593268308694,2.18150501345449,1.1420052265196,1.55555015419671,2.80796160473111,1.62875449205504,1.64918984354068,2.1027669901625,0.911332413569792,3.47612470366705,2.98757769918937,0.537326190299297,6.10122019684747,1.68615472785547,7.97374592414417,1.18607577535019,2.31016692583257,26.0770211688356
133.3,"Laupahoehoe","NWS","HydroNet-UaNet","BI",499.872,19.9792,-155.2372,NA,"LPHH1","B159741A",NA,NA,0,0,0.762,1.27,0,0,0,53.848,3.30200000000002,0,0,0,0,0,0,2.53999999999999,2.53999999999999,2.286,0.50800000000001,3.30199999999999,3.048,0,0,0,6.34999999999999,0,1.01600000000002,0,1.01599999999999,8.636,36.576
137.4,"WAILEA 137.4","WAILEA 137.4","COOP","BI",61,19.8875,-155.12528,"USC00519432",NA,NA,NA,NA,4.37902719717475,3.2291423473909,7.77069055829618,14.8737882624121,6.53150410212372,0.213710797333126,0.439125721921242,14.8621512902657,31.7448565572557,8.01008096533475,1.32283551197135,1.0529772106452,1.06729222387852,0.844966809827403,1.95670241044395,0.966644345239795,2.74193355027805,2.99603273213126,4.58731610393888,4.07598474471833,6.44971518508676,4.89857271641916,3.33264643018695,5.10470762228065,0.972771833860501,9.42963936213981,5.8631410881838,11.8230437897457,4.22152363446951,3.54991836765927,24.4917493326731
138.2,"KAHUNA FALLS 138.2","COOP","COOP","BI",424,19.86139,-155.16361,"USC00512595",NA,NA,NA,NA,1.3,0.3,11.9578881380067,22.7164783503951,0.3,0.3,0.3,30.5,68.6,12.5724357352427,0.94708200542461,0,1.6300568671232,1.29050312560613,2.98843758972587,1.80552810252269,9.9,7.6,8.6,7.1,8.9,5.8,5.8,3.8,0.3,13.7,8.95467349979874,6.6,1.3,8.1,58.4
138.3,"HONOMU 2.8 SW","HONOMU 2.8 SW","CoCoRaHS","BI",385,19.8494,-155.15,"US1HIHI0014",NA,NA,NA,NA,6.61297690622101,4.87648119289453,11.8237282477773,22.4616139289594,9.86353448960053,0.322734822995812,0.663144604323616,22.4440403847457,47.9394152746691,12.4313810123109,0.936456348417324,0,1.61176866708011,1.27602450231799,2.9549092229802,1.78527122695697,4.14072405352493,4.52445129380539,6.92752387481301,6.15533810895758,9.74002116227999,7.39756726517346,5.03278762316093,7.70886137472078,1.46902893786367,14.2401461621556,8.85420776538915,17.8545398378141,6.37512329720727,5.36090029297979,36.9861536449045
140.1,"PAPAIKOU MAUKA NO 2 140","MAU KEA SUGAR","COOP","BI",427,19.78695738,-155.1388973,"USC00517724",NA,NA,NA,NA,0.3,6.4,24.1,2.5,21.6,0.5,0,0.3,0,0,0,0,3.6,2.5,6.6,1.3,0,1.5,1.3,2.5,3.3,0,2,11.2,1.8,18.5,7.9,32.5,4.6,2.3,5.8
140.5,"KAUKU 140.5","COOP","COOP","BI",457,19.835,-155.149,"USC00513473",NA,NA,NA,NA,1.23277465535411,3.24302778498364,21.4167456290138,4.71864990920451,9.84449170721563,1.50293353669794,1.1298853952609,30.6411440655015,30.2243797021343,1.17772103664973,0,0,1.62414242397169,1.12787668331367,3.64326285596751,9.48490066555017,5.38744215270495,6.6120228169638,9.31250777768391,8.61581874959031,9.82488494664812,10.9123725145881,8.24992028116973,7.63138657374653,15.0673568568394,15.2430611126185,6.39501457345879,20.1741032247124,10.5200959421097,5.92073553226297,64.1546393847351
144.1,"PAPAIKOU 144.1","MAU KEA SUGAR","COOP","BI",61,19.78362447,-155.0922318,"USC00517711",NA,NA,NA,NA,0.29493305209387,0.3,0.5,3.881194817936,5.1197919607602,0.169132179984991,0.587615728194183,15.9354375747064,45.2,9.9,2.5,2.5,1.58131410438507,0.945875710359842,2.55580108474422,0,6.1,5.6,3,3.77752141085982,5.10959513820038,5.67516116977976,3,2.8,0.8,5.1,4.66155354737241,10.4918785628844,9.26071230945282,7.6,60.5
144.11,"PEPEEKEO 0.2 SSE","PEPEEKEO 0.2 SSE","CoCoRaHS","BI",178,19.8313,-155.1077,"US1HIHI0002",NA,NA,NA,NA,1.16298087458957,3.01537672611349,14.9001804723319,4.70615400596663,6.51004806860434,0.215059250471311,0.747180093591938,20.2626328180293,19.9870313832886,0.3784951079229,0.11354853237687,0,1.07402652821227,0.935099309664415,2.91528640486308,2.31046555730414,2.96229377805248,4.425516661463,4.47192965306562,4.80329008548777,6.49708234548115,7.21622524811675,2.62752367413539,5.04654733862772,9.96386815308546,10.0800593374553,4.2289488894716,13.3409002353672,6.9568173051805,7.65056687571985,42.5275369517797
144.12,"PAPAIKOU 1.1 N","PAPAIKOU 1.1 N","CoCoRaHS","BI",108,19.8095,-155.0988,"US1HIHI0011",NA,NA,NA,NA,0.44318648276276,2.33430453682705,10.8562659825728,9.9987746942067,7.69334794950073,1.21783314091177,0.882991397354715,23.9456733651265,23.6199771935318,0.755671085133215,0.134187698696623,0,1.26924712405429,1.42133723646438,3.84052070579233,0.656007650518961,4.62709648412247,5.22992137295338,7.27760911857353,6.73315529961253,7.67802550973495,8.5278835318395,3.10511591583499,5.96383378594829,2.56276130406896,11.9122628615679,7.00476771322567,15.7658110030299,8.2213242645589,9.04117333168264,50.2575611973068
147.1,"MIDDLE PEN 147.1","KAHUA RANCH","COOP","BI",421,20.10027112,-155.8322151,"USC00516270",NA,NA,NA,NA,0,69.9,0,0,0,0,0,0,0,0,45.7,0,0,0,0,0,0,0,0,0,0,0,0,0,0,0,0,0,0,0,0
147.2,"KOHALA RANCH","KOHALA RANCH","RAWS","BI",328.8792,20.08305556,-155.8325,NA,"KHRH1","4870B654",NA,NA,64.7,0.599999999999966,0,0.699999999999989,0,0,0,0.300000000000011,20.8,4.60000000000002,0,0,0,0,0,0,0,0,0,0,0,0,0,0,0,0,0,0,0,0,0
176.3,"Kahua Ranch HQ","KAHUA RANCH","HydroNet-UaNet","BI",987.552,20.1249008,-155.7884,NA,"KASH1","15D293C2",NA,NA,2.28600000000051,5.07999999999993,0,0.507999999999811,0.253999999999905,0,0,33.7820000000002,0.253999999999905,0.253999999999905,0,0,0,0,0,0.25400000000036,0,1.77799999999979,1.77799999999979,3.04800000000023,0.761999999999716,0,0,0.25400000000036,0,0,0,1.26999999999998,6.09599999999955,1.01600000000053,12.6999999999998
178.12,"PONOHOLO RCH 178.11","PONOHOLO RCH 178.11","COOP","BI",762,20.12554592,-155.7774941,"USC00518101",NA,NA,NA,NA,5.8,9.7,0,0,0,0,0,22.1,14.7,0,0,0,0,0,0,0,0.8,0,2,0,0,0,0,0,0,0,0,0,0,0,2.5
185.7,"KawainuiRainGagenearKamuela","USGS","USGS","BI",1237.488,20.08533333,-155.6811667,NA,"KWSH1","DDF6A592",NA,NA,3.81,0.508000000000038,5.84199999999998,0.508000000000038,0.253999999999962,1.77799999999996,2.03200000000004,88.646,16.256,6.60399999999998,0,0,0.507999999999981,9.65200000000004,1.27000000000004,10.922,13.208,10.922,6.09599999999995,13.462,4.57199999999995,4.82600000000008,5.07999999999998,2.03200000000004,9.14399999999995,7.11199999999997,0.508000000000095,1.52399999999994,0.253999999999962,6.34999999999997,76.4540000000001
189,"Waimea Plain","SCAN","SCAN","BI",927,20.01666667,-155.6,NA,NA,NA,2099,NA,0.762,0.254,0,0,0.254,0.508,0.762,0.254,5.08,1.524,0,0,0.254,0.254,0.254,0.254,0.762,0.508,0,0,0.254,0,1.016,0,0.762,0.508,0,0.254,0.508,0,0
191.1,"LALAMILO FLD OF 191.1","DOWALD","COOP","BI",799,20.01083015,-155.6763867,"USC00515260",NA,NA,NA,NA,NA,0,0,NA,NA,NA,NA,NA,0.5,0,0,NA,NA,NA,NA,NA,NA,0.3,NA,NA,NA,NA,0.3,0,0,NA,NA,NA,NA,0.5,0.3
192.7,"Kamuela Upper","NWS","HydroNet-UaNet","BI",948.5376,20.0319996,-155.6667,"USC00513080","KUUH1","817075F6",NA,NA,0,0,0,0,2.032,1.016,0,19.304,6.096,0,0,0,0.253999999999998,1.016,0.253999999999998,1.016,2.54000000000001,2.54,0.253999999999998,2.28600000000001,0,1.016,1.016,0,0.508000000000003,0.761999999999993,0,0,0,0.762,21.59
192.9,"PUUKAPU HMSTD 192.9","COOP","COOP","BI",916,20.0375,-155.6347,"USC00518386",NA,NA,NA,NA,1.3,0.8,0.3,0.3,0,0,0.3,12.7,3,4.1,0,0,0,0,1.3,0,1,NA,NA,NA,0,1,1,2,0.3,1,0,0.3,0,0,1
199,"KUKUIHAELE HIC 199","HONOKAA SUGAR","COOP","BI",299,20.11526922,-155.5822202,"USC00514928",NA,NA,NA,NA,0,0,0,0,0,0,0,35.8145229590431,26.4436979554225,0,0,0,0,0,1.02693972642418,0,0,0,0,0,0,0,0,0,0.385102397409066,0,0,0,0,0,8.21551781139341
201.3,"Kamuela 1","NWS","HydroNet-UaNet","BI",877.824,20.0394993,-155.6084,NA,"KMUH1","81706680",NA,NA,0.253999999999905,0,0,0,0,0.508000000000266,0,14.9859999999994,3.55600000000004,0.762000000000171,0,0,0,0.253999999999905,0,0.762000000000171,0.253999999999451,0.254000000000815,0,0.253999999999451,0,1.01600000000008,0,0.25400000000036,0.762000000000171,0,0,0,0,0.253999999999451,14.7320000000004
206.1,"KUKUIHAELE 206.1","COOP","COOP","BI",226,20.12167,-155.57417,"USC00514927",NA,NA,NA,NA,2.03426809922206,0,0.821617441566749,0.0674312653481908,0.0337156326740878,0,0,32.039250051539,6.5133176896649,16.4259043627855,0,0,0,1.0563652820144,1.40100781967645,0,0,0,0,0,0,0,0,0,0.901087622260689,0,0,0,0,0.586869601119114,25.6472192107328
214,"HAINA 214","HONOKAA SUGAR","COOP","BI",140,20.09193527,-155.4738903,"USC00510840",NA,NA,NA,NA,0,0,0,0,0,0,0,26.1393865709823,19.3000488660299,0,0,0,0,0,0.749516460816696,0,0,0,0,0,0,0,0,0,0.281068672806261,0,0,0,0,0,5.99613168653357
215,"HONOKAA TOWN 215","HONOKAA SUGAR","COOP","BI",326,20.08026947,-155.4672231,"USC00511856",NA,NA,NA,NA,2.80926066508931,0.742662510767138,0.0742662510767138,3.36452630948426,0.0742662510767138,0.123777085127856,0.0742662510767138,30.2314550121993,7.01818084726257,0.0742662510767138,0.0742662510767138,0,0,0,2.27338792436552,0,0,0,0,0.247554170255713,0,0,0.123777085127856,0,0,0.693151676715995,0,0,0,0.419897444169123,10.9769643888082
215.5,"Honokaa","NWS","HydroNet-UaNet","BI",591.9216,20.0656,-155.49,NA,"HNKH1","B15047DC",NA,NA,1.77800000000001,0,1.77799999999999,0,0,0,0,53.34,2.286,0,0,0,0,2.286,1.77800000000002,0,0,0,0,0,0,0,0,0,1.77799999999999,0,0,0,0,1.27000000000001,42.926
216.6,"HONOKAA 2.5 SSW","HONOKAA 2.5 SSW","CoCoRaHS","BI",757,20.0417,-155.4777,"US1HIHI0033",NA,NA,NA,NA,4.3,3,0.3,2.3,0.3,0.5,0.3,33.8,11.7,0.3,0.3,0,0,0,3.8,0,0,0,0,1,0,0,0.5,0,0,2.8,0,0,0,0,6.4
216.8,"KALOPA 216.8","COOP","COOP","BI",396,20.06111,-155.43528,"USC00512982",NA,NA,NA,NA,3.3,0,0,4.3,0,0,0,49,0,0,0,0,0,0,3,0,0,0,0,0,0,0,0,0,0,0,0,0,0,1.3,23.9
216.9,"HONOKAA 2.7 ESE","HONOKAA 2.7 ESE","CoCoRaHS","BI",333,20.0606,-155.43,"US1HIHI0034",NA,NA,NA,NA,2.8,0,0,5.8,0,0.170169339486103,0.102101603691662,24.9,17,0,0.102101603691662,0,0,0,1.5,0,0,0,0,0,0,0,0,0,0,0,0,0,0,0,6.9
217,"PAAUHAU 217","PAAUHAU SUGAR","COOP","BI",122,20.08360173,-155.4372236,"USC00517204",NA,NA,NA,NA,0,0,0,0,0,0,0,24.3850221710527,18.0047117105264,0,0,0,0,0,0.699212105263161,0,0,0,0,0,0,0,0,0,0.262204539473685,0,0,0,0,0,5.59369684210529
217.2,"PAAUHAU MAUKA 217.2","COOP","COOP","BI",341,20.07306,-155.44722,"USC00517209",NA,NA,NA,NA,3.3,0,0,1.99815860903865,0.0571702771268517,0,0,0,0,44.7,0,0,0,0,1,0,0,0,0,0,0,0,0,0,0,0,0,0,0,0,11.2
221,"PAAUILO 221","HAMAKUA MILL","COOP","BI",244,20.03860487,-155.3688913,"USC00517312",NA,NA,NA,NA,0,0,0,0,0,0,0,27.9,20.6,0,0,0,0,0,0.8,0,0,0,0,0,0,0,0,0,0.3,0,0,0,0,0,6.4
221.7,"PAAUILO 2.4 SW","PAAUILO 2.4 SW","CoCoRaHS","BI",613,20.019,-155.3988,"US1HIHI0050",NA,NA,NA,NA,4.3,0,0,2.5,0,0,0,29,16,0.5,0,0,0,0,1.8,0.3,0,0,0,2,0,0,0,0,0,2,0,0,0,0,6.9
222,"KUKAIAU 222","HAMAKUA MILL","COOP","BI",256,20.02693892,-155.3422253,"USC00514815",NA,NA,NA,NA,0,0,0,0,0,0,0,39.8487629605034,29.4223841213753,0,0,0,0,0,1.14261685908254,0,0,0,0,0,0,0,0,0,0.428481322155951,0,0,0,0,0,9.14093487266029
223,"OOKALA 223","LAUPAHOEHOE SUG","COOP","BI",131,20.01527222,-155.2838932,"USC00517131",NA,NA,NA,NA,0,0.833129519820735,1.55517510366537,3.22143414330684,0,0,0.999755423784882,39.9936649152927,22.1504530003773,0.55541967988049,0.166625903964147,0,0,0.277709839940245,1.96835491472767,0,2.55493052745025,3.38806004727099,3.22143414330684,3.66576988721123,5.22094499087661,8.72008897412369,1.11083935976098,1.27746526372513,5.99379181389201,2.27722068751001,1.99951084756976,3.22143414330684,7.77587551832686,7.60924961436271,45.6839600633798
249.1,"MAKENA GOLF CRS 249.1","MAKE GC","COOP","MA",30,20.6420893,-156.4388486,"USC00515842",NA,NA,NA,NA,NA,NA,NA,NA,NA,NA,NA,NA,NA,0,NA,NA,NA,NA,NA,NA,NA,NA,NA,NA,NA,NA,0,0,NA,NA,NA,NA,NA,NA,NA
250,"ULUPALAKUA RANCH 250","ULUPALAKUA RANCH","COOP","MA",579,20.648174,-156.398497,"USC00518760",NA,NA,NA,NA,NA,0,0,0,NA,NA,NA,NA,0,43.2,0,0,NA,NA,NA,0,7.6,0,0,NA,NA,NA,0,0,0,0,NA,NA,NA,0,2.5
250.2,"Ulupalakua Ranch","NWS","HydroNet-UaNet","MA",581.5584,20.6487999,-156.3981,NA,"ULUH1","8170531A",NA,NA,2.53999999999996,0,0,0,0,0,0,0,43.6880000000001,0,0,0,0,0,0,7.36599999999999,0,0,0,0,0,0,0,0,0,0,0,0.761999999999944,0,2.53999999999996,0
255,"KepuniGulchRainGage","USGS","USGS","MA",225.552,20.6195,-156.2518889,NA,"KPNH1","F000D4EA",NA,NA,0,0,3.048,23.114,0,0,0,0.254000000000019,1.26999999999998,0,0,0,0,0,0,1.27,0.254000000000005,0,0,0,0,0,0,0,0,0,0,0,18.288,0,NA
256,"WAIOPAI RANCH 256","HALEAKALA RANCH","COOP","MA",67,20.63014664,-156.2038592,"USC00519765",NA,NA,NA,NA,NA,NA,NA,NA,0,NA,NA,NA,NA,NA,NA,0,NA,NA,NA,NA,NA,NA,0,NA,NA,NA,NA,NA,NA,0,NA,NA,NA,NA,NA
258.6,"OHE'O 258.6","HALEAKALA TL PK","COOP","MA",24,20.662925,-156.04248,"USC00517000",NA,NA,NA,NA,14.5,3,0,NA,NA,0,2,7.6,20.3,2.5,NA,NA,NA,0,0,0,16.3,1.5,7.4,7.6,17.8,2.5,0.8,0,8.9,0,4.6,2.8,3.6,2.5,7.6
266,"KAUPO GAP","RAWS","RAWS","MA",1228.344,20.68416667,-156.1519444,"USR0000HKAU","KPGH1","FA45A6E0",NA,NA,0.237605798881029,0,0,0.237605798881029,0,0,0,8.08810285017363,1.75854647229205,0.115741072648671,0,0,0,0,0,2.88849796111947,0,0,0,0.346707160002823,0,0,0,0,0,0,0,0,2.9426341722821,3.38009223817941,1.42544008965286
267,"KULA HOSPITAL 267","KULA SATORIUM","COOP","MA",916,20.70013977,-156.3555187,"USC00515004",NA,NA,NA,NA,12.7,0,0,0.8,0,0.5,0,0,0.5,30.7,0.3,0,0,0,0,0,7.6,0,0,0,0,0,2.8,0,0,0,0,0,0,0,0
267.8,"KULA 1","KULA 1","RAWS","MA",1998.5736,20.68305556,-156.3216667,NA,"KLFH1","AA10F12E",NA,NA,0.299999999999955,0,0.700000000000045,0.299999999999955,0.700000000000045,0,0,0.600000000000023,35.3,0.200000000000045,0,0,0,0,0,1,0,0,0,0.5,0,0,0,0,0,1.27,0,2.78,7.88,6.33,0
276,"BIG BOG HN-164","HaleNet","HaleNet","MA",1650,20.72655556,-156.09225,NA,NA,NA,NA,NA,26.416,9.144,24.892,15.494,7.112,2.794,2.794,132.838,48.26,23.622,11.43,2.032,4.826,0,0.762,31.242,42.672,21.844,23.368,28.956,14.224,20.32,0,2.54,20.066,10.922,13.208,15.24,4.99863187747145,66.1357448403887,147.97618916201
277,"HORSHOE PU'U HN-163","HaleNet","HaleNet","MA",1930,20.73630556,-156.1071389,NA,NA,NA,NA,NA,9.69390220868322,4.91274363185737,12.0413412028079,11.7068732670373,2.60989674849164,1.02531657976457,2.89391109746346,85.7043220822842,31.2054185005265,9.70669369430692,4.50590933683518,0.745684785283325,1.7710013650479,0.519054032694135,2.87490195795192,11.4649035737311,20.4346775917359,14.3485706406642,14.5964018100102,17.47752142185,14.978009311633,23.7551444794291,2.07621613077654,3.31975453199718,18.1599611347108,8.26429878898978,8.58414013973938,11.6136626688769,29.0670258308716,28.4441609916386,153.432372064386
278,"TREE LINE HN-162","HaleNet","HaleNet","MA",2195,20.73422222,-156.1228889,NA,NA,NA,NA,NA,7.26746928587062,2.51176402812931,7.16981161251518,4.18565651886245,1.87475958962117,0.736512695922602,2.25689531802539,69.1747060622461,22.3506728695562,16.97091726172,3.62115953216082,1.24515748734923,2.08302902474531,0,0.200867098887982,14.6211580672388,19.5599825385552,14.779127059265,10.9237899151533,24.1544409179262,6.68892558197426,6.57276206802837,0,0.669556996293274,9.647930454078,8.35247252363084,4.29256711251312,8.37577216112078,3.44550932267187,26.6342296871705,51.6422746349275
278.1,"Lakes - Subalpine","Lakes - Subalpine","Little HaleNet","MA",2228,20.73492113,-156.1234398,NA,NA,NA,NA,NA,6.2115693134491,1.55271940800235,6.15119940486636,7.29597692517396,1.38315066650195,0.455296574197248,1.39516496091298,129.458394284538,18.599943890057,12.2100356613661,2.23852424912956,0.769730028368355,1.28768449501329,0,0.124171792962886,11.2806300575006,12.8389473605728,11.2288071931444,7.35075974838862,17.016954170856,4.88233212356298,5.19168598036373,0,0.413905976542953,9.74588824607118,5.91070166524993,3.02726410457443,5.17772523450936,4.67012766725478,18.2287360968627,37.2867784322272
278.11,"Puu Alaea - Cloud forest","Puu Alaea - Cloud forest","Little HaleNet","MA",1993,20.745673,-156.1425145,NA,NA,NA,NA,NA,4.81129992677599,1.66286909641468,4.74664738568061,2.77104011183995,1.24115153727634,0.487595246787134,1.49413775982073,45.7958947083689,14.7968689664448,11.2352966028192,2.39732483297897,0.824334564351758,1.3790326453411,0,0.132980521851037,9.67967995063344,12.9493416282414,9.78426053706209,7.2319025442702,15.9910218053039,4.42828526641753,4.35138125978781,0,0.443268406170122,6.38724227944013,5.52960719345226,2.84181838570251,5.5450323077169,2.28103870822087,17.6327222452468,34.1888575508177
278.12,"Puu Alaea - Forest line","Puu Alaea - Forest line","Little HaleNet","MA",2033,20.74567736,-156.1424321,NA,NA,NA,NA,NA,5.46973500277415,1.89043573257042,5.39623464477742,3.1502619509274,1.41100536455985,0.554323536077085,1.69861320812197,52.0631455286506,16.8218471824639,12.7728672147382,2.72540306186055,0.937146236828506,1.56775575104189,0,0.151179146202841,11.0043616169049,14.7214823945375,11.1232542452808,8.22160145596092,18.1794219919285,5.03430409507305,4.94687563637831,0,0.503930487342805,7.26134790987001,6.28634391493543,3.23072635927314,6.30387998391869,1.98343543154446,20.0457920991943,38.8676643935344
278.2,"Lakes - Forest line","Lakes - Forest line","Little HaleNet","MA",2182,20.735063,-156.1222481,NA,NA,NA,NA,NA,3.08830031310733,1.08008090490348,3.21256953282123,1.77243596774237,1.55758390980844,0.304636227649118,1.26282130303874,56.7281265193391,14.2668828188637,9.07778683506119,1.90943916579833,0.597352963272204,1.02624439688562,0,0.0830826075406685,8.92919175818325,10.6838281649158,7.75956311324581,6.49424410032237,15.7127720390911,3.13716232782959,3.08911479942333,0,0.276942025135562,6.7898352071576,5.0190404217352,2.26947781222412,3.75254427491798,2.60822167827466,14.0890624277108,24.7734932780089
278.3,"Lakes - Cloud forest","Lakes - Cloud forest","Little HaleNet","MA",2143,20.73575551,-156.1214124,NA,NA,NA,NA,NA,7.19858844187597,1.79944671304259,7.1286257473891,8.45530855657277,1.60293347764726,0.527643255875082,1.61685684491892,150.029349070087,21.5554772634677,14.1502118307681,2.59422602783376,0.89204022461444,1.49229771975908,0,0.14390270614775,13.0731235620571,14.8790576763852,13.0130660381764,8.51879637713891,19.7209502830513,5.65813529891445,6.01664552163611,0,0.479675687159166,11.2945110878956,6.84991288734716,3.5082967433869,6.00046641154719,3.70258333745054,28.6214448460917,55.4953731551801
278.4,"Lakes - Alpine","Lakes - Alpine","Little HaleNet","MA",2304,20.73450891,-156.1273482,NA,NA,NA,NA,NA,6.10279383271521,1.52552856595787,6.04348110718825,7.16821156389227,1.3589292707348,0.447323532082501,1.37073317376415,127.191350585477,18.274226227391,11.9962165068463,2.19932376064651,0.756250704602331,1.26513487946358,0,0.121997326931591,11.0830864263237,12.6141148583838,11.0321710712778,7.22203504372195,16.7189574365116,4.79683391899602,5.10077044681076,0,0.406657756438637,9.5752206376699,5.80719490509512,2.9742513968887,5.0870541781191,4.58834553516226,17.9095189341702,36.6338214990732
278.5,"Frisbee - Alpine","Frisbee - Alpine","Little HaleNet","MA",2320,20.73857613,-156.1365744,NA,NA,NA,NA,NA,8.58547010720602,2.97189349864824,8.09015452409798,5.03570842826507,2.31147272117085,0.908078569031406,0.908078569031406,43.1737082866836,15.6849934650879,7.67739153817462,3.7148668733103,0.660420777477386,1.56849934650879,0,0.12382889577701,9.01353117793061,12.0581770363379,9.11091460188557,6.73420809272413,14.8905309208744,4.12353378595056,4.05192225901991,0,0.412762985923366,5.94767675381278,5.14906351181887,2.64624644122348,5.16342708055839,NA,15.7139819702954,16.2331831851157
278.6,"Frisbee - Subalpine","Frisbee - Subalpine","Little HaleNet","MA",2191,20.74071537,-156.1350318,NA,NA,NA,NA,NA,5.24774642140796,1.81371261047686,5.17722906719356,3.02240892311827,1.35373987015841,0.531826377562234,1.62967518166006,49.9501686090184,16.1391344020276,12.2544818319838,2.6147928843937,0.899112261957564,1.50412855979296,0,0.145043557516973,10.5577508354066,14.1240126833517,10.6718182198001,7.88792868336018,17.4416121901742,4.8299874282392,4.74610724373083,0,0.483478525056576,6.96664691969392,6.03121335249526,3.09960769247966,6.04803772208643,1.90293792710289,19.2322358760492,37.2902245951965
278.7,"Frisbee - Forest line","Frisbee - Forest line","Little HaleNet","MA",2135,20.74195056,-156.1342138,NA,NA,NA,NA,NA,6.87113291689875,2.37478327245438,6.77880107102705,3.9573889003567,1.77251830325065,0.696346476277041,2.13381400040154,65.4022165274489,21.1317637581794,16.0453967729428,3.42367713987403,1.1772519788535,1.96942962340547,0,0.189912675348284,13.8237832906024,18.4932656180508,13.9731373364558,10.3280536196039,22.8371620920537,6.32414048647521,6.21431202858712,0,0.633042251160946,9.12177401999486,7.89696476684001,4.05846905223659,7.91899374278906,2.49161037514912,25.1817138980636,48.8259281449535
278.71,"Frisbee - Cloud forest","Frisbee - Cloud forest","Little HaleNet","MA",2087,20.73622225,-156.1341472,NA,NA,NA,NA,NA,6.72083313168294,2.32283704755947,6.63052096099013,3.87082461628119,1.73374607696836,0.681114530237572,2.08713875923977,63.9716025056276,20.6695256392989,15.69441830726,3.34878731530001,1.15150066219197,1.92635014102965,0,0.18575850824661,13.5214005999201,18.0887422470219,13.6674876618155,10.1021368371027,22.3376199351944,6.18580566334086,6.07837960311132,0,0.619195027488701,8.92224350696687,7.72422584260907,3.96969373174236,7.74577295473834,3.18634896144063,24.630886802151,47.7579053600791
278.8,"Puu Alaea - Alpine","Puu Alaea - Alpine","Little HaleNet","MA",2320,20.74402239,-156.1421477,NA,NA,NA,NA,NA,NA,NA,NA,NA,NA,NA,NA,NA,NA,NA,NA,NA,NA,NA,NA,NA,NA,NA,NA,NA,NA,NA,NA,NA,NA,NA,NA,NA,3.38840917674471,14.0405665826331,14.5044769549531
278.9,"Puu Alaea - Subalpine","Puu Alaea - Subalpine","Little HaleNet","MA",2075,20.74489428,-156.1421289,NA,NA,NA,NA,NA,3.68661551798151,1.2893315484226,3.83496016952343,2.115820768976,1.85934411497711,0.363655257043505,1.50747535544431,67.7184115303186,17.0308928085838,10.8364816961056,2.27936642994121,0.713081786368038,1.22506496623491,0,0.0991787064664106,10.6590983911243,12.7536711818666,9.26287047429857,7.75241351244077,18.7569029423616,3.74494386802907,3.68758779968578,0,0.330595688221369,8.10527128239632,5.99140965197395,2.7091575533475,4.47954750291297,3.12631482293294,15.7551924911521,33.8033252767212
280.1,"OheoGulchRGatdamnearKipahulu","OheoGulchRGatdamnearKipahulu","USGS","MA",128.016,20.66836111,-156.0522222,NA,NA,NA,NA,NA,9.33558471601572,1.95279511917962,0.336845541880724,NA,NA,0,2.10654998505707,23.7243485643172,18.1674144695503,7.53148306950346,NA,NA,NA,0,0,3.53687818974764,14.9087102014316,5.94486930233049,7.3170370937133,13.9558278497762,12.8815683459183,2.25423624670547,0.505774452142088,0,8.04080049689258,3.03160987692649,3.35733048899129,4.18427029930916,3.00581704204766,11.2367840301914,17.6049878868173
302,"MAALAEA BAY","NWS","STATE","MA",302,20.7903,-156.514,NA,"P36","15DF05C6",NA,NA,0,0,0,0,0,0,0,0,0,0,0,0,0,0,0,0,0,0,0,0,0,0,0,0,0,0,0,0,0,0,0
307.2,"POHAKEA BRIDGE 307.2","WAILUKU SUGAR","COOP","MA",50,20.81346495,-156.5071787,"USC00518060",NA,NA,NA,NA,0.555075837669175,0,0,NA,0,NA,NA,NA,0.503953247868373,0,0,0,NA,0,0,0,0,0,0,NA,NA,NA,0,0,0,0,0,0,0,0,0.0766838847012025
311.2,"Kealia Pond NWR","Kealia Pond NWR","RAWS","MA",3.6576,20.7975,-156.4772222,NA,"KPDH1","32B2C438",NA,NA,0,0,0,0,0,0,0,0,0,0,0,0,0,0,0,0,0,0,0,0,0,0,0,0,0,0,0,0,0,0,0
311.5,"Kihei 2","NWS","HydroNet-UaNet","MA",54.5592,20.7061005,-156.437,NA,"KHIH1","93202508",NA,NA,0,0,0,0,0,0,0,0,0,0,0,0,0,0,0,0,0,0,0,0,0,0,0,0,0,0,0,0,0,0,0
324.6,"KULA AG HN-119","HaleNet","HaleNet","MA",965,20.75788889,-156.3200278,NA,NA,NA,NA,NA,0,0,0,0,0,0,0,0,6.99936127231088,0,0,0,0,0,0,0.807618608343499,0,0,0,0,0,0,0,0,0,0,0,0,0,0,0
324.7,"Kula Branch Stn","NWS","HydroNet-UaNet","MA",944.88,20.7577991,-156.3217,"USC00515000","KBSH1","93220610",NA,NA,0,0,0,0,0,0,0,0,6.60400000000004,0,0,0,0,0,0,0.761999999999944,0,0,0,0,0,0,0,0,0,0,0,0,0,0,0
328.4,"PU'U PAHU HN-106","HaleNet","HaleNet","MA",960,20.75763889,-156.2775,NA,NA,NA,NA,NA,0.191027350647967,0,0.267047739021789,0.191027350647967,0.267047739021789,0,0,5.05333219925383,13.4668359820979,0.0762993540062378,0,0,0,0,0,0.53465340930841,0,0.0765783196386533,0,0.726796622486125,0,0.0765783196386533,0,0,0.153156639277307,0.484500897939501,0,1.06056102068647,3.69539942459297,3.56354934887668,0.45946991783192
333,"UKULELE 333","HALEAKALA RANCH","COOP","MA",1595,20.79179801,-156.2521891,"USC00518744",NA,NA,NA,NA,NA,NA,NA,NA,0,NA,NA,NA,NA,NA,NA,0,NA,NA,NA,NA,NA,NA,0,NA,NA,NA,NA,NA,NA,44.5,NA,NA,NA,NA,NA
337,"south rim","south rim","CraterNet","MA",2898,20.703948,-156.241101,NA,NA,NA,NA,NA,0,0,0,0,0,0,0,3.4,0.6,0.2,0,0,0,0,0,1.4,0,0,0,0.4,0,0,0,0,0,0,0,0,1.69495242264566,1.94692754601735,0.821051137124411
337.1,"Sliding Sands","Sliding Sands","CraterNet","MA",2697,20.714563,-156.2394,NA,NA,NA,NA,NA,0,0,0,0,0,0,0,5.65315121346532,0.350012239607313,0.0634118325606355,0,0,0,0,0,1.37134288377746,0,0,0,0.461977346821797,0,0.0837884204251315,0,0,0,0,0,0,1.61220058834575,1.85187365333612,0.78096535846579
337.11,"Pohaku Palaha","Pohaku Palaha","CraterNet","MA",2461,20.7300298,-156.140176,NA,NA,NA,NA,NA,4,0,3.4,8.6,0,0,0.2,50.8,8.8,5.8,0.2,0.2,0.2,0,0,10,3.2,1.6,1.6,5,0.8,2.6,0,0,1.8,0.4,0.2,1,10.8,17.2,5.6
337.12,"Puu Alaea","Puu Alaea","CraterNet","MA",2282,20.73782363,-156.1453106,NA,NA,NA,NA,NA,1.4,0,2.8,3.4,0,0,1.2,59,3.4,1.2,0.2,0.4,0.4,0,0,5.4,1.2,3.2,2.8,11.6,2.4,0.2,0,0,0.8,0.2,0.2,1.4,5.6,27,10
337.13,"Paliku","Paliku","CraterNet","MA",1927,20.71236611,-156.1437572,NA,NA,NA,NA,NA,2.8,0.2,5,6.8,0.2,0.2,0,69.6,15.6,3.2,0,1.2,1.8,0,0,15,7.2,7.6,4.2,3,2.2,2.6,0,0,3.8,0.4,2.8,2.4,10.8,15,6.4
337.2,"Puu o Pele","Puu o Pele","CraterNet","MA",2424,20.709651,-156.224485,NA,NA,NA,NA,NA,0.131344878584546,0,0,0.131344878584546,0,0,0,4.47098047201824,0.972097793809032,0.0639799079226032,0,0,0,0,0,1.50143913793847,0,0,0,0.618916604087313,0,0,0,0,0,0,0,0,1.64981167218316,1.86846367689255,0.787961642294529
337.3,"Lava lake","Lava lake","CraterNet","MA",2270,20.718443,-156.212261,NA,NA,NA,NA,NA,0.2,0,0,0.2,0,0,0,3.6,0.8,0,0,0,0,0,0,1.47960957764666,0,0,0,0.609918119244911,0,0,0,0,0,0,0,0,2.39888084096446,1.84129791342125,0.776505396254665
337.4,"Silversword loop","Silversword loop","CraterNet","MA",2186,20.731704,-156.205387,NA,NA,NA,NA,NA,0,0,0,0.2,0,0,0,8.8,0.4,0,0,0,0,0,0,2.2,0,0,0,1.4,0,0,0,0,0,0,0,0,3.4,2.55739084347111,1.13426660394805
337.5,"Leleiwi","Leleiwi","CraterNet","MA",2722,20.74337371,-156.2288651,NA,NA,NA,NA,NA,0.2,0,0,0,0,0,0,16.2,0.8,0,0,0,0,0,0,3,0,0.4,0.2,3.8,0.4,0,0,0,0,0,0,0,NA,NA,NA
337.6,"Puu Nole","Puu Nole","CraterNet","MA",2261,20.717807,-156.188007,NA,NA,NA,NA,NA,0.2,0,0,0.2,0,0,0,6.8,1.6,0,0,0,0,0,0,1.2,0,0,0,0.2,0,0,0,0,0,0,0,0,1.2,0.2,0.4
337.7,"Hanakauhi","Hanakauhi","CraterNet","MA",2645,20.73567887,-156.1754875,NA,NA,NA,NA,NA,0.8,0,0.2,1.2,0,0,0,23.4,1.6,0.4,0.2,0,0,0,0,3.6,0,0,0,4.2,0.2,0,0,0,1.4,0,0,0,3.8,7.8,2.2
337.9,"Laie","Laie","CraterNet","MA",2051,20.7229056,-156.1544823,NA,NA,NA,NA,NA,1.2,0,1.6,0.6,0,0,0,33.6,4.8,0.6,0,0.2,0,0,0,5.8,1,0.6,0.4,1.2,0.2,0.4,0,0,0,0,0,0,4.2,6.4,2.6
338.4,"HALEAKALA SUMMIT 338","SMITHSONIAN INST 1","COOP","MA",3037,20.71667,-156.26667,"USC00511008",NA,NA,NA,NA,0,0,0,0,0,0,NA,NA,0,0,0,0,0,0,0,0,0,0,0,0.3,0,0,0,0,0,0,0,0,0,2.5,0.3
339.4,"PARK HQ HN-151","HaleNet","HaleNet","MA",2120,20.75980556,-156.2481667,NA,NA,NA,NA,NA,0.254,0,0,0.254,0,0,0,16.002,0,0,0,0,0,0,0,0.508,0,0.254,0,1.778,0,0.254,0,0,0.508,0,0,0,2.286,3.81,1.524
339.5,"NENE NEST HN-152","HaleNet","HaleNet","MA",2590,20.73819444,-156.2458333,NA,NA,NA,NA,NA,0,0,0,0,0,0,0,10.414,0.254,0,0,0,0,0,0,0.508,0,0,0,1.016,0,0.254,0,0,0,0,0,0,3.048,3.81,1.524
339.6,"SUMMIT HN-153","HaleNet","HaleNet","MA",2990,20.71036111,-156.25675,NA,NA,NA,NA,NA,0,0,0,0,0,0,0,3.81,0.254,0,0,0,0,0,0,2.54,0,0,0,0,0,0,0,0,0,0,0,0,0.762,1.778,0.508
348.5,"WestWailuaikiRainGagenrKeanae","USGS","USGS","MA",472.44,20.81436111,-156.1429722,NA,"WWKH1","DD5E710A",NA,NA,0.762000000000057,0.254000000000019,1.524,0.253999999999905,0,0,3.81000000000017,85.598,24.1300000000001,26.9239999999999,1.524,1.77800000000002,2.03199999999993,0,0,16.0020000000002,20.828,22.606,11.9379999999999,41.402,7.36599999999999,3.048,0,0,10.922,13.7159999999999,2.03199999999993,10.922,3.30200000000013,43.6879999999999,57.912
350,"PAAKEA 350","EMI","COOP","MA",390,20.81179461,-156.1171956,"USC00517194",NA,NA,NA,NA,NA,NA,0,NA,NA,NA,NA,NA,21.8184307833504,0,NA,NA,NA,NA,NA,NA,NA,NA,NA,NA,NA,NA,NA,NA,NA,NA,NA,NA,NA,NA,NA
353,"Hana AP","NWS","HydroNet-UaNet","MA",19,20.7946,-156.0157,"USC00511125","HNAH1","B150314C",NA,NA,2.28600000000006,0,0,0.507999999999811,0,0.508000000000266,0,4.06399999999985,8.89000000000033,9.39799999999968,0.253999999999905,0.25400000000036,2.79399999999987,0,0,NA,NA,NA,NA,NA,NA,NA,NA,NA,NA,NA,NA,NA,NA,NA,NA
355,"HANA AIRPORT 355","HAWN AIRLINES","COOP","MA",24,20.792,-156.017,"USC00511125",NA,NA,NA,NA,2.3,0,0,0.5,0,0.5,0.5,8.1,4.3,8.9,0.3,2,1,0,0,NA,NA,NA,NA,NA,NA,NA,NA,NA,NA,NA,NA,NA,NA,NA,NA
361.1,"Lahainaluna","NWS","HydroNet-UaNet","MA",238.0488,20.8909,-156.6556,NA,"LAHH1","81700366",NA,NA,NA,NA,NA,NA,NA,NA,NA,NA,NA,NA,NA,NA,NA,0,NA,NA,0,NA,NA,NA,NA,NA,NA,NA,NA,NA,NA,NA,NA,NA,NA
364,"WAHIKULI 364","PIONEER MILL","COOP","MA",177,20.89679257,-156.6621736,"USC00518955",NA,NA,NA,NA,1.16071698722693,0,0,0,0,0,0,2.47619623941745,0.193452831204489,0.309524529927182,0,0,0,0,0,0,0.193452831204489,0,0,0,0,0,0,0,0,0,0,0,0,0,0
380,"PuuKukuiRainGageatalt","BALDWIN PKRS","USGS","MA",1759,20.89083333,-156.6008333,"USC00514887","PKKH1","DD73556E",NA,NA,0.508000000000038,0.254000000000019,1.524,0.254000000000019,4.82600000000014,0,2.03199999999993,173.482,30.9879999999998,12.7,2.54000000000019,0.508000000000038,1.01599999999985,0,0,17.78,16.002,10.1600000000001,12.192,35.3059999999998,2.28600000000006,2.28600000000029,0,0,17.2719999999999,9.65199999999982,3.04800000000023,1.77800000000002,7.36599999999999,13.4619999999998,42.9260000000002
386,"WAILUKU 386","WAILUKU SUGAR","COOP","MA",55,20.89345755,-156.4971783,"USC00519484",NA,NA,NA,NA,2.19877463934381,0,0,NA,0,NA,NA,NA,1.79906674709061,0,0,0,NA,0,0,0,0,0.199853946126597,0,NA,NA,NA,0,0,0,0,0,0,0,1.11918209830894,1.83865630436469
386.6,"Wailuku","NWS","HydroNet-UaNet","MA",146.9136,20.8831005,-156.5124,NA,"WUKH1","9321D776",NA,NA,0,0,0,0,0,0,0,1.27000000000021,0,0,0,0,0,0,0,0,0,0,0,1.01599999999985,0,0,0,0,0,0,0,0,0,0,0.254000000000133
390,"WAIKAPU 390","WAILUKU SUGAR","COOP","MA",130,20.8491,-156.5092,"USC00519376",NA,NA,NA,NA,1,0,0,NA,0,NA,NA,NA,0.8,0,0,0,NA,0,0,0,0,0,0,NA,NA,NA,0,0,0,0,0,0,0,0,0.3
390.4,"Waikapu Country Club","NWS","HydroNet-UaNet","MA",145.9992,20.8346996,-156.5135,NA,"WCCH1","9320E016",NA,NA,0,0,0,0,0,0,0,1.77800000000002,0,0,0,0,0,0,0,0,0,0,0,0,0,0,0,0,0,0,0,0,0,0,0
396,"PUUNENE 396","HC&S","COOP","MA",18,20.8717927,-156.4538466,"USC00518543",NA,NA,NA,NA,0.531932101721765,0,0,NA,0,NA,NA,NA,0.425545681377412,0,0,0,NA,0,0,0,0,0,0,NA,NA,NA,0,0,0,0,NA,NA,0,0,0.159579630516529
398,"KAHULUI AIRPORT","NOAA-NWS","NWS","MA",12,20.8887,-156.41,"USW00022516","HOG",NA,NA,NA,0,0,0,0,0,0,0,0.8,0,0,0,0,0,0,0,0,0,0,0,0.3,0,0,0,0,0,0,0,0,0,2.5,0.3
400,"SPRECKELSVILLE 400","HC&S","COOP","MA",20,20.897526,-156.41427,"USC00518688",NA,NA,NA,NA,NA,NA,NA,NA,NA,NA,NA,NA,NA,NA,NA,0,NA,NA,NA,NA,NA,NA,NA,NA,NA,NA,NA,NA,NA,NA,NA,NA,NA,NA,NA
406,"PAIA 406","HC&S","COOP","MA",50,20.9051221,-156.3738494,"USC00517566",NA,NA,NA,NA,3.74936873570815,0,0,0,0,0.16986819742648,0,6.20988325079038,5.5360698731628,0,0.33973639485296,0,0.0306744941492685,0,0,0,0.543905627139743,0.728279987410361,1.21743491692362,0.228779686305787,1.5669829847966,0.101920918455888,0.0511241569154475,0,0,0,0,0,0.693324161800044,0,6.03242388699163
410,"KEAHUA 410","HC&S","COOP","MA",120,20.85846016,-156.3805162,"USC00513910",NA,NA,NA,NA,NA,NA,NA,NA,NA,NA,NA,NA,NA,NA,NA,0,NA,NA,NA,NA,NA,NA,NA,NA,NA,NA,NA,NA,NA,NA,NA,NA,NA,NA,NA
423,"HALIIMAILE 423","MAUI PINE","COOP","MA",326,20.86679262,-156.3405177,"USC00511075",NA,NA,NA,NA,9.81139036226885,0,0,0,0,0.185340523608557,0,6.82485305249348,3.29393827506206,0.584892803274991,3.01676460105196,0,0,0,0,0,1.70942512717835,0.972063673088669,1.64836176908865,0.160368700232415,1.11843442646482,0.111204314165134,0.160368700232415,0,0,0,0.561290450813452,0.100230437645259,2.09049809955349,0.100230437645259,6.4316128271558
426.6,"Pukalani","NWS","HydroNet-UaNet","MA",495.9096,20.8355007,-156.3307,NA,"PUKH1","15D2B52E",NA,NA,0,0,0,0,0,0,0,14.732,1.77800000000002,0,0,0,0,0,0,2.03199999999998,0,0,0,0,0,0,0,0,0,0,0,0,0,5.84200000000001,1.26999999999998
432,"HALEAKALA RANCH 432","HALEAKALA RANCH","COOP","MA",564,20.83346191,-156.3138527,"USC00510999",NA,NA,NA,NA,25.4,NA,NA,NA,0,NA,NA,NA,NA,NA,NA,0,NA,NA,NA,NA,NA,NA,0,NA,NA,NA,NA,NA,NA,0,NA,NA,NA,NA,NA
446,"KAILUA 446","EMI","COOP","MA",213,20.89012208,-156.2121892,"USC00512679",NA,NA,NA,NA,7.28132891268813,1.52309083944634,0,0.0656810274293153,0,0,1.64301259951128,37.3792912678077,15,0,0.394086164576039,0.459767192005385,3.55899222703581,0,0,4.78096582376679,14.099888382116,10.0296931626792,7.27990287410791,18.3002369461755,10.7211547819844,1.75820112595704,0.394480930087141,0,6.27145646686052,2.81393091450815,3.51739201506179,3.26353937494607,2.34439975644644,10.337126129769,31.9323490506974
457.1,"PUUKOLII 457.1","COOP","COOP","MA",128,20.93194,-156.67611,"USC00518407",NA,NA,NA,NA,3,0,0,0,0,0,0,6.4,0.5,0.8,0,0,0,0,0,0,0.5,0,0,0,0,0,0,0,0,0,0,0,0,0,0
462.4,"KAPALUA W.MAUI AIRPORT 462.4","KAPALUA W.MAUI AIRPORT 462.4","NWS","MA",73,20.9625,-156.6753,"USC00513317",NA,NA,NA,NA,8.6,0,0,0,0,0.5,0,1.3,7.9,0,1,0,0,0,0,0,1.3,1,2.5,0,0.8,0.3,0,0,0,0,0,0,1.8,0,12.7
465.1,"Mahinahina","NWS","HydroNet-UaNet","MA",223.1136,20.9552002,-156.6562,NA,"MABH1","190524C8",NA,NA,0,0,0,0,0,0,0,0,0,0,0,0,0,0,0,0,0,0,0,0,0,0,0,0,0,0,0,0,0,0,0
466,"MAHINAHINA 466","PIONEER MILL","COOP","MA",257,20.94678808,-156.6555055,"USC00515715",NA,NA,NA,NA,25.1,0,0,0,0,0,0,14.7,0.5,0.8,13.2,0,0,0,0,0,4.8,3,3.6,0.8,4.1,0,0.8,0,0,0,2.8,0.5,7.1,0.5,8.6
474,"FIELD 46 474","MAUI PINE","COOP","MA",319,20.9951177,-156.6391163,"USC00510541",NA,NA,NA,NA,19.7428517436769,0,0,0,0,0.445183268956923,0,8.23555549964583,7.01045084004244,0.256801052167178,7.24619257905149,0,0,0,0,0,3.4686859687926,2.33487245635422,3.95932344691306,0.385201578250766,2.68645131886625,0.267109961374153,0.385201578250766,0,0,0,1.34820552387768,0.240750986406729,5.02132377522047,0.240750986406729,15.4485719977016
482,"WAIHEE VALLEY 482","WAILUKU SUGAR","COOP","MA",91,20.94012106,-156.5255102,"USC00519315",NA,NA,NA,NA,3.8,0,0,0,0,0.26956172339423,0.352392853991779,5.70070501125852,2.8,0,0,0,0.073015458152799,0,0,0,0,0.5,0,0.194707888407464,1.29125859789707,0.161737034036538,0,0,0,0,0,0,0,2.8,4.6
482.4,"KAHAKULOA MAUKA 482","NWS","COOP","MA",334,20.9539,-156.5342,"USC00512450",NA,NA,NA,NA,0,0,0,0,0,0,0.8,0.3,0,0,0,0.3,NA,0,0,0,0,0.378365599140226,0,NA,0,0,0,0,0,0,0,0,0,2.11884735518527,0.3
482.5,"Kahakuloa","Kahakuloa","HydroNet-UaNet","MA",335.28,20.9540997,-156.5342,NA,"KHKH1","781001B6",NA,NA,0,0,0,0,0,0,0,1.01599999999985,0,0,0,0,0.254000000000133,0,0,0,0,0.507999999999811,0,1.26999999999998,0,0,0,0,0,0,0,0,0,3.04800000000023,4.06399999999985
484,"WAIEHU CAMP 484","WAILUKU SUGAR","COOP","MA",98,20.91623388,-156.5088444,"USC00519275",NA,NA,NA,NA,1.3,0,0,0,0,0.309029773715425,0,6.38388158936753,1.3,0,0,0,0.0558040417770743,0,0,0,0,0,0,0.148810778072198,1.48031904267299,0.185417864229255,0,0,0,0,0,0,0,0,0
485,"HAMAKUAPOKO 485","HC&S","COOP","MA",98,20.91345401,-156.3455169,"USC00511086",NA,NA,NA,NA,7.73568381852273,0,0,0,0,0.387387240373393,0,8.00257606910372,9.7536983536373,0,0.774774480746785,0,0.069953692441329,0,0,0,1.24038579977525,1.66085458500362,2.77638051116291,0.186543179843544,1.85566815106091,0.232432344224035,0.116589487402215,0,0,0,0,0,1.58113724518776,0,13.7570426821986
486.7,"HAIKU 3.2 SE","HAIKU 3.2 SE","CoCoRaHS","MA",416,20.92011989,-156.3071849,"US1HIMI0001",NA,NA,NA,NA,4.6,0,0,0,0,0,0,30,24.4,0,0,NA,0.3,0,0,0,1,3.8,3.6,0.8,5.3,0,0.5,0,0,0,0,0,0.8,0,16.8
489,"Haiku","NWS","HydroNet-UaNet","MA",99.3648,20.9288998,-156.3225,"USC00510822","AIKH1","50A30568",NA,NA,0,0,0,0,0,0,0,21.3360000000002,6.09600000000023,0,0,0,2.2859999999996,0,0,2.28600000000006,2.7940000000001,6.09599999999978,1.77800000000025,8.38199999999983,0.762000000000171,0,0,0,0,0.507999999999811,1.01600000000008,0,0,1.77800000000002,20.5740000000001
490.7,"KUIAHA 490.7","COOP","COOP","MA",341,20.89306,-156.30306,"USC00514806",NA,NA,NA,NA,19.5872523204651,0.0280385952754931,0.168231571652946,0.0280385952754806,0,0.439777910006563,0.420578929132384,17.5845670341415,12.8138349816023,2.97209109920204,7.32644179681905,0.19627016692844,0.224308762203921,0,0,1.76643150235596,5.72573443502659,4.80195770979387,5.22906382029533,4.95081553930825,3.46695202969119,0.600329889309831,0.380524509403211,0,1.20565959684612,1.51408414487651,1.55614454511516,1.44348741522312,5.32485723555852,5.06046620576146,21.6537971130632
492.2,"HALEHAKU 492.2","COOP","COOP","MA",210,20.91,-156.282,"USC00511016",NA,NA,NA,NA,0.135224854368708,0.0450749514562361,0.180299805824931,0.0450749514562159,0,0,0.676124271843522,34.6206883938102,9.98713365828548,3.18529656957377,0.270449708737397,0.315524660193633,2.44243137090587,0,0,4.92155370099913,6.24060705850231,9.56322203762153,3.73772519786478,14.9806002046392,2.00111751198303,0.540899417474793,0,0,1.93822291261801,2.89667665847113,1.28585817131942,1.93822291261801,0.585974368931049,9.37209412989367,29.0135747653286
493,"HONOKOHUA 493","MAUI LAND&PINE CO","COOP","MA",38,21.00011804,-156.655505,"USC00511887",NA,NA,NA,NA,11.2229204029505,0,0,0,0,0.253066601375308,0,4.68154170666902,4.13530837462419,0.218969716630924,4.11913352716085,0,0,0,0,0,1.97179146336134,1.32726964011658,2.25069673171569,0.218969716630924,1.52712635993398,0.151839960825185,0.218969716630924,0,0,0,0.766394008208233,0.136856072894327,2.85439600005055,0.136856072894327,8.78181612871524
494,"HONOLUA FIELD 49 494","MAUI LAND&PINE CO","COOP","MA",61,21.010978,-156.633839,"USC00511914",NA,NA,NA,NA,13.3367091319161,0,NA,0,0,0.300730605971127,0,5.56328992713557,NA,NA,4.89495458889874,0,0,0,0,0,2.3431698944182,1.57725516125055,2.67460576902559,0.260211719815545,1.81475403360847,0.180438363582676,0.260211719815545,0,0,0,0.910741019354407,0.162632324884715,3.39200919485902,0.162632324884715,10.4358333796837
497,"NAKALELE FIELD 60 497","MAUI LAND&PINE CO","COOP","MA",104,21.02511528,-156.6005068,"USC00516645",NA,NA,NA,NA,14.0840656138966,0,NA,0,0,0,0,8.24843683363664,NA,NA,7.40675960571454,0,0,0,0,0,2.69336712935074,1.68335445584421,2.02002534701306,0.448894521558457,2.30058442298709,0,0.448894521558457,0,0,0,1.5711308254546,0.280559075974036,3.9839388788313,0.280559075974036,4.82561610675341
499.11,"LUA MAKIKA","RAWS","RAWS","KO",335.28,20.5625,-156.5630556,"USR0000HLUA","HLUA",NA,NA,NA,0.353920595162167,0.151680255069508,0,0.151680255069508,0,0.101120170046329,0,0.657281105301183,0.101120170046329,0,0,0,0.151680255069508,0,0.101120170046329,0,0,0,1.38007476866107,2.09482192891154,0.126400212557919,0,0.252800425115838,0.126400212557919,0,0,0,0,0.647512889442147,2.56845231917691,0.126400212557919
499.12,"KEALIALALO","RAWS","RAWS","KO",251.46,20.54361111,-156.6408333,"USR0000HKLL","KLLH1","32792006",NA,NA,0.442121727734068,0.189480740457468,0,0.189480740457468,0,0.1263204936383,0,0.821083208649003,0.1263204936383,0,0,0,0.189480740457468,0,0.1263204936383,0,0,0,0.978983825696887,1.2758369857469,0.157900617047884,0,0.315801234095768,0.157900617047884,0,0,0,0,0,3.208540538413,0.157900617047884
499.13,"HAKIOAWA","RAWS","RAWS","KO",365.76,20.58027778,-156.5711111,"USR0000HHAI","HKIH1","3279159C",NA,NA,0.699999999999989,0.300000000000011,0,0.300000000000011,0,0.199999999999989,0,1.30000000000001,0.199999999999989,0,0,0,0.300000000000011,0,0.199999999999989,0,0,0,1.55000000000001,2.02,0.25,0,0.5,0.25,0,0,0,0,0,5.08,0.25
499.9,"KANELOA","RAWS","RAWS","KO",248.412,20.52222222,-156.5658333,"USR0000HKAN","KAOH1","32793370",NA,NA,0,0,0,0,0,0,0,0,0,0,0,0,0,0,0,0,0,0,0.699999999999989,1.26,0,0,0,0,0,0,0,0,0.76,0,0
524,"MOLOKAI KAUNAKAKAI MOLOKAI AIRPORT","ALOHA AIRLINES","NWS","MO",141,21.15514996,-157.0924625,"USW00022534","HMK",NA,NA,NA,0,0,0,0,0,0,0,0,0,0,0,0,0,0,0,0,0,0,0,0,0,0,0,0,0,0,0,0,0,0.3,0.5
536,"KAUNAKAKAI 536","MOLOKAI RANCH","COOP","MO",3,21.08876308,-157.0216311,"USC00513541",NA,NA,NA,NA,2.5,0,0,0,0,0,0,0,0,0,0,0,0,0,0,0,0,0,0,0,0,0,0,0,0,0,0,0,0,0,0
536.5,"Kaunakakai Mauka","MOLOKAI GEN HOSP","HydroNet-UaNet","MO",28.3464,21.0946007,-157.0174,NA,"KACH1","50A0F2E2",NA,NA,5.84199999999998,11.176,12.954,11.938,7.87400000000002,9.90600000000006,5.58799999999997,4.06399999999996,0,0,0,0,0,0,0,0,0,0,0,0,0,0,0,0,0,0,0,0,0,0,0
536.6,"KAUNAKAKAI 3.5 ESE","KAUNAKAKAI 3.5 ESE","CoCoRaHS","MO",13,21.068,-156.963,"US1HIMI0002",NA,NA,NA,NA,0,0,0,0,0,0,0,0,0,0,0,0,0,0,0,0,0,0,0,0,0,0,0,0,0,0,0,0,0,0,0
538,"MOLOKAI 1","RAWS","RAWS","MO",833.0184,21.115,-156.9475,"USR0000HMLK","MLKH1","487016AC",NA,NA,0.200000000000045,0,0,0,0,0,0,0.799999999999955,0.200000000000045,0,0,0,0,0,0,0,0,0,0.299999999999955,0.25,0,0,0,0,0,0,0,0,0.25,0,0
541.2,"Puu ALII WEST","Puu ALII WEST","RAWS","MO",1159.764,21.14083333,-156.9022222,NA,"PAFH1","32D6062E",NA,NA,1,1,0,0,0,0,0,27,6,2,1,0,1,0,0,5,6,4,4.76,8.36,0.76,0,0,0,3.53,7.61,2.01,1.51,0.25,3.55,4.56
542.11,"Kamalo","NWS","HydroNet-UaNet","MO",8.8392,21.052,-156.871,"USC00513045","KMLH1",NA,NA,NA,0,0,0,0,0,0,0.3,NA,NA,0,0,0,0,0,0,0,0,0,1.5,0.3,0,0,0,NA,NA,0.3,NA,NA,0,NA,0
550.3,"MAUNALOA 3.2 NNW","MAUNALOA 3.2 NNW","CoCoRaHS","MO",93,21.1804,-157.2319,"US1HIMI0006",NA,NA,NA,NA,13.7,NA,3.6,0,0,NA,0,NA,0.8,0,NA,0,0,0,NA,0,0,NA,1.5,0.3,0,NA,0,0,0,NA,NA,0,0,0,0.8
553,"MAKAPULAPAI","RAWS","RAWS","MO",22.86,21.20333333,-156.9661111,"USR0000HMAK","MKPH1","FA9024CE",NA,NA,NA,NA,NA,NA,NA,NA,NA,NA,NA,NA,NA,NA,0,NA,NA,NA,NA,NA,NA,NA,NA,NA,NA,NA,NA,NA,NA,NA,NA,NA,NA
563,"KALAUPAPA 563","CIVIL AIR PATROL","COOP","MO",9,21.19014673,-156.9824624,"USC00512896",NA,NA,NA,NA,7.6,0,0,0,0,0,0,0,1.3,0,14,0,0,0,0,0,0,0,0,0,0,0,0,0,0,0,0,0,0,0,4.3
672.1,"Lanai City","NWS","HydroNet-UaNet","LA",498.0432,20.8262997,-156.9182,"USC00515286","LANH1",NA,NA,NA,0,0,0,0.3,0,0,0,NA,NA,0,0,0,0,0,0,0.5,0,0.3,0,0,0,1.3,0,0,0,0.3,7.4,1.5,0.3,0.3,0
679,"LANAI 1","RAWS","RAWS","LA",387.096,20.87333333,-157.0063889,"USR0000HLAN","LNIH1","48702336",NA,NA,0,0,1,3.10000000000002,3,0,0,0.800000000000011,0.300000000000011,0,1.19999999999999,0,0,0,0,0,0,0.300000000000011,0.199999999999989,0,0,0,0,0,0,0,1.78,0,0,0,0
702.2,"HONOLULU OBSERV 702.2","USC&GEODETIC SURVEY","COOP","OA",2,21.313926,-157.999529,"USC00511918",NA,NA,NA,NA,0,0,0,0,0,0,0,0,0,4.3,0,0,0,0,0,0,0.5,0,0,0,0,0,0,0,0,0,0,0,0,0,0
702.7,"Kapolei-Kalaeloa AP","NWS","NWS","OA",15,21.31667,-158.06667,"USW00022551","HJR",NA,NA,NA,0,0,0,0,0.609688102716464,0,0,0,0,0,2.43875241086586,0,0,0,0,0,0,0,0,0,0,0,0,0,0,0.152422025679116,0,0,0,0,0
702.8,"PTWC","NWS","HydroNet-UaNet","OA",1.524,21.3150005,-157.9992,NA,"PTWH1",NA,NA,NA,0,0,0,0,0.66101937124564,0,0,0,0,0,4.97231345360195,0,0,0,0,0,0,0,0,0,0,0,0,0,0,0.16525484281141,0,0,0,0,0
703,"HONOLULU INTERNATIONAL AIRPORT","USWB","NWS","OA",2.1,21.324,-157.9294,"USW00022521",NA,NA,NA,NA,0,0,0,0,0,0,0,0,0,0,3,0,0,0,0,0,0,0,0,0,0,0,0,0,0,0,0,0,0,0,0
703.1,"HONOLULU FIRE STATION 703.1, HI US","COOP","COOP","OA",1,21.3287,-157.9298,"USC00511925",NA,NA,NA,NA,0.347683194854988,0,0,0,0.367659077032258,0,0,0,0.687060804423226,0,2.8,0,0,0,0,0,0,0,0,0,0,0,0,0,0,0.5,0,0,0,0,0.3
705,"BERETANIA PUMP STN 705","BWS","COOP","OA",6,21.305169,-157.8522571,"USC00510211",NA,NA,NA,NA,0,0,0,6.4,0,0,0,0.5,0,0,4.3,0,0,0,0,0,0,0.5,0,0,0,0,0,0,2.5,1.5,0,0,0,1.3,1.3
705.12,"Aloha Tower","NWS","HydroNet-UaNet","OA",38.1,21.3034,-157.8627,NA,"ALOH1",NA,NA,NA,0,0,0,4.318,0,0,0,0.254,0,0.045966475024725,2.54,0,0,0,0,0,0,0.371098450815782,0.183865900098942,0.183865900098983,0,0.045966475024725,0,0,1.39582750383129,1.34312772757097,0.275798850148473,0.137899425074175,0,0.735023596997252,1.19468834724467
706.5,"Niuhelewai HCC JD","J_Delay","PrivateObs","OA",2,21.32180556,-157.8694722,NA,NA,NA,NA,NA,0,0,0,6,0.6,0,0,NA,NA,NA,NA,NA,NA,NA,NA,NA,NA,NA,NA,NA,NA,NA,NA,NA,NA,NA,NA,NA,NA,NA,NA
707.2,"EWA KALAELOA AIRPORT","LYDECKER RC","STATE","OA",14,21.30489073,-157.8305905,"USW00022551",NA,NA,NA,NA,0,0,0,0,0.609688102716464,0,0,0,0,0,2.43875241086586,0,0,0,0,0,0,0,0,0,0,0,0,0,0,0.152422025679116,0,0,0,0,0
707.5,"HONOLULU 2.0 SW","CoCoRaHS","CoCoRaHS","OA",12,21.3004,-157.8293,"US1HIHN0023",NA,NA,NA,NA,0.3,0,0,0.3,1.3,0,0,0.3,1.5,0,5.6,0,0,0,0,0,0,0.5,0.5,0,0.5,0.3,0,0,0,7.4,0.8,0,3.54632858141207,0,3.6
709,"PUNCHBOWL CRATER 709","T MEM CEMETERY","COOP","OA",108,21.31016855,-157.846146,"USC00518316",NA,NA,NA,NA,0.247367885501672,0.0606285126807724,0,0.0856918516862793,2.11019262394233,0.0606285126807724,0,0.356558413244673,1.43501097876744,0,8.93563126585067,0,0.202938945388885,0,0,0,0.635481540762672,0.142819752810465,0.915000429031799,0.364614979204278,0.406387210880123,0.146320364367052,0,0,0,6.02066602840486,1.17443481215202,0.101891424254264,2.41257861721085,0.101891424254264,5.57379703569851
711.6,"ManoaRGatKanewaiFld,Honolulu","USGS","USGS","OA",11.5824,21.29322222,-157.8127222,NA,NA,NA,NA,NA,0.28361430785846,0.0596080327675727,0.0596080327675727,0.0596080327675727,0.0902099630091421,0,0,2.52475993846922,0.813328958498265,0.128633422662709,2.78475312179205,0,0.466692873869767,0.0953728524281163,0.0953728524281163,0.805660746787148,0.960265152844308,0.500107834671556,1.00134832535715,0.664351686427675,0.185582815437258,0.0690253898951362,0,0,2.39444399552807,4.93414810232121,0.774460248835715,0.809915214495676,0.30069987669714,1.40539590159541,3.99005902373901
711.7,"H-1RainGageatKapiolaniAve","USGS","USGS","OA",6.096,21.28944444,-157.8155556,NA,NA,NA,NA,NA,0.0824145329566485,0,0,2.16132059795985,0.0718055774425711,0,0,1.55221863945449,0.23935192480857,0.0549430219710497,2.60594073814676,0,0.18169162138472,0,0,0.109886043942149,0.356310605760055,0.44356828157101,0.578799975097104,0.291577665326869,0.0718055774425711,0.0549430219710497,0,0,1.66841118814411,3.30481862070913,0.569010056635015,0.23663464335572,0.23935192480857,0.95036799967176,3.00771534567645
712.1,"MANOA 712.1","BEAUMONT MRS J","COOP","OA",61,21.31044568,-157.8147571,"USC00516122",NA,NA,NA,NA,0,0.5,0,1,0,0,0,0.8,8.9,0.8,8.1,0,2,0,1.3,0,3,2,3.8,1,1.3,1.3,1.3,0,0.5,11.7,5.8,0.5,4.3,1,12.7
713,"UNIV OF HAWAII 713","UH MET DEPT","COOP","OA",24,21.29933514,-157.8167017,"USC00518815",NA,NA,NA,NA,0.34463739522612,0,0,0,0.3,0,0,0.5,1,0,0,0,0.3,0,0,0,0.8,0,1.5,0.3,0.3,0,0,0,0,7.1,1,0.3,1,0.3,6.6
715,"WAIALAE KAHALA","TINKER SPENCER","COOP","OA",15,21.27433592,-157.7880917,"USC00519185",NA,NA,NA,NA,0,0,0,0,0,0,0,0.3,0,1,0,0,0,0,0.3,0,0,3,2,0.5,0.5,0,0,0,0,1,0,0,0.3,0,0.3
716,"MANOA TUN 2 716","BWS","COOP","OA",198,21.32794416,-157.7914236,"USC00516130",NA,NA,NA,NA,7.0778623240985,2.85187599523358,1.71231464924205,8.49266215486371,2.61559523719779,0.217650041867124,0.0942547017467655,17.8891985910283,2.19509144171813,1.13393718045973,10.305550798406,1.75942109927296,2.45043702375149,2.74047179677975,5.54803472477798,5.74419093666666,4.8761233174188,7.51377374686664,6.43260898365457,3.94656879361442,0.115266555697191,0.205658900200598,0,0.209521257443956,7.5008883841583,14.7050570303861,4.33534583702238,3.98784610219718,2.69183644370604,6.11695948201068,9.79991655570328
717.2,"WAIKIKI 717.2","PURINTON J","COOP","OA",3,21.27183682,-157.8180917,"USC00519397",NA,NA,NA,NA,0,0,0,0.3,0.8,0,0,0.245529398049384,0.723712130662401,0,0.3,0,0.3,0,0,0,0,2,0,0,0,0,0,0,0,0,0,0,0,0,0.3
718,"PALOLO VALLEY 718","BWS","COOP","OA",302,21.32183297,-157.7717015,"USC00517664",NA,NA,NA,NA,8.1,0.5,2.5,6.4,4.1,0,0,21.8,1,0,8.6,0,3.3,0.5,5.8,1.3,3.8,7.4,7.9,5.6,0.3,0,0,0.3,4.8,15.7,6.6,6.9,4.3,8.1,9.7
720.6,"HONOLULU 2.7 SSE","CoCoRaHS","CoCoRaHS","OA",113,21.285,-157.7816,"US1HIHN0010",NA,NA,NA,NA,0.0824370050830834,0.0804335335697908,0,0.243304072222665,0.455248288855222,0,0,0.374499436842294,1,0,1.5,0,0,0,0,0,0.8,0.8,1.5,0.5,0,0,0,0,0,1.8,0,0.5,0.5,0,0
721,"WILHELMINA RISE 721","BWS","COOP","OA",335,21.29766804,-157.7853133,"USC00519980",NA,NA,NA,NA,0.3,0.3,0.8,0.3,0,0,0,5.3,0,0.3,5.8,0,1.3,0,0.8,1.5,0,0.8,0.3,0.3,0,0.3,0,0,0,0,0,0,0,0,0
721.4,"Palolo Fire Stn","NWS","HydroNet-UaNet","OA",59.436,21.2996006,-157.7944,"USC00517662","PFSH1","19014414",NA,NA,0.254000000000133,0,0,0,0,0,0,5.84199999999987,0,0.253999999999905,5.33400000000006,0,0.508000000000038,0,0,0.508000000000038,0.761999999999944,1.27000000000021,1.01599999999985,1.01600000000008,0,0.253999999999905,0,0,3.80999999999995,5.08000000000015,1.52400000000011,0.761999999999716,0,2.03200000000015,4.57200000000012
723.4,"PAIKO DRIVE 723.4","GRUBB DL","COOP","OA",3,21.28172556,-157.7282194,"USC00517540",NA,NA,NA,NA,0,0,0,0.5,0,0,0,1.5,0,0,0,0.8,0,1,0,0,1,0,0,2.5,0,0,0,0,0,0,0.3,0,0,0,0.3
723.8,"Niu Valley","NWS","HydroNet-UaNet","OA",19.812,21.2896996,-157.7332,"USC00516865","NIUH1","1900D38C",NA,NA,0.761999999999716,0,0.762000000000171,1.01599999999962,0,0,0,9.39800000000014,0,0,2.79399999999987,0,1.27000000000044,0,1.01599999999962,0,0,8.38200000000052,1.26999999999953,3.04799999999977,0,0,0,0,0,0.762000000000171,1.01599999999962,0,0,0,0.254000000000815
724.19,"HAWAII KAI GC 724.19","UNOAA-NWS","COOP","OA",9,21.29889,-157.66444,"USC00511308",NA,NA,NA,NA,0,0,0,0,0,0,0.762,3.556,0,0,0,0,0.254,0,0,0,0.254,7.00015253391299,0.8,0,0,0,0,0,0,0,0,0,0,0,0
724.21,"Kamehame","NWS","HydroNet-UaNet","OA",242.316,21.3085995,-157.6791,NA,"KMHH1","190046EE",NA,NA,0,0,0,0,0,0,0,8.38199999999983,0,0,0,0,0.507999999999811,0,0.254000000000133,0,0,6.85799999999995,0.762000000000171,1.77799999999979,0,0,0,0,0,0,0.254000000000133,0,0,0,0
728.2,"PALEHUA","RAWS","RAWS","OA",722.376,21.385,-158.1041667,NA,"PLHH1","4870F55E",NA,NA,0,0,0.5,0.5,4.09999999999999,0,0,0.5,0,0,2.5,0,0,0,0,0,0,0,2.80000000000001,0,0,0,0,0,0.51,0.5,0,0,0,0,0
734.5,"HONOULIULI STREAM TRIBUTARY NEAR WAIPAHU 4WNW","NWS","STATE","OA",195.72,21.4019,-158.067,NA,"HOUH1","DD7ED01C",NA,NA,0,0,0,0,0,0,0,0,0,0,0,0,0,0,0,0,0,0,0,0,0,0,0,0,0,0,0,0,0,0,0
740.5,"Kunia","NWS","HydroNet-UaNet","OA",85.0392,21.3869991,-158.0358,NA,"KUNH1",NA,NA,NA,0,0,0.0949647139343855,0.0949647139343855,1.1019002056161,0,0,0.0949647139343855,0,0,2.96960565572541,0,0,0,0,0,0,0,0.531802398032561,0.0751264925398082,0,0,0,0,0.0968640082130732,0.250888594312728,0,0,0,0,0
741,"EWA PLANTATION 741","EWA PLANTATION","COOP","OA",12,21.3401713,-158.0339215,"USC00510507",NA,NA,NA,NA,3.09081350981942,0,0,0,0,0,0,0,0,3.12674406222418,2.26291703397493,0,0,0,0,0,0.3635748909563,0,0,0,0,0,0,0,0,0,0,0,0,0,0
742.4,"HONOULIULI PHB","FWS","RAWS","OA",1.524,21.35666667,-158.0205556,NA,"HOFH1","327BF39A",NA,NA,0,0,0,0,1,0,0,0,0,0,4,0,0,0,0,0,0,0,0,0,0,0,0,0,0,0.25,0,0,0,0,0
750,"WAIPAHU 750","OAHU SUGAR","COOP","OA",18,21.38683459,-158.0072536,"USC00519738",NA,NA,NA,NA,5.6,0,0,0,0,0,0,0,0,0,4.1,0,0,0,0,0,0,0,0,0,0,0,0,0,0,0,0,0,0,0,0
752.6,"WAIAWA PHB","FWS","RAWS","OA",1.524,21.38694444,-157.9811111,NA,"WWFH1","3274C092",NA,NA,0,0,0,0,0,0,0,0,0,0,4,0,0,0,0,0,0,0,0,0.25,0,0,0,0,0,0.25,0,0,0,0,0
764.6,"AIEA HEIGHTS 764.6","G FOWLER","COOP","OA",238,21.39488776,-157.91031,"USC00510123",NA,NA,NA,NA,0,0.5,0,0,5.1,0,0,0.5,4.3,0.3,6.4,0,0.5,0,0,0.5,2.5,0.8,2,1.8,1.3,0,0,0,0.5,7.6,3.8,0.8,10.7,0.5,13
764.7,"AIEA 0.7 ENE","CoCoRaHS","CoCoRaHS","OA",175,21.393,-157.9186,"US1HIHN0014",NA,NA,NA,NA,0.8,0.3,0,0,8.1,0.3,0,0.5,3.3,0,36.3,0,0.5,0,0,0,1.8,0,1.3,1.3,0.8,0.3,0,0,0,7.4,3,0,9.4,0,11.4
770,"MOANALUA 770","ROXBURGH J","COOP","OA",6,21.34794527,-157.8950332,"USC00516395",NA,NA,NA,NA,0.8,0,0,0,0,5.3,0,0,0.8,0,4.8,0,0,0,0,0,0,0.3,0.8,1.3,0,0,0,0,0,5.6,1.8,0,0,0,3.8
771.11,"N.HalawaValleyRGattunnel","USGS","USGS","OA",335.28,21.40488889,-157.8504444,NA,"TNLH1","DD75A524",NA,NA,5.84199999999998,3.30200000000002,1.01599999999996,21.59,3.80999999999995,0.254000000000019,0,18.034,5.84200000000004,0.507999999999981,10.668,0,4.31799999999998,0,8.12799999999999,5.58800000000002,8.63600000000002,2.03199999999998,8.38200000000001,7.11199999999997,0.254000000000019,0,0,2.53999999999996,6.096,6.35000000000002,3.81,1.77800000000002,0.253999999999962,3.048,8.89000000000004
771.9,"NHalawaRainGagenrHonolulu","USGS","USGS","OA",210.312,21.382,-157.9033333,NA,NA,NA,NA,NA,1.16267269839261,0.200326225203093,0.0843689420744485,0.299105068805661,1.68381525028489,0,0,2.16015053434639,3.72700938623749,0.297100729772422,5.52147879382591,0,0.59659046924729,0.134990307319118,0.134990307319118,1.8482552323767,1.80641027985614,0.61962702913061,1.49613464625055,1.91297156329123,0.50805795236389,0,0,0,4.54482397428975,7.13473084371548,1.25195912949366,1.26899809939802,2.62464327677384,1.98324553969582,5.31164987137429
772,"MoanaluaRaingagenrHonolulu","USGS","USGS","OA",103.058976,21.37823611,-157.8700306,NA,NA,NA,NA,NA,3.50347712409843,1.07354218138603,0.715288326187395,5.61454535534548,1.6957700346069,0.112972351087724,0,9.39667444648836,5.69804047975926,0.969444451154262,10.7610560045557,0,1.87383295196116,0.658497304591154,3.15416712159403,4.30282464247408,4.56659174032418,1.59100518418588,4.73617102500151,4.88726471593951,0.320097899429172,0,0,0.668775397663711,7.85353924337028,11.70316305328,1.40364204187753,1.62888500794486,0.724772639148432,3.50234978389219,5.23627577426836
772.1,"N.HalawaRaingagenrAiea","USGS","USGS","OA",97.536,21.39295833,-157.8908639,NA,NA,NA,NA,NA,1.87892776802861,0.433285435652125,0.197430508968182,2.55582621168497,0.943061390449613,0.0262061029648837,0,4.10440636343988,3.59903218723232,0.302152544745971,5.53204652537205,0,0.973062380545247,0.148169755373855,0.986765050250071,2.47796088223581,2.23738978191677,0.686126038762928,1.99789353222488,2.37530818136658,0.252942979192408,0,0,0.262061029648814,5.49021471511663,6.55183236543527,0.799966124996917,1.37269076015749,0.183340344672499,2.36406960796084,3.43821270127578
772.3,"MoanaluaRGNo.1atalt1000","USGS","USGS","OA",304.8,21.39338889,-157.8401111,NA,"MOGH1","1689664A",NA,NA,5.65707867913686,2.14507077744573,1.15587434495762,17.4139994239371,1.82601114784506,0.31931633818515,0,16.5930258991892,5.12967427538823,1.37907752517451,12.7286549094068,0,2.70819833741674,1.88465061117869,5.52753728168133,6.49329440779669,6.19161622031251,2.58573925120094,6.83659359516076,5.81861706126092,0.719511100800491,0,0,1.08071150667122,10.835861521642,14.5862268660521,1.62413069105982,3.80489483834661,0.714609611115451,6.59273238270445,8.02490731147996
772.5,"Moanalua Stream","USGS","HydroNet-UaNet","OA",72.2376,21.3736,-157.8801,"USC00516400","MOAH1","1900B66A",NA,NA,3.04799999999977,0,0,0.762000000000171,1.77800000000002,0,0,3.30199999999991,7.11200000000008,0.508000000000038,7.61999999999989,0,0.508000000000266,0,0,2.79399999999987,1.77799999999979,0.762000000000171,2.28600000000006,3.81000000000017,0.253999999999678,0,0,0,8.89000000000033,11.9379999999999,1.01599999999985,1.26999999999998,0.508000000000266,2.79399999999987,4.31799999999998
772.6,"MoanaluaRaingagenrKaneohe","USGS","USGS","OA",350.52,21.38823333,-157.8486389,NA,NA,NA,NA,NA,4.64026990937499,3.77553799625475,1.25498275214544,5.12217172475074,3.63426158432373,1.60217990667432,0.699541592059204,13.9533831287187,7.6401118142699,2.4526440465485,19.2518422082341,0.236018383830285,2.48773473337587,4.17772175800718,6.97972367926302,4.1836168806638,7.65247425528494,6.33947026941732,8.27148025645111,5.14288518241639,3.38685253415455,0,0.236018383830285,0.402183761752434,5.23317636510888,16.0340404642835,2.02974682713032,2.95114848568931,4.41553273596813,4.93734415342592,8.39448249396128
773,"KAPALAMA 773","KAMEHAMEHA SCH","COOP","OA",188,21.33933391,-157.8567005,"USC00513268",NA,NA,NA,NA,1.5,0.3,0,0,1.4223743616064,2.39210807735676,0,0.356841971007198,4.1,0.3,7.9,0.5,0.264449731729406,0,0.295676587621548,0.8,1.8,1.3,2.5,1.17843279171488,0.465827928229752,0,0,0,0.8,16.3,2.23092169377357,0.339966555417036,3.1553945745811,0.5,8.1
775,"NUUANU RES 5 775","BWS","COOP","OA",125,21.339125,-157.835905,"USC00516933",NA,NA,NA,NA,1.8,0.5,0.5,0.5,0,0,0,6.6,4.3,0.5,11.2,0,2,0.8,0.8,5.6,4.3,1.3,2.3,2.5,0.8,0,0,0,11.4,11.9,0.5,4.3,0,6.4,6.4
777,"KALIHI RES SITE 777","BWS","COOP","OA",277,21.37516437,-157.8222555,"USC00512960",NA,NA,NA,NA,4.6,2.8,0.3,8.1,2.3,0.3,0,11.9,1.5,1,4.8,0,1.5,2.3,2.8,5.8,2.5,2.8,3.6,3.6,0,0.5,0,0,8.1,8.1,3,0.5,1,1.5,4.3
777.3,"Wilson Tunnel","NOAA-NWS","HydroNet-UaNet","OA",314.5536,21.3771,-157.8166,NA,"WITH1",NA,NA,NA,4.31914784224854,2.32755727434903,0.616392858539058,9.11066946747971,3.22111349191426,1.36432764243989,0.465982490391075,9.28814012681936,6.20015533097836,1.91340831221213,13.704103718614,0.18639299615643,1.25660371762938,2.85577415017712,4.92740903628235,3.83811142742476,4.49577185948132,4.50824875414514,5.72695675262971,3.48677691148059,2.53060891562926,0.132351120526971,0.18639299615643,0.231147321952207,4.80689216309515,11.7225963804863,2.25295591089155,1.94415106332203,2.80061896719857,2.97034872054772,6.67234773272541
780.5,"TANTALUS 2 780.5","NEWMAN N","COOP","OA",404,21.32711168,-157.8239234,"USC00518738",NA,NA,NA,NA,1.22487274637495,1.7049238684155,0.556760339261342,2.39406945882377,3.84424440360961,0.0835140508892013,0.0835140508892013,4.46088754775914,4.22865651061572,0.861493822663508,9.17343060770066,1.55892894993176,0.869783359523483,0.946492576744281,1.8579866166837,2.90195859782738,3.95918456013447,3.70777638656476,3.17291525150019,1.60569676470846,0.958617540889515,0,0.577437836382615,0.0556760339261342,2.42871230945524,10.3366885073832,3.3031971171661,1.59208709737166,8.44692009889043,2.48438834338137,13.3999837328353
781,"KANEOHE MAUKA 781","STATE HOSPITAL","COOP","OA",61,21.40849568,-157.8105878,"USC00513113",NA,NA,NA,NA,19.3104002397156,4.02597856487291,0.630705280159252,3.54760933624243,16.5110241129125,1.0699761231853,0,8.00687102398601,2.86410430113765,0.881014222692116,3.17836419654083,0,1.09674982520492,1.55346721399025,2.1450297646532,1.96393135563238,1.55480742575421,2.85922201051761,4.08934541164556,3.11171170434464,0.245314787302242,1.18914025222796,0,0.0670688013779786,3.01166307630228,5.62674217895976,2.30044724196439,1.94744034585471,1.48584173726128,2.16985064725257,3.19767120668981
781.11,"LulukuRaingageatalt","USGS","USGS","OA",67.056,21.39184444,-157.809475,NA,NA,NA,NA,NA,5.08,0.762,0,16.764,1.27,0.254,0,8.128,1.5847325444726,0.177692978534933,4.064,0,0.254,1.524,3.71294381321806,3.81,0.762,1.14483329822246,4.64918036175109,3.12263245729923,0.0471431521149828,0.417033371523694,0,0.471431521149786,1.29824899936886,1.96897090092405,1.20758732755276,0.663628762024171,1.3266232876191,0.999779209463665,2.80808514441296
781.13,"KANEOHE 0.8 SW, HI US","CoCoRaHs","CoCoRaHs","OA",20,21.4039,-157.8017,"US1HIHN0027",NA,NA,NA,NA,10.7,1.5,0,0,3.8,0.3,1,0.3,11.9,0,2.5,0,2.3,0,6.4,0,1.5,1,1.5,4.1,0.5,0,0,0,0,0.3,NA,NA,NA,NA,2.5
781.7,"LULUKU 781.7","NWS","COOP","OA",84,21.3873,-157.8098,"USC00515655",NA,NA,NA,NA,NA,NA,0,NA,NA,0,NA,7.9,NA,4.1,0,NA,NA,1.5,NA,3.8,NA,NA,1.5,1,0.8,0,0,NA,NA,NA,NA,0.3,NA,NA,NA
781.9,"RBKamooaliiRaingagenrKaneohe","USGS","USGS","OA",59.484768,21.38628889,-157.7928083,NA,NA,NA,NA,NA,2.8525536649669,1.07693648995493,0.323283322709911,6.90673794599392,0.55149675488677,0.0854314030765915,0.0746038437022872,6.96135604158054,0.397887166412198,0.497358958015248,4.02777287460704,0,0.781733944297939,1.407834542887,2.28785120687014,2.10211332687403,1.84784287487857,2.13864351946557,3.03388964389301,2.63600247748081,0.248679479007624,0,0,0.149207687404574,2.53653068587776,5.32174085076315,0.248679479007624,0.895246124427446,1.64128456145032,2.28785120687014,1.88996404045794
782.3,"Nuuanu Upper","NWS","HydroNet-UaNet","OA",248.412,21.3502007,-157.8184,"USC00516938","NUUH1","156097FE",NA,NA,2.79399999999987,1.77800000000002,2.03199999999993,4.57200000000012,0,0.253999999999905,0,16.2560000000001,2.53999999999996,2.28600000000006,17.5260000000001,0,3.04799999999977,2.54000000000019,6.34999999999991,6.60400000000004,7.62000000000012,3.04799999999977,7.36599999999999,5.58799999999997,0.508000000000038,0,0,0.762000000000171,6.85799999999995,14.9860000000001,0.507999999999811,2.28600000000006,1.52400000000011,5.33400000000006,4.57199999999989
783,"NUUANU RES 4 783","BWS","COOP","OA",320,21.35266525,-157.807534,"USC00516928",NA,NA,NA,NA,4.6,3.3,1.3,5.1,0.5,0,0.3,17,0.8,1,10.7,0,2.8,3.6,4.6,3.3,6.4,4.3,6.1,5.3,0.5,0,0,0.3,5.1,10.7,0.5,1.8,3.3,4.6,3.8
784,"PAUOA FLATS 784","BWS","COOP","OA",549,21.33516641,-157.8105899,"USC00517810",NA,NA,NA,NA,6.6,4.8,2,8.6,0.3,0.3,0.3,14.7,3.8,2.3,16,5.6,1.8,5.1,6.9,9.1,7.6,11.2,6.1,1,0,0,0,0.3,7.4,17,1.8,3.6,2,7.6,13.7
785.11,"WAIHI STREAM NEAR HONOLULU 3NE","USGS","USGS","OA",108,21.3283,-157.801,NA,"WISH1","16EA459A",NA,NA,0,0,0,0,0,0,0,0,0,0,0,0,0,0,0,0,0,0,0,0,0,0,0,0,0,0,0,0,0,0,0
785.4,"Manoa Lyon Arbo","NWS","HydroNet-UaNet","OA",151.7904,21.3330002,-157.8024,"USC00516128","MNLH1",NA,NA,NA,6.4,6.4,0,5.1,11.7,5.1,2,5.1,21.6,4.1,29.2,0.8,1,6.4,9.7,1.5,8.1,12.2,10.9,3.6,10.2,0,0.8,0,2.5,21.6,5.6,4.8,8.9,4.1,17.8
787.1,"MAUNAWILI 787.1","HSPA","COOP","OA",127,21.351,-157.7668,"USC00516222",NA,NA,NA,NA,3.50994935336826,0.292952983488946,4.3,1.3,1.5,0,0.3,8.95627456570568,0,6.1,2.29772366158907,0,1.05159159055151,1.52876319494172,3.28858544839844,3.3,2.58906043487656,1.33054771815377,0.8,3,0,0,0,0,1.76982256083745,3.94549172566027,0.5398231280479,2.3,0,1.55194212055039,2.25241163693154
787.2,"Maunawili","NWS","HydroNet-UaNet","OA",127.1016,21.3509998,-157.7668,NA,"MAUH1","19007374",NA,NA,7.6200000000008,2.28599999999915,3.55599999999959,1.77800000000116,1.77800000000025,0,0,15.7479999999996,0,0,6.09599999999864,0.254000000001724,1.26999999999862,0,7.11200000000099,3.30199999999968,1.52400000000034,0.761999999998807,4.06400000000122,3.80999999999949,0,0,0,0,0.50800000000072,3.04799999999977,1.77800000000025,2.28599999999915,0,0,7.11200000000099
788,"ST STEPHENS SEMINARY","ST STEPHEN SEMIN","COOP","OA",143,21.3666,-157.7785,"USC00518601",NA,NA,NA,NA,3.44301457992085,0.3,1.8,3,0.8,0.3,0.0910814900718787,6.97306535971012,0,2.02801047418324,2.93769779377367,0,0.607007479592818,1.28490997368771,2.87550318571607,2.09209574863324,1.26113507649791,2.20656399030512,1.98507399490026,1.8,0,0,0,0,2.42070696221838,4.19642087972364,0,0,1.3,1.49371117626855,3.49954719465462
788.1,"PALI GOLF COURSE 788.1","C&C PARKS & RECR","COOP","OA",146,21.37183016,-157.7839226,"USC00517656",NA,NA,NA,NA,NA,0,0,0.522780336742827,0,0,NA,NA,2.61390168371413,NA,NA,NA,NA,NA,NA,NA,NA,NA,NA,NA,NA,0,0,0,0,1.74260112247609,0.522780336742827,2.61390168371413,1.3,3,6.1
