"SKN","Station.Name","Observer","Network","Island","ELEV.m.","LAT","LON","NCEI.id","NWS.id","NESDIS.id","SCAN.id","SMART_NODE_RF.id","X2021.02.01","X2021.02.02","X2021.02.03","X2021.02.04","X2021.02.05","X2021.02.06","X2021.02.07","X2021.02.08","X2021.02.09","X2021.02.10","X2021.02.11","X2021.02.12","X2021.02.13","X2021.02.14","X2021.02.15","X2021.02.16","X2021.02.17","X2021.02.18","X2021.02.19","X2021.02.20","X2021.02.21","X2021.02.22","X2021.02.23","X2021.02.24","X2021.02.25","X2021.02.26","X2021.02.27","X2021.02.28"
2.32,"SOUTH KONA 2 2.32","COOP","COOP","BI",647,19.10778,-155.78944,"USC00518652",NA,NA,NA,NA,NA,4.3,NA,NA,0,0,0,0,0,0,0,0,0.5,NA,0,0,NA,NA,0.8,NA,NA,NA,NA,NA,NA,0,NA,0.5
2.34,"MILOLII 2.34","COOP","COOP","BI",280,19.186302,-155.886763,"USC00516304",NA,NA,NA,NA,NA,NA,NA,1,0,0,0,0,0,0,0,0,0,1,0.8,0.8,5.1,3.6,NA,0.8,NA,3.8,0.5,NA,NA,2.8,NA,NA
2.36,"KAPUA 2.36","COOP","COOP","BI",533,19.14472,-155.84944,"USC00513376",NA,NA,NA,NA,NA,NA,NA,NA,NA,0,0,2.5,0,0,0,0,0,4.1,0,0,2.3,0.5,1.5,NA,NA,7.6,1.8,8.4,NA,0,NA,0.8
3.22,"HAWAIIAN OCEAN VIEW 4.7 NNE","HAWAIIAN OCEAN VIEW 4.7 NNE","CoCoRaHS","BI",1273,19.135,-155.747,"US1HIHI0035",NA,NA,NA,NA,1.8,4.6,0.5,2,0.5,0,0,NA,NA,NA,NA,NA,NA,2.8,0.5,0.5,0.3,NA,NA,NA,NA,NA,NA,1.3,0.8,0,NA,NA
3.9,"LOWER KAHUKU CS","LOWER KAHUKU CS","RAWS","BI",953.7192,19.10083333,-155.6697222,NA,"LKHH1","32D620C2",NA,NA,2.79400000000001,0.254000000000019,3.81,9.14399999999998,0.254000000000019,0,0,0,10.16,NA,1.52400000000006,NA,6.85799999999995,4.06400000000002,1.77800000000002,1.26999999999998,3.81,13.208,NA,6.858,NA,2.286,6.096,5.58800000000002,NA,0.762,3.81,1.26999999999998
4.12,"NAALEHU 4.6 WSW","NAALEHU 4.6 WSW","CoCoRaHS","BI",391,19.0424,-155.6354,"US1HIHI0001",NA,NA,NA,NA,1.5,1.8,1.5,6.1,4.1412105661855,0,0,0,0,0.5,0,0.8,0,1.66830715677638,0,3,6.9,9.7,2.5,7.4,1.5,3.8,0,1.95428783560231,4.3,0,2.5,0
4.14,"NAALEHU 4.7 WSW, HI US","CoCoRaHs","CoCoRaHs","BI",393.18,19.0421,-155.6371,"US1HIHI0057",NA,NA,NA,NA,NA,2.5,2,4.6,NA,0,0,0,0,0,0,0.8,0,NA,0,2.3,6.9,9.4,1.3,6.1,0.5,NA,2.5,NA,4.1,0,2.5,0
4.15,"SOUTH POINT NEAR NAALEHU 12SSW","NWS","STATE","BI",295.78,18.9928,-155.668,NA,"SOPH1","B1507246",NA,NA,0,1.778,6.858,NA,NA,0,0,0,0,0,0.508,0,0,1.524,3.048,3.302,0.254,4.826,NA,4.064,3.048,0,0,5.842,6.604,0,1.778,0
6.2,"NAALEHU 5.7 W","NAALEHU 5.7 W","CoCoRaHS","BI",679,19.0732,-155.6632,"US1HIHI0012",NA,NA,NA,NA,2.02729503471505,3.8,2,6.1,5.59697041235823,0.8,0,0,0,8.6,0.5,1.5,0.5,4.1,2.5,3.3,3.8,8.4,9.1,3.6,3,3.79651030522177,0,4.6,3,0.8,3.3,0
9.2,"Nene Cabin","Nene Cabin","RAWS","BI",1991.7737,19.2564,-155.6144,NA,"NENH1","32D64524",NA,NA,5.08000000000038,2.53999999999996,NA,0,0,0,0,0,0,0,0,0,NA,7.61999999999989,0,NA,5.08,NA,2.539794984375,NA,5.07999999999993,NA,NA,5.07999999999993,0,2.53999999999996,5.07999999999993,7.61999999999989
12.15,"SEA MOUNTAIN 12.15","SEA MOUNTAIN","COOP","BI",21,19.13310292,-155.5152744,"USC00518600",NA,NA,NA,NA,0,0,2.7176816749575,3.46619508384723,1.95765162076728,0,0,0,0,2.76950376997194,0,0,0,0.259100925023572,0,2.04401915754271,6.01402197011414,7.17709753316265,1.98644042518072,NA,0.431834875039286,1.55460555014143,0,0.431834875039286,2.59100925023572,0,0.690935800062858,0.259100925023572
14,"NAALEHU 14","KAU SUGAR","COOP","BI",206,19.06032754,-155.5855501,"USC00516588",NA,NA,NA,NA,0.742536500101807,0.3,4.3,6.9,4.1,0,0,0,0,0,0,0,0,0.3,0,3,10.2,12.2,2.3,4.98175055374944,0.5,1.8,0,0.5,3,0,0.8,0.3
21,"Pahala","KAU SUGAR","HydroNet-UaNet","BI",346.8624,19.2042999,-155.4872,"USC00517421","PPLH1","B16084B2",NA,NA,1.77800000000025,0,3.80999999999949,0.309089154826584,0,0,0,0,7.87400000000071,1.75943057362825,0,0,1.01599999999962,0,1.77800000000025,5.58799999999974,1.52399999999943,7.11200000000008,0,1.27000000000044,1.26999999999953,0,0,1.44698760185846,0.254000000000815,11.1759999999995,2.03200000000015,0
21.3,"PAHALA MAUKA 21.3","COOP","COOP","BI",332,19.20667,-155.48861,"USC00517437",NA,NA,NA,NA,1.24635021099179,1.8,2.3,1.3,0.5,0,0,0,5.51955093439194,7.4,0,0,0.712200120566372,0.173076749882331,1.24635021099179,2,4.3,5.1,1.32692174909787,1.78050030141721,1.17871140051185,1.03846049929399,0,0.57692249960777,1.90881752896554,7.83420132623267,1.8859382408196,0.173076749882331
23,"KAHUKU","RAWS","RAWS","BI",1796.4912,19.23222222,-155.78,NA,"KRCH1","32639544",NA,NA,3.30199999999999,NA,1.77799999999999,NA,0,0,0,0,0,0,0,0,0.50800000000001,NA,0,0.254000000000005,2.032,6.604,0.762,0.253999999999991,4.572,1.01599999999999,NA,0.254000000000019,0,0,6.09599999999999,2.032
26.2,"KEALAKEKUA 26.2","GREENWELL ESTATE","COOP","BI",442,19.48975723,-155.9122125,"USC00513977",NA,NA,NA,NA,5.62767675652047,1.11326377334142,1.11915441905249,7.55537212675796,0.3,0,0,0,0,0,0,0,0,NA,1.17243265760892,1.87589225217377,2.16275643147569,6.4,3.75178450434754,3,6.33113635108615,4.68973063043316,4.35903962032545,0.234486531522036,0,0.3,3.3,3.51001963686663
27,"HONAUNAU 27","TANAKA S","COOP","BI",332,19.4403158,-155.8788789,"USC00511665",NA,NA,NA,NA,NA,0,0.5,8.1,0,0,NA,NA,0,0,0,0,0,NA,NA,0,3.3,1,NA,8.1,NA,NA,4.3,0,0,0.137962780791306,1,4.3
27.6,"Honaunau No. 2","NWS","HydroNet-UaNet","BI",398.0688,19.4629002,-155.8824,NA,"HAUH1","15D12742",NA,NA,0.507999999998901,0,0.50800000000163,4.31799999999839,0,0,0,0,0,0,0,0,0,6.60400000000027,0,2.03200000000106,0.253999999999905,NA,5.58800000000065,1.27000000000044,5.07999999999993,4.57200000000012,NA,6.34999999999945,0,0.761999999999716,1.27000000000044,8.38199999999961
29.12,"Kealakekua","NWS","HydroNet-UaNet","BI",537.972,19.5181007,-155.9159,NA,"KLEH1","81708572",NA,NA,6.09599999999955,0,3.04799999999977,4.82600000000002,0,0,0,0,0,0,0,0,0,6.56107556579735,1.27000000000044,4.06400000000031,0,6.9325943347392,4.06400000000031,2.25569944776213,6.85800000000017,5.07999999999902,4.37934722731463,0.50800000000072,0,1.01599999999962,0.761999999999716,2.53999999999996
34,"Kapapala Ranch","NWS","HydroNet-UaNet","BI",638.556,19.2754993,-155.4514,"USC00513300","KAYH1","B16097C4",NA,NA,0,0,3.30199999999968,0,0,0,0,0,2.28600000000006,0,0,0,2.03200000000015,0,1.77800000000025,7.11200000000008,0.507999999999811,7.11199999999917,0,2.03200000000106,2.03199999999924,0.254000000000815,0,1.77799999999934,0.762000000000626,0,0.761999999999716,0
36.3,"KAPAPALA RANCH","KAPAPALA RANCH","RAWS","BI",1081,19.25811,-155.441781,NA,"KPRH1","AA10E258",NA,NA,0,0,4.06400000000002,0,0,0,0,0,2.286,0,0,0,2.79399999999998,0.253999999999962,2.79400000000004,4.31799999999998,0.254000000000019,4.31799999999998,0,1.77799999999996,0.762000000000057,0,0,2.03199999999998,1.524,1.01600000000002,0.507999999999981,0
38.9,"KAELAKOMO","KAELAKOMO","RAWS","BI",29.5656,19.29277778,-155.1075,NA,"KMOH1","32807432",NA,NA,0,8.12799999999993,8.63599999999997,0,0,0,0,0,0,0,0,0,13.2080000000001,4.06399999999996,0.762000000000057,0.507999999999925,0.508000000000038,10.414,0.508000000000038,6.85799999999995,8.12800000000004,0.508000000000038,3.55599999999981,9.90600000000006,4.572,7.11199999999997,26.6700000000001,13.4620000000001
39,"Mauna Loa Observatory","NWS","ESRL/GMD","BI",3397,19.5362,-155.5763,"USC00516198","MOBH1",NA,NA,NA,0.762,0,1.524,0.254,0,0,0,0,0,0,0,0,0,NA,0,0,0,1.27,2.794,4.064,0,0,0,0,1.524,1.524,3.81,1.016
39.2,"MAUNA LOA 5 NNE","MAUNA LOA 5 NNE","USCRN","BI",3398,19.5354,-155.576,"USW00021514","MLBH1","CD07379A",NA,NA,1,0,2,0.2,0,0,0,0,0,0,0,0,0,0,0,0,0,1.2,3,4.4,0,0,0,0.2,1.6,1.9,4,0.8
43.3,"PUHE CS","PUHE CS","RAWS","BI",34.126,20.025,-155.8211111,NA,"PHRH1","32D61558",NA,NA,0,0,0,NA,0,0,0,0,0,0,0,0,0,0,0,0,0,4.31799999999998,0.507999999999811,NA,0,0.254000000000133,0,0,0,0,0,0
47,"KEMOKU LAVA FLOW","RAWS","RAWS","BI",1706.88,19.47555556,-155.3627778,"USR0000HKEA","KKUH1","FA4447E8",NA,NA,0,1.524,6.35000000000002,5.07999999999993,0.254000000000133,0.254000000000019,0,0,0,0,0,0,5.33399999999995,2.28599999999994,0,0,2.79399999999998,NA,0,3.81000000000006,5.33399999999995,0,1.77800000000002,7.62,6.35000000000002,8.88999999999999,NA,3.30200000000013
48,"PALI 2","RAWS","RAWS","BI",847.344,19.3175,-155.2922222,"USR0000HPAL","PLIH1","FA900222",NA,NA,0,1.77801513671875,NA,NA,0,0,0,0,0,0,0,0,4.57199096679688,1.0159912109375,6.09597778320312,2.032,0.254,5.3340148953125,0,3.0479736328125,1.2700195640625,0.254,0.507995608203125,NA,3.048,1.01599126054688,3.048,1.27
54.2,"Glenwood","HELBUSH XL","HydroNet-UaNet","BI",802.2336,19.5076008,-155.1707,"USC00510744","GLNH1",NA,NA,NA,0,0,2.032,2.032,0.189893786133281,0.254,0,0,1.524,1.016,2.032,0,20.066,0.5,1.778,1.27,1.27,4.55122594277259,0,18.796,18.796,11.43,19.05,50.546,28.702,41.91,109.728,77.47
55.6,"VOLCANO 4.0","COOP","COOP","BI",1194.8,19.441359,-155.2487445,"US1HIHI0071",NA,NA,NA,NA,0.5,0.5,0.3,7.1,5.1,0,0,0,0.3,0.3,0.5,0,NA,NA,2,2,1.5,NA,3,8.4,13,NA,15.5,17.3,28.2,12.2,41.4,20.3
63,"KALOKO-HONOKOHAU","RAWS","RAWS","BI",7.62,19.67277778,-156.0202778,NA,"KHOH1","FA667668",NA,NA,NA,0,0,10.16,2.794,0,0,0,0,0,0,0,0,3.556,0,1.27,0,0.762,NA,3.048,0,NA,NA,0,0,0,0,1.27000000000001
65.4,"PAHOA 2.1 E","PAHOA 2.1 E","CoCoRaHS","BI",137,19.5043,-154.9165,"US1HIHI0003",NA,NA,NA,NA,2.3,0.8,4.3,9.9,0.0624436103971443,0.193624011098683,0.5,0.5,3.51411617408559,6.1,6.1,0.5,4.1,2.97670460243054,5.10084188999492,7.9,1.8,16.0545644759977,7.4,23.4,15.2,7.6,16,15.2,8.9,25.0332808451503,74.9732342877146,114.6
65.6,"KURTISTOWN 6.6 SSE, HI US","CoCoRaHs","CoCoRaHs","BI",339.63,19.5021,-155.029,"US1HIHI0055",NA,NA,NA,NA,4.1,1.8,9.7,4.6,0.121454958967075,2,0.3,0,3.8,4.8,4.8,3.6,6.6,4.97256950905087,6.6,3.8,5.8,25.2934926408639,6.6,13.7,13.2,7.6,9.1,30,23.7407495608245,19.3,41.1,96.5
67.7,"PAHOA 2.7 SSE","PAHOA 2.7 SSE","CoCoRaHS","BI",259,19.4654,-154.927,"US1HIHI0051",NA,NA,NA,NA,1.3,0.3,8.9,7.9,0.148133095667944,0.697679516898493,0.3,0.5,6.9,3,4.1,0.5,6.1,4.15334201134911,11.9,7.4,3,19.7959953966108,5.3,25.4,20.1,8.1,14.8887444676304,18.8,10.7,14.5,54.4,82.8
68.14,"HONOKOHAU HARBOR 68.14","COOP","COOP","BI",9,19.67944,-156.02333,"USC00511880",NA,NA,NA,NA,NA,NA,NA,NA,2.5,NA,NA,NA,NA,NA,NA,NA,NA,NA,NA,NA,NA,NA,NA,NA,NA,NA,NA,NA,NA,NA,NA,NA
68.21,"KAILUA KONA KE AHOLE AIRPORT","KAILUA KONA KE AHOLE AIRPORT","NWS","BI",27,19.73556,-156.04889,"USW00021510","PHKO",NA,NA,NA,NA,NA,NA,6.604,NA,NA,NA,NA,NA,NA,NA,NA,NA,2,0,0,0,1.524,NA,NA,NA,3.048,NA,NA,NA,0,NA,NA
68.22,"HOLUALOA 4.0 NW","HOLUALOA 4.0 NW","CoCoRaHS","BI",416,19.6799,-155.9699,"US1HIHI0049",NA,NA,NA,NA,NA,NA,NA,2.8,NA,NA,NA,NA,NA,NA,NA,NA,NA,NA,NA,NA,NA,NA,8.9,NA,NA,NA,6.1,NA,NA,0.5,NA,NA
69.25,"Palamanui","Hilo Forest Service","HIPPNET","BI",297,19.73756,-155.99582,NA,NA,NA,NA,NA,NA,NA,0,6.35,2.032,NA,0,0,0,0,0,0,0,NA,0.254,NA,0.762,0.508,NA,0.508,0,9.144,NA,0,0,0,NA,NA
69.27,"KALAOA 1.7","KALAOA 1.7","CoCoRaHS","BI",304.5,19.7238,-155.9926,"US1HIHI0006","","",NA,NA,0.5,2.5,0.5,6.4,0.8,3,0,0,0,0,0,0,0,NA,NA,NA,NA,0.5,3,0,0,NA,9.9,0.3,0,0.3,0,9.4
69.51,"Kailua Kona HI US E6648-EW6648 ","unknown","APRSWXNET","BI",164.05,19.61,-155.96,NA,"E6648",NA,NA,NA,8.63599922180176,NA,0.254000008106232,6.09599990463257,0.508000033924863,NA,0,0,NA,0,0,NA,0,9.90599918365478,NA,NA,NA,NA,NA,4.82599973678589,1.2700000177124,NA,5.33399963378906,NA,NA,5.07999992370606,6.09599979400634,NA
70.16,"Waiaha Stream","NWS","HydroNet-UaNet","BI",460.5528,19.6331997,-155.9486,NA,"WIHH1","9321011E",NA,NA,10.414,0,3.43415600342216,5.08,0,0,0,0,0,0,0,0,0,NA,1.43089833475984,4.57887467123024,0,NA,4.57887467123024,NA,7.72685100770064,5.72359333903626,NA,0.572359333904548,0,1.14471866780705,0.858539000855285,2.86179666951864
70.7,"Puuwaawaa","Hilo Forest Service","HIPPNET","BI",1659,19.72544,-155.87389,NA,NA,NA,NA,NA,7.62,NA,0.508,5.588,NA,NA,0,NA,1.524,0,0,0,0,1.27,1.27,0.254,0.508,1.524,NA,NA,10.668,1.27,NA,0.508,NA,NA,NA,0.254
74.8,"KEALAKEKUA 4 74.8","COOP","COOP","BI",433,19.5106,-155.9217,"USC00513987",NA,NA,NA,NA,6.40314607279787,3.8,0,10.7,0,0,0,0,0,0,0,0,0,NA,1.33398876516678,0,3.3,4.25948006227713,4.26876404853255,6.71681899343762,7.20353933189831,5.33595506066426,4.6,0,0,0,1.93072896730416,3.99368503658375
75.1,"PTA KIPUKA ALALA","RAWS","RAWS","BI",1641.348,19.66694444,-155.7077778,"USR0000HPTK","PKAH1","32666200",NA,NA,0,0.253999999999998,0.254000000000005,0.253999999999998,NA,0,0,0,0,0,0,0,1.524,0.253999999999991,0.254000000000012,0,0,0.761999999999993,0.253999999999991,0,0,0,0.254000000000005,7.112,0,0,3.81,0
79.6,"Kulani NWR","NWS","HydroNet-UaNet","BI",1623.3648,19.5543995,-155.3089,NA,"KNWH1",NA,NA,NA,0.254,1.016,2.54,1.04673078842068,2.794,0.254,0.508,0,0.634887575724429,0.254,0.254,0,8.636,0.815137652883729,0,0.254,0.254,0,0,13.716,9.79539044727427,2.286,17.197547337127,31.496,24.384,34.036,23.114,34.036
83,"QuarryRainGageatSaddleRd","USGS","USGS","BI",1286.256,19.68586111,-155.2942222,NA,"SDQH1","DDF6B6E4",NA,NA,0,0.253999999999678,0,2.03200000000038,7.36599999999976,0.254000000000133,0,0,1.26999999999998,0,1.52399999999989,0,9.39800000000014,2.03199999999993,0.253999999999905,0.254000000000133,5.07999999999993,6.07958719092811,0,13.7160000000001,14.8376781866863,3.80999999999972,34.5440000000001,49.0219999999999,36.83,52.578,55.372,59.69
85.2,"Waiakea Uka","NWS","HydroNet-UaNet","BI",303.8856,19.6585999,-155.1277,"USC00519084","WKAH1",NA,NA,NA,0.254,0,0,0.254,0.254,0,0,0,0,1.778,6.604,0,13.716,0,0.254,0.508,0.508,5.41231436734019,0,12.446,10.414,4.826,13.716,38.1,17.526,41.91,138.176,73.152
87,"HILO INTERNATIONAL AIRPORT 87","NWS","HydroNet-UaNet","BI",11.6,19.7191,-155.053,"USW00021504","PHTO",NA,NA,NA,0.508,0,0.254,1.778,0.508,0,0,0,1.524,0.508,3.048,0.762,12.192,4.8,1.27,0,2.54,3.048,0.508,7.366,4.318,5.334,20.574,25.6463618757625,20.32,29.21,71.882,65.024
87.5,"HILO 5 S","HILO 5 S","USCRN","BI",189,19.645,-155.0827,"USW00021515",NA,NA,NA,NA,0,0,0,0,0.7,0,0,0,0,0,3.1,0,10.7,1.9,0.8,0,6.7,3.8,0,7.8,9.6,4.6,14.8,34.8,15.3,53.8,147.1,96.8
87.9,"IPIF","Hilo Forest Service","HIPPNET","BI",111,19.69748,-155.0954,NA,NA,NA,NA,NA,0.254,0,0,0,0.254,0,0,0,0,0,6.858,0.254,10.16,2.54,0.508,0,9.652,8.382,0,10.668,9.652,5.588,14.224,36.0732399131613,19.304,32.766,113.286,71.12
88.8,"Waiakea Exp Farm","UNIV HAWAII","STATE","BI",183,19.644743,-155.0805636,NA,"WEXH1","CD07410A",NA,NA,0,0,0.508,0,0.762,0,0,0,0,0,1.016,0,11.176,NA,0.508,0,6.096,4.064,0.254,8.636,10.16,4.826,14.986,34.29,15.494,52.832,144.272,83.82
89.11,"Piihonua","NWS","HydroNet-UaNet","BI",296.8752,19.7098007,-155.1395,"USC00518053","PIIH1",NA,NA,NA,0.254,0,0,1.016,0,0,0,0,0,1.016,6.096,0,9.398,0.3,2.032,1.524,0,5.01563608459578,0,9.906,11.7507816343917,7.874,19.558,27.94,22.352,36.576,172.72,86.106
89.13,"KAIWIKI HOMESTEAD 89.11, HI US","COOP","COOP","BI",379.67,19.7509,-155.1362,"USC00512802",NA,NA,NA,NA,4.3,0.3,0,0,0.3,0,0,0,0,1.3,12.7,1.3,2.5,5.18604186060611,0.5,4.1,4.1,26.2,1,10.4,5.6,9.23280932357275,17.7899922339932,34.5,21.3,47,69.6,115.8
91.11,"PUNA MACADAMIA O 91.11","COOP","COOP","BI",244,19.61861,-155.08667,"USC00518315",NA,NA,NA,NA,0.487251187131787,0,0,0,0,0.0787316297954592,0.393658148977296,0,0,0,0,0,7.73066391939579,1.21784650202474,0.806905971474898,1.20509644784818,0.462649582305097,12.9910811907005,2.8,7.73981677255737,7.66126497798298,4.81191738163729,13.7,22.1,31.2382097552009,25.4,109.965219534576,80.519253787981
91.15,"Mountain View","Mountain View","HydroNet-UaNet","BI",346.5576,19.5674992,-155.0841,NA,"MTVH1",NA,NA,NA,0.762,0,5.334,2.286,1.016,0,0,0,0.508,0,2.032,0.508,NA,NA,2.794,0.508,2.286,NA,2.032,21.336,12.446,9.906,18.796,29.972,16.256,39.37,128.778,99.314
91.17,"PAHOA BEACON 91.9, HI US","COOP","COOP","BI",148.5,19.5407,-154.9728,"USC00517460",NA,NA,NA,NA,NA,NA,NA,NA,NA,0,0,NA,NA,NA,NA,NA,NA,5.8,NA,NA,0,NA,NA,NA,NA,NA,NA,NA,NA,NA,NA,NA
91.9,"Pahoa Beacon","NWS","HydroNet-UaNet","BI",187.1472,19.5149994,-154.9644,NA,"PHAH1",NA,NA,NA,0.762,4.826,4.826,14.732,0.219977525582021,0.254,0,6.858,0.465934059659666,3.302,4.826,2.54,9.78996086417588,1.5495640231676,3.81,6.604,0.762,5.6624918412564,2.286,21.844,8.36240626288767,3.302,15.748,18.542,14.986,26.924,108.966,50.038
92,"KEAAU 92","PU SUGAR","COOP","BI",87,19.62918887,-155.0333418,"USC00513872",NA,NA,NA,NA,1.58870696021597,3.6,1.8,0.246880555397973,0,0.128588031237762,0.37032083309696,0.535258107413635,3.8,4.3,5.24815696905504,0.617201388494932,6.04340994973837,3.49189672570068,0.575739953046716,1.3,0.575345696396865,7.6,2.23353481335664,4.94746177175866,5.84335327933891,3.99095546314348,11.5788130709352,18.4342684393201,42.1356157887018,28.9905848465977,47.9940789209723,82.9112788724391
92.5,"KiholoRainGage","USGS","USGS","BI",283.96692,19.82580556,-155.8925833,NA,"KIRH1","DD60236E",NA,NA,NA,0,0,0.253999999999991,1.01600000000001,0,0,0,0,0,0,0,0,1.77800000000001,0,0,1.524,0,0,0,0,0.508,0,2.032,0,0.254,0,0
93.12,"PUUANAHULU","RAWS","RAWS","BI",830.58,19.83277778,-155.7697222,NA,"PULH1","48703040",NA,NA,9.398,0.507999999999996,0.508000000000003,0.508000000000003,0,0,0,0,0,0,0,0,0,0.253999999999998,0,4.826,0,0.253999999999991,0,NA,2.03200000000001,0,0,2.794,0.762,11.176,0,0
93.13,"Mamalahoa","Hilo Forest Service","HIPPNET","BI",636,19.80256,-155.85062,NA,NA,NA,NA,NA,NA,0,0.508,2.794,1.27,0,0,0,0,0,0,0,0,2.032,0.254,0.254,1.016,9.144,0.254,0,1.778,5.842,0.508,0.254,0,0,0,0.254
93.61,"PAHOA 4.7 NE, HI US","CoCoRaHs","CoCoRaHs","BI",53.95,19.5473,-154.8988,"US1HIHI0065",NA,NA,NA,NA,1.8,1,8.4,8.4,NA,3,0.3,0.3,4.1,8.9,0.3,3.8,6.6,NA,8.1,0.3,1.3,10.2,13,16.3,17.3,1,12.4,13.5,7.6,24.1,26.7,125.2
93.62,"PAHOA 5.7 NE","COOP","COOP","BI",27.4,19.5565,-154.8865,"US1HIHI0070",NA,NA,NA,NA,1.3,NA,NA,NA,NA,NA,NA,NA,NA,NA,1.8,0.3,4.8,10.4,10.2,2.8,1,10.2,9.7,17.3,NA,NA,11.7,NA,12.2,NA,NA,118.9
93.63,"HAWAIIAN PARADISE PARK 2.4 E","COOP","COOP","BI",10.1,19.594568,-154.936038,"US1HIHI0072",NA,NA,NA,NA,1.8,6.9,6.1,9.7,NA,7.4,0,0,NA,2.8,3,0,5.8,NA,NA,1.8,3.6,NA,8.6,13.7,17,1.8,14.2,23.9,7.4,20.1,62.7,108.2
93.64,"KEAAU 5.5","COOP","COOP","BI",18,19.613803,-154.955684,"US1HIHI0068",NA,NA,NA,NA,1.5,2.8,3.8,3.3,NA,0.8,0.3,0,NA,2.3,3.8,1.3,4.6,NA,2.5,4.6,1.3,NA,6.6,14,12.2,3.6,18,16.8,11.9,23.6,42.4,119.4
93.8,"KONA VILLAGE 93.8","KO VILLAGE RES","COOP","BI",12,19.8314012,-155.9858256,"USC00514765",NA,NA,NA,NA,0,0,0,0.3,0.5,0.5,0,0,0,0,0,0,0,0,NA,0.8,0.5,0.3,0,0,0,5.1,NA,5.1,0,0,0,0
94,"KAUPULEHU LAVA FLOW","RAWS","RAWS","BI",372.1608,19.80333333,-155.9180556,NA,"KPLH1","4870E628",NA,NA,NA,0.762,0,0.508000000000003,0.953555740761429,0,0,1.524,0,0,0,0,0,0.254000000000005,0,3.048,0.254000000000005,0,0,0,0.507999999999996,4.82599999999999,0,0,0,0,0,0
94.5,"PUU WAAWAA","RAWS","RAWS","BI",708.9648,19.795,-155.8452778,"USR0000HPUW","PWWH1","487046D0",NA,NA,NA,0.254000000000005,0.253999999999991,3.048,1.01600000000001,0,0,0,0,0,0,0,0,2.794,0,0.762,0.762,7.62,0.253999999999991,0.50800000000001,1.524,2.794,0.254000000000005,0.507999999999996,0,0,0,0
95.11,"WAIKOLOA VILLAGE 2.7 ENE","WAIKOLOA VILLAGE 2.7 ENE","CoCoRaHS","BI",265,19.9465,-155.7883,"US1HIHI0047",NA,NA,NA,NA,0,0,0,0.5,0.3,0.5,0,0,0.5,0,0,0,0,0,5.8,0.3,0.3,0,0,0,2.3,0.5,0,0.3,5.6,0.3,2.5,0.3
95.6,"WAIKOLOA","RAWS","RAWS","BI",297.7896,19.92416667,-155.7936111,NA,"WKVH1","4870C0C4",NA,NA,5.334,0,0.253999999999991,0,0,0,0,0,0,0,0,0,1.01600000000002,0.762,0,1.26999999999998,0,0,0,5.334,0.253999999999991,0,0.762,10.668,0,4.31800000000001,0,0
95.8,"WAIKOLOA 95.8","BOISE CASCADE","COOP","BI",268,19.93389178,-155.7877744,"USC00519142",NA,NA,NA,NA,0,5.1,0,0.3,0.3,0.361062937613122,0,0,0,0,0,0,0,0,4.18833007631222,0.216637762567873,2.8,0.3,0,0,1.66088951302036,0.361062937613122,0,1.3,8.4,0,1.80531468806561,0.216637762567873
95.9,"WAIKOLOA BEACH RT 95.9","COOP","COOP","BI",24,19.91278,-155.87778,"USC00519144",NA,NA,NA,NA,0,0,0,0.5,0,4.6,0,0,0.5,0,0,0,0,0,0,1.3,0,0,0,0,0,0,0,0,0,0,3,0
98.1,"PUUKOHOLA HEIAU 98.1","ROSE FUJIMORI","COOP","BI",43,20.02666416,-155.81944,"USC00518422",NA,NA,NA,NA,0,0,0,0,1.3,0,0,0,0,8.1,0,0,0,0,0,0,0,0,0,0,0,0,0,0,0,0,0,0
98.2,"PUHO CS","PUHO CS","RAWS","BI",29.5656,19.42194444,-155.9075,NA,"PERH1","32D6803A",NA,NA,NA,0,0,NA,2.286,0,0,0,0,0,0,0,0,NA,0,0,0,NA,NA,NA,NA,NA,NA,0,0,0,NA,NA
98.91,"HOLUALOA 0.95","COOP","COOP","BI",527.3,19.6225861,-155.927558,"US1HIHI0067",NA,NA,NA,NA,NA,NA,NA,3.3,NA,0,0,0,0,NA,NA,NA,NA,NA,2.5,NA,3,NA,NA,2.8,2.5,10.4,NA,5.8,6.1,NA,7.9,NA
99,"PTA WEST","RAWS","RAWS","BI",1307.592,19.77166667,-155.7022222,"USR0000HPTW","PKWH1","32667176",NA,NA,4.826,0,1.778,0.508000000000003,0,0,0.253999999999998,0,0,0,0,0,0,2.54,0.253999999999998,0.254000000000005,0,5.08,0,0,0,0,NA,0,0,2.286,0.253999999999998,0
100.3,"Waikii","Waikii","HydroNet-UaNet","BI",1417.0152,19.8614006,-155.6506,NA,"WHIH1",NA,NA,NA,NA,0.762,0.254,1.778,0,0,0,0,NA,0,0,0,0.508,NA,0.254,NA,3.048,0.254,9.144,0.254,2.286,0,2.286,NA,2.794,NA,0,0
102.8,"AUHMOA","RAWS","RAWS","BI",2001.9264,19.83638889,-155.6130556,NA,"AHMH1","4870D3B2",NA,NA,0.253999999999999,0.254,0,0.254,0,0.254,0,0,0,0,0,0.254,0,0,0.254,0,0,0.508,0.254,0,0.254,0,0.254,0,0.507999999999999,0,0.254,0.254
107.4,"PTA EAST","RAWS","RAWS","BI",1959.864,19.68277778,-155.5452778,"USR0000HPTA","PTAH1","3266D18E",NA,NA,0.253999999999991,0.762,2.03200000000001,0,0,0,0,0,0,0,0,0,0.253999999999991,0,0,0,0,0.254000000000005,0,0,0,0,0.253999999999991,1.524,1.01600000000001,1.27,0.254000000000005,0.253999999999991
109,"PTA RANGE 17","RAWS","RAWS","BI",1734.312,19.74583333,-155.6261111,NA,NA,"3279630C",NA,NA,0,0,1.27,0.253999999999998,0.254000000000005,0,0,0,0,0,NA,0,0,0,0,0,0,0,0,0,0,0,0,0,0,0,0,0
113.2,"PUU MALI","RAWS","RAWS","BI",2165,19.92666,-155.44,NA,"PMLH1","3181742E",NA,NA,0,0,0,NA,0.253999999999991,0,2.79400000000001,1.01599999999999,NA,0,0,0,0,0,0,0,0,0,0,0,0,0,0,1.524,0,0.50800000000001,0.253999999999991,NA
127.5,"Laupahoehoe","Hilo Forest Service","HIPPNET","BI",1145,19.93217,-155.29129,NA,NA,NA,NA,NA,0,0,0,5.334,6.89305802067933,0,0.762,0,17.018,0.508,2.032,0,0.508,0,0,0,0.508,5.08,0,1.524,4.064,3.048,12.192,25.654,8.89,48.918201776427,112.522,136.902
129,"HAKALAU","RAWS","RAWS","BI",1950.72,19.82111111,-155.3305556,"USR0000HHAK","HKUH1","8374D370",NA,NA,0,2.03200000000004,0.253999999999962,0.254000000000076,0,0,0,0,0,0.253999999999962,0.762,0,3.30200000000002,0.507999999999981,0,0,1.01599999999996,3.55600000000004,0,3.55599999999998,5.58800000000002,3.30199999999996,10.414,23.622,11.176,26.67,27.686,49.276
132.2,"Spencer","Hilo Forest Service","HIPPNET","BI",454,19.96358,-155.25014,NA,NA,NA,NA,NA,0.254,0,0,10.16,8.382,0,0.254,0,18.4649410805575,2.794,7.874,0,1.016,0,0,0,3.302,2.286,0,2.794,5.334,7.112,19.558,52.578,15.24,44.45,153.168,63.754
133.3,"Laupahoehoe","NWS","HydroNet-UaNet","BI",499.872,19.9792,-155.2372,NA,"LPHH1","B159741A",NA,NA,0,0,0,2.19831685203232,7.11200000000008,0,0.25400000000036,0,21.5899999999997,4.06400000000031,9.65199999999959,0,0.762000000000171,0,0,0,3.55599999999959,2.28600000000006,0,0.508000000000266,1.77799999999979,5.58800000000019,12.4459999999999,54.1019999999999,7.11200000000008,25.3979096005845,92.7100000000005,36.0679999999993
138.2,"KAHUNA FALLS 138.2","COOP","COOP","BI",424,19.86139,-155.16361,"USC00512595",NA,NA,NA,NA,6.1,0.5,1,0.3,0.3,0.3,0,0.5,0.5,4.3,15.7,2.5,6.4,5.1,0.3,2.3,1.5,18.8,6.1,7.6,6.1,8.30214721447287,16.3,25.4,95.3,34.5,35.6,165.1
140.1,"PAPAIKOU MAUKA NO 2 140","MAU KEA SUGAR","COOP","BI",427,19.78695738,-155.1388973,"USC00517724",NA,NA,NA,NA,1.3,0,0,1,0,0.3,1.5,1.8,0,1.3,9.7,2.5,4.3,4.3,0.5,2.3,0.8,25.4,1,5.1,13.7,4.3,17.5,27.9,36.3,35.3,77,131.8
140.6,"Papaikou Well","NWS","HydroNet-UaNet","BI",345.6432,19.7884998,-155.1313,NA,"PPWH1",NA,NA,NA,0,0,0,0,0,0,0,0,1.016,2.286,15.494,0,9.144,NA,1.016,0.508,0,22.098,0,11.43,11.43,8.89,18.034,38.862,30.988,61.722,141.732,74.93
144.1,"PAPAIKOU 144.1","MAU KEA SUGAR","COOP","BI",61,19.78362447,-155.0922318,"USC00517711",NA,NA,NA,NA,1.50986298722745,0,0.3,0,0,0.12220649485916,0.351942638443736,0.508694444749838,1.20380483314229,1.66721715924207,4.98770267718777,0,5.74348903117519,3.31860170149912,0.54716726692954,1.34874442981978,0.3,11.6144309532777,2.12268947629759,4.70193030997088,5.55336072586265,4.59613297684133,11.0041824764549,17.5194169284441,45.2,35.1,45.6122401320622,78.7965775489344
144.12,"PAPAIKOU 1.1 N","PAPAIKOU 1.1 N","CoCoRaHS","BI",108,19.8095,-155.0988,"US1HIHI0011",NA,NA,NA,NA,2.14169495498974,0.129775341958296,0.259550683916591,0.430433850745614,0.177961749031687,0.183635798846168,0.528852968355955,0.764398903985442,0.129775341958296,1.57440718008317,10.1974682836568,1.63039486757478,7.18103130728829,3.84071910249545,0.454342615673714,1.40787445782062,4.47504960888635,17.1379824023975,1.93582781746184,7.97474013215813,10.2171182827639,6.1040264236273,16.0060339013023,22.438372285727,45.1407593445752,34.3126259412814,81.0316367782246,115.6
147.1,"MIDDLE PEN 147.1","KAHUA RANCH","COOP","BI",421,20.10027112,-155.8322151,"USC00516270",NA,NA,NA,NA,0,0,0,NA,0,NA,0,0,0,0,0,NA,0,NA,0,0,NA,0,0,NA,0,NA,0,0,0,NA,NA,0
147.2,"KOHALA RANCH","KOHALA RANCH","RAWS","BI",328.8792,20.08305556,-155.8325,NA,"KHRH1","4870B654",NA,NA,0,NA,NA,4.064,1.27,0,0,0,0,0,0,NA,0,0,NA,NA,0,NA,NA,1.77800000000001,0.507999999999996,0,0,0,NA,NA,0,0
160.3,"Upolu Airport","NWS","HydroNet-UaNet","BI",34,20.265,-155.8582,NA,"UPLH1","B15017A0",NA,NA,0,NA,4.064,NA,3.556,0,0,1.77800000000001,NA,0,1.524,0,0.507999999999996,NA,0,0,6.35000000000001,0,0,0,0.253999999999991,0,3.30199999999999,NA,0.254000000000005,0.762,NA,1.27
175.1,"KOHALA MISSION 175.1","BOND ESTATE","COOP","BI",163,20.2252605,-155.7922137,"USC00514680",NA,NA,NA,NA,NA,3.3,0,6.6,3,NA,NA,NA,1.5,0,5.6,0,NA,NA,NA,0,9.1,0.3,0,NA,NA,NA,2.5,7.9,NA,NA,NA,NA
176.3,"Kahua Ranch HQ","KAHUA RANCH","HydroNet-UaNet","BI",987.552,20.1249008,-155.7884,NA,"KASH1","15D293C2",NA,NA,0,1.18366903899883,0,NA,1.2700000000001,0,0,0,8.88999999999999,0.508000000000038,1.01599999999996,0.254000000000019,3.55600000000004,0,0,0,5.72106702182765,NA,0,0,1.77799999999991,0.508000000000038,1.77799999999991,1.52400000000011,0,0.253999999999905,7.11200000000008,6.85799999999995
178.12,"PONOHOLO RCH 178.11","PONOHOLO RCH 178.11","COOP","BI",762,20.12554592,-155.7774941,"USC00518101",NA,NA,NA,NA,NA,NA,NA,NA,NA,NA,NA,NA,11.2,3.3,NA,NA,6.1,7.6,NA,NA,NA,NA,NA,NA,1.3,NA,NA,NA,NA,NA,NA,NA
185.7,"KawainuiRainGagenearKamuela","USGS","USGS","BI",1237.488,20.08533333,-155.6811667,NA,"KWSH1","DDF6A592",NA,NA,3.30200000000002,1.77799999999991,0.508000000000038,NA,0.508000000000038,0,1.01600000000008,0.253999999999905,NA,6.60399999999993,11.176,3.048,3.30200000000002,0.254000000000019,0,4.31799999999998,NA,0.254000000000001,0,0.254,4.572,8.89,11.43,0.253999999999998,0,1.01600000000001,NA,NA
192.7,"Kamuela Upper","NWS","HydroNet-UaNet","BI",948.5376,20.0319996,-155.6667,"USC00513080","KUUH1","817075F6",NA,NA,0,1.524,0,5.10309420730664,1.01599999999996,0,0,0,1.01599999999996,0.762000000000057,2.54000000000008,0.253999999999905,0.254000000000019,0,0,0,7.36599999999999,3.08620801927701,0,0,2.28600000000006,3.048,1.01599999999996,0.253999999999905,0,0,4.75301799634085,10.1600000000002
192.9,"PUUKAPU HMSTD 192.9","COOP","COOP","BI",916,20.0375,-155.6347,"USC00518386",NA,NA,NA,NA,0.3,0.3,0.5,2.5,NA,0,0.3,0,18.2611090655124,1,8.9,1.3,0.5,0.3,0,0,1,7.4,0,0.3,2,0.3,0.3,0,0.5,0,0.5,9.1
201.3,"Kamuela 1","NWS","HydroNet-UaNet","BI",877.824,20.0394993,-155.6084,NA,"KMUH1","81706680",NA,NA,0,0.507999999999811,0,6.60400000000027,0.253999999999905,0,0,0,11.9379999999992,0,2.28600000000006,0,0,0,0,0,6.35000000000036,0,0,0,1.01599999999962,0,0,0,0,0,3.8100000000004,11.4386265099939
208.1,"Honokaa HI US E6549-AH6AE ","unknown","APRSWXNET","BI",310.01,20.101,-155.531,NA,"E6549",NA,NA,NA,0.254000024318695,NA,0,NA,5.0799996414184,NA,0,0,27.6860008239746,0.508000840187062,4.06400002670288,NA,0,0,0,0,0,0,0,0,0,NA,0,0,0,0,NA,NA
215.5,"Honokaa","NWS","HydroNet-UaNet","BI",591.9216,20.0656,-155.49,NA,"HNKH1","B15047DC",NA,NA,1.52399999999989,0.253999999999905,0,4.80922883359455,15.1116726098023,0.528877432124802,0,0,81.5340000000001,0.253999999999451,6.60400000000072,NA,0,0,0,0,1.77799999999979,0.253999999999905,0,0,0,0,0,0,1.58719348700146,0,0.388809207324341,28.9560000000006
216.6,"HONOKAA 2.5 SSW","HONOKAA 2.5 SSW","CoCoRaHS","BI",757,20.0417,-155.4777,"US1HIHI0033",NA,NA,NA,NA,0.3,0.3,0.5,0.3,21.1,1.5,0.3,0.5,47.0535092894293,NA,1,3.6,0,0.3,0,0.3,0,0.5,0.3,0.3,0.3,0.3,0,0,2.53873502168296,0,0.3,25.4
216.8,"KALOPA 216.8","COOP","COOP","BI",396,20.06111,-155.43528,"USC00512982",NA,NA,NA,NA,0,0,0,0,32.3,1.3,0.398922807660568,0.8,59.9,1.04684321583383,6.9,2.3706633731582,0,0,0,0.257709235010314,0,0.3,0.0966409631288678,0,0,0,0,0.322136543762893,2,0,1,69.6
216.9,"HONOKAA 2.7 ESE","HONOKAA 2.7 ESE","CoCoRaHS","BI",333,20.0606,-155.43,"US1HIHI0034",NA,NA,NA,NA,0,0,0,0,42.9,9.9,0,2.21490697009539,40.1,NA,2.3,4.8,0,0,0,0,0,0.5,0,0,0,0.102101603691662,0,0,2.8,0,1.8,65.8
217.2,"PAAUHAU MAUKA 217.2","COOP","COOP","BI",341,20.07306,-155.44722,"USC00517209",NA,NA,NA,NA,0.114447699662863,0,0,0,50,4.1,0,0.8,43.7,0.31941098146658,6.6,1.3,0.3,0,0,0,0,0,0,0,0,0,0,0,2.5,0,0,51.3
221,"PAAUILO 221","HAMAKUA MILL","COOP","BI",244,20.03860487,-155.3688913,"USC00517312",NA,NA,NA,NA,0,0,0,0,19.3,0.5,1,0.645855219099675,40.1,2.16049096846869,5.1,2.45306265211471,0,0,0,0.8,0.5,0,0.3,0,0,0,0,1,2.57079671903599,0,1,57.7
221.7,"PAAUILO 2.4 SW","PAAUILO 2.4 SW","CoCoRaHS","BI",613,20.019,-155.3988,"US1HIHI0050",NA,NA,NA,NA,0.3,0,0,0,21.8,5.6,0.3,4.6,25.4,NA,0.5,2.3,0,0,0.5,0,0,0,0,0,0,0,0,0,0.5,0,1.5,58.2
250,"ULUPALAKUA RANCH 250","ULUPALAKUA RANCH","COOP","MA",579,20.648174,-156.398497,"USC00518760",NA,NA,NA,NA,NA,NA,NA,NA,1.3,NA,NA,NA,0,0,0,0,NA,NA,NA,NA,NA,8.6,1.3,NA,NA,NA,0,NA,NA,NA,NA,NA
250.2,"Ulupalakua Ranch","NWS","HydroNet-UaNet","MA",581.5584,20.6487999,-156.3981,NA,"ULUH1","8170531A",NA,NA,NA,0,16.2560000000001,1.26999999999998,0,0,0,0,0,0,0,0,0,0,0.507999999999925,0,NA,NA,0,0,0,0,0,0,0,0,3.55600000000004,0
255,"KepuniGulchRainGage","USGS","USGS","MA",225.552,20.6195,-156.2518889,NA,"KPNH1","F000D4EA",NA,NA,0,0,NA,0,0,0,0,0,0,0,0,0,0,0,0,0,0,NA,0,0.253999999999998,3.81,0,0,2.54,1.524,2.28599999999999,NA,0
267,"KULA HOSPITAL 267","KULA SATORIUM","COOP","MA",916,20.70013977,-156.3555187,"USC00515004",NA,NA,NA,NA,0,NA,NA,NA,2,0,0,1.8,0.5,NA,NA,NA,1.3,1,NA,NA,NA,10.7,5.6,0,0,0,NA,0,0,0,0,1.5
267.8,"KULA 1","KULA 1","RAWS","MA",1998.5736,20.68305556,-156.3216667,NA,"KLFH1","AA10F12E",NA,NA,NA,0.253999999999991,66.802,0.762000000000029,0,0,0,0,0,0,0,0,1.01599999999999,0,0,0,NA,6.85800000000003,0,0,0,0,0,0,0,0,NA,2.28599999999997
279,"POHAKAU PALAHA HN-161","HaleNet","HaleNet","MA",2460,20.73061111,-156.1413056,NA,NA,NA,NA,NA,6.096,3.81,21.586,4.064,3.302,0,0,0,0.254,0,0,0,19.558,10.922,0.254,0,7.62,45.468,6.35,NA,NA,4.064,29.972,35.306,46.736,90.932,75.436,40.386
302,"MAALAEA BAY","NWS","STATE","MA",302,20.7903,-156.514,NA,"P36","15DF05C6",NA,NA,0,0,11.43,0,NA,0,0,NA,NA,0,NA,NA,0,NA,NA,NA,2.79399999999998,NA,0,NA,NA,0,0,0,0,0,0,0
311.2,"Kealia Pond NWR","Kealia Pond NWR","RAWS","MA",3.6576,20.7975,-156.4772222,NA,"KPDH1","32B2C438",NA,NA,0,0,5.33400000000002,0,NA,0,0,0,0.507999999999981,0,NA,NA,NA,1.77800000000001,NA,NA,0.254000000000005,NA,0,NA,NA,0,0,0,0,0,NA,NA
311.5,"Kihei 2","NWS","HydroNet-UaNet","MA",54.5592,20.7061005,-156.437,NA,"KHIH1","93202508",NA,NA,1.77800000000002,0,9.39800000000002,1.01599999999996,0,0,0,0,0,0,0,0,0,0,0,0,3.30200000000002,NA,0,0,0,0,0,0,0,0,0,0
324.7,"Kula Branch Stn","NWS","HydroNet-UaNet","MA",944.88,20.7577991,-156.3217,"USC00515000","KBSH1","93220610",NA,NA,0,0.254000000000133,15.4940000000001,3.30199999999991,0.761999999999944,NA,NA,NA,2.53999999999974,NA,0,NA,3.04800000000023,NA,1.0160000000003,0,3.04799999999977,6.34999999999991,NA,NA,0,NA,0,NA,NA,0,4.57200000000012,3.80999999999972
329,"LOWER KAHUKU CS","BD OF A&F","STATE","MA",1149,20.80179746,-156.2805211,NA,"LKHH1",NA,NA,NA,1.52401762890623,6.44530961935175e-09,3.55603027738281,NA,0.253997995117189,2.7343750041986e-09,NA,NA,NA,3.37890600832225e-07,1.524,1.64062499141693e-08,6.85800170898438,1.77804566328126,1.5239869375,0.762023944921875,3.556,NA,1.87499999526608e-07,6.85800170898438,NA,2.34375008290044e-08,6.096,5.58798217851563,1.77734380102379e-07,0.762,3.81,NA
337,"south rim","south rim","CraterNet","MA",2898,20.703948,-156.241101,NA,NA,NA,NA,NA,7,0.2,50.6,0,0,0,0,0,0,0,0,0,2.8,0.6,0,0,5.60317377074386,13,0,0.2,1.2,0,0.2,0.6,0.4,4.4,6.29182000708102,8.2
337.1,"Sliding Sands","Sliding Sands","CraterNet","MA",2697,20.714563,-156.2394,NA,NA,NA,NA,NA,4.6,0.2,63,0,0,0,0,0,0,0,0,0,2.2,0.6,0,0,5.8,15.4,0,0.2,1.8,0,0.2,1.2,0.6,6.4,7.2,7.4
337.12,"Puu Alaea","Puu Alaea","CraterNet","MA",2282,20.73782363,-156.1453106,NA,NA,NA,NA,NA,5.6,2.6,22.4,1.6,6.4,0,0,0,3.6,0,0,0,14.2,6,0,0,NA,47.8,2.4,5.2,NA,1.8,22,25.2,37.2,85.6,99,103.4
337.13,"Paliku","Paliku","CraterNet","MA",1927,20.71236611,-156.1437572,NA,NA,NA,NA,NA,7.8,8.2,32,4.4,2.4,0,0,0,0,0,0,0,29.6,10.4,0,0,5.6,43.4,NA,NA,NA,NA,42.2,52.8,81.4,125.6,75.4,62.6
337.2,"Puu o Pele","Puu o Pele","CraterNet","MA",2424,20.709651,-156.224485,NA,NA,NA,NA,NA,8.2,0.8,76.4,1.6,0,0,0,0,0,0,0,0,1.2,0.6,0,0,6.6,14.4,0,0.2,0.6,0,0,0.8,0.2,5.2,2.8,4.2
337.4,"Silversword loop","Silversword loop","CraterNet","MA",2186,20.731704,-156.205387,NA,NA,NA,NA,NA,7.73962664112502,0.8,25.6,1,0,0,0,0,0,0,0,0,1.17811299164317,0.728194329021097,0,0,7.48819224056399,15.2327217399862,0.0695689165997553,0.55979745764507,1.65535703330038,0,0.254551904871621,2.00517918999381,2.76069889805004,5.73895458822987,7.91167781289252,15.3828921109569
337.5,"Leleiwi","Leleiwi","CraterNet","MA",2722,20.74337371,-156.2288651,NA,NA,NA,NA,NA,11.6,0.2,8.8,0,0,0,0,0,0,0,0,0,0.8,0.6,0,0,NA,16.6,0,0.4,1.6,0,1.2,2.2,1.2,7.6,18.6,49.2
337.6,"Puu Nole","Puu Nole","CraterNet","MA",2261,20.717807,-156.188007,NA,NA,NA,NA,NA,6.82391268894283,1.6,39.4,0.8,0,0,0,0,0,0,0,0,1.6,1.2,0,0,5.62826868905532,14.797702067918,0.2,1.4,3.6,0,0.137367718455509,3.6,6.4,5.54032616913017,6.31999916331788,6.8157913575839
337.7,"Hanakauhi","Hanakauhi","CraterNet","MA",2645,20.73567887,-156.1754875,NA,NA,NA,NA,NA,11.6,1.8,13.6,0.8,NA,0,0,0,0,0,0,0,4.6,3,0,0,10.8,31.4,0.6,2.4,6.2,0,10,9.6,8.2,31.2,27.2,48.2
337.8,"Aloha Park","Aloha Park","CraterNet","MA",2455,20.73555054,-156.1587809,NA,NA,NA,NA,NA,7.4,1.2,22.2,4,2.6,0,0,0,0.8,0,0,0,6.8,3.2,0,0,12.8,31.8,0.2,1,4.2,0,14.8,12,14.6,54.2,60,74
338,"HALEAKALA RANGER STATION 338","HAWAII T PARK","COOP","MA",2143,20.75846738,-156.2455233,"USC00511004",NA,NA,NA,NA,NA,NA,NA,NA,NA,NA,NA,0,2.5,0,0,0,0.3,0,0,0,NA,15.2,NA,0.3,0,0,0,0,0,NA,7.6,19.1
339.4,"PARK HQ HN-151","HaleNet","HaleNet","MA",2120,20.75980556,-156.2481667,NA,NA,NA,NA,NA,3.302,0.254,9.652,1.016,0,0,0,0,0.254,0,0,0,0,0,0,0,10.416,8.382,0,0,0,0,0,0,0,5.08,13.716,36.068
339.5,"NENE NEST HN-152","HaleNet","HaleNet","MA",2590,20.73819444,-156.2458333,NA,NA,NA,NA,NA,6.35,0.254,8.382,0,0,0,0,0,0,0,0,0,0.508,0.254,0,0,8.128,14.986,0,0,0.508,0,0.508,1.27,1.27,6.35,11.684,30.228
339.6,"SUMMIT HN-153","HaleNet","HaleNet","MA",2990,20.71036111,-156.25675,NA,NA,NA,NA,NA,3.556,0.254,47.498,0.254,0,0,0,0,0,0,0,0,3.81,0.254,0,0,4.064,12.192,0,0,0,0,0.762,1.524,0.762,6.096,8.89,8.382
348.5,"WestWailuaikiRainGagenrKeanae","USGS","USGS","MA",472.44,20.81436111,-156.1429722,NA,"WWKH1","DD5E710A",NA,NA,NA,0.253999999999905,42.3532414297883,7.11199999999963,6.09600000000046,0,2.79399999999987,0.253999999999905,NA,1.77800000000025,0,0.762,28.4789406715685,15.0559256751567,0,0,9.33155856528256,85.09,11.7901043176667,6.60400000000001,18.542,6.34999999999999,19.05,28.194,18.542,77.47,65.786,61.468
353,"Hana AP","NWS","HydroNet-UaNet","MA",19,20.7946,-156.0157,"USC00511125","HNAH1","B150314C",NA,NA,9.14400000000023,1.01600000000008,NA,NA,1.01599999999962,0,0,0.762000000000171,NA,0,0,0,6.096,0.762000000000171,0,0,16.5099999999998,40.8940000000002,1.77799999999979,4.06399999999985,NA,0.761999999999716,NA,NA,NA,16.7640000000001,15.2399999999998,NA
361.1,"Lahainaluna","NWS","HydroNet-UaNet","MA",238.0488,20.8909,-156.6556,NA,"LAHH1","81700366",NA,NA,1.77800000000002,0,31.242,0,NA,0,NA,NA,0,NA,NA,NA,0,0,0,NA,NA,4.572,0,0,0,NA,NA,0,NA,0,0.254000000000019,8.38199999999995
380,"PuuKukuiRainGageatalt","BALDWIN PKRS","USGS","MA",1759,20.89083333,-156.6008333,"USC00514887","PKKH1","DD73556E",NA,NA,14.2099536106545,0.25400000000036,33.02,1.26999999999998,0.507999999999811,0.508000000000266,0,0,6.34999999999991,0.253999999999905,0,0.761999999999716,29.0036342247766,0.761999999999716,0.508000000000266,0,13.8880760935019,32.5120000000002,12.0073241854446,2.79399999999987,4.57200000000012,1.01599999999962,6.85800000000063,4.57199999999966,0.253999999999905,101.09314753014,121.420774739372,78.3707119075908
386.6,"Wailuku","NWS","HydroNet-UaNet","MA",146.9136,20.8831005,-156.5124,NA,"WUKH1","9321D776",NA,NA,0,0,33.5280000000002,0,0,0,0,0,2.79399999999987,NA,0,0,0,0,0,0,15.7479999999996,NA,NA,0,0,0,0,0,0,NA,0.507999999999811,NA
387.6,"Maui HI US AR427-AH6GR ","unknown","APRSWXNET","MA",233.76,20.875,-156.516,NA,"AR427",NA,NA,NA,NA,NA,NA,NA,0,NA,NA,0,2.79399991035461,1.77800013828278,0,0,0,0,0,0,11.1759996414185,NA,2.54000062322615,0,0,NA,NA,NA,NA,NA,0.508000016212463,0.254000024318695
390,"WAIKAPU 390","WAILUKU SUGAR","COOP","MA",130,20.8491,-156.5092,"USC00519376",NA,NA,NA,NA,NA,0,NA,NA,3.65042572716212,NA,NA,NA,2,0,0,0,NA,NA,NA,0,NA,30.4431730453897,1.3,NA,NA,0,0,0.344379785581332,0,0,NA,NA
390.4,"Waikapu Country Club","NWS","HydroNet-UaNet","MA",145.9992,20.8346996,-156.5135,NA,"WCCH1","9320E016",NA,NA,0,0,22.3519999999999,0,0,0,0,NA,0.761999999999944,0,0,0,0,0,0,0,10.414,NA,0,0,0,0,0,0,0,0,0,0
398,"KAHULUI AIRPORT","NOAA-NWS","NWS","MA",12,20.8887,-156.41,"USW00022516","PHOG",NA,NA,NA,NA,NA,7.112,1.778,1.016,NA,NA,NA,0.762,NA,NA,NA,0,0,0,NA,3.556,NA,NA,NA,NA,NA,0,0,0,0,0,0.254
426.6,"Pukalani","NWS","HydroNet-UaNet","MA",495.9096,20.8355007,-156.3307,NA,"PUKH1","15D2B52E",NA,NA,3.048,NA,9.39800000000002,0.761999999999944,NA,NA,NA,NA,1.77800000000002,NA,NA,NA,0,NA,0.761999999999944,NA,4.31799999999998,5.33400000000006,NA,NA,NA,NA,0,0,NA,6.85799999999995,5.84199999999998,7.87400000000002
432.4,"Makawao AP834-KH6HHG","unknown","APRSWXNET","MA",473.95,20.855,-156.315,NA,"AP834",NA,NA,NA,0.254000025818632,8.10623201896732e-09,12.6999998092651,4.5719997406007,1.01599993991852,3.24249300742707e-08,0,0.76199996471405,3.55599987978272,5.72204994497838e-09,0,0,0.254000008106232,8.10623201896732e-09,NA,0,8.38199996948242,12.1919994659424,4.35424800215856e-07,NA,0,NA,0.254000008106232,1.52399999713898,1.5239999588562,NA,NA,NA
457.1,"PUUKOLII 457.1","COOP","COOP","MA",128,20.93194,-156.67611,"USC00518407",NA,NA,NA,NA,0.868850573833172,5.3,13.2,NA,0.3,0,0,0,0.8,0,0,0,0.868850573833172,1.05773113336212,3.8,0.3,NA,8.6,NA,1.92658170719529,0,0,0,1.25736254824407,0,1.59197212771968,NA,11.0306246764907
462.4,"KAPALUA W.MAUI AIRPORT 462.4","KAPALUA W.MAUI AIRPORT 462.4","NWS","MA",73,20.9625,-156.6753,"USC00513317",NA,NA,NA,NA,0.772391180485858,1.5,34.3,NA,0,0.0901317888588577,0,0,3.10468758512038,0,0,0,1.24381868625224,1.51421405282881,2.64253193578884,0.8,NA,16.8365632744062,1.11291765100216,1.45425728822039,0.374635052345134,0.030096367471948,0,1.8,0,1.8,NA,15.7910894080719
465.1,"Mahinahina","NWS","HydroNet-UaNet","MA",223.1136,20.9552002,-156.6562,NA,"MABH1","190524C8",NA,NA,1.27,NA,21.336,NA,0,0,0,0,0.762,0,0,0,2.794,NA,NA,0,7.112,13.208,2.794,NA,0.508,0,0,4.064,0,5.334,NA,13.716
466,"MAHINAHINA 466","PIONEER MILL","COOP","MA",257,20.94678808,-156.6555055,"USC00515715",NA,NA,NA,NA,2.3,3,49.1841801827206,NA,0.5,0.5,0,0,1.5,0.5,0,0,2.3,2.8,4.6,0.5,NA,20.1,NA,5.1,1.8,0,0,3.77902548739733,0,5.1,NA,29.2
482,"WAIHEE VALLEY 482","WAILUKU SUGAR","COOP","MA",91,20.94012106,-156.5255102,"USC00519315",NA,NA,NA,NA,0.48676972101866,0,55.4758026745325,NA,5.3,0,0,0,11.9,0,0,0,NA,NA,0,0,NA,44.2,1.8,0.24338486050933,0.24338486050933,0,0,0.5,0,1.8,NA,NA
482.5,"Kahakuloa","Kahakuloa","HydroNet-UaNet","MA",335.28,20.9540997,-156.5342,NA,"KHKH1","781001B6",NA,NA,0,0,NA,1.26999999999998,NA,0,0,0.508000000000038,11.6839999999997,0,0,0,3.04800000000023,3.048,0.253999999999678,0,24.1300000000001,49.276123046875,NA,0,0,0,0,0,0,4.57199999999966,NA,7.36600000000021
486.7,"HAIKU 3.2 SE","HAIKU 3.2 SE","CoCoRaHS","MA",416,20.92011989,-156.3071849,"US1HIMI0001",NA,NA,NA,NA,1,0.5,NA,NA,NA,0,0,0,13.5710868689314,5.8,0,NA,4.13278674714336,5.03121864869627,0,0,NA,63.459826140021,3.69784709745944,0.5,0.5,0.3,0.5,7.6,NA,NA,NA,52.4684230506897
489,"Haiku","NWS","HydroNet-UaNet","MA",99.3648,20.9288998,-156.3225,"USC00510822","AIKH1","50A30568",NA,NA,0.254000000000133,0,8.81366233671328,1.52400000000011,0.761999999999716,0,0,0,0.508000000000266,0,0,0.761999999999944,5.84199999999964,0,0,0,1.91601355145946,NA,5.58800000000019,0.762000000000171,1.26999999999953,2.79400000000032,5.33399999999983,0.843045962642107,0.762000000000171,2.37585680380955,NA,2.2861328125
499.9,"KANELOA","RAWS","RAWS","KO",248.412,20.52222222,-156.5658333,"USR0000HKAN","KAOH1","32793370",NA,NA,0,0,7.62,0,0,0,0,0,0,0,0,0,0,0,0,0,0,NA,0,0,0,0,0,0,0,0,1.01599999999999,0
524,"MOLOKAI KAUNAKAKAI MOLOKAI AIRPORT","ALOHA AIRLINES","NWS","MO",141,21.15514996,-157.0924625,"USW00022534","PHMK",NA,NA,NA,0.254,0.762,10.16,0,0,0,0,0,0,0,0,0,0,0,0,0,0,NA,0,0,0,0,0,0,0,0,0.254,1.016
536.5,"Kaunakakai Mauka","MOLOKAI GEN HOSP","HydroNet-UaNet","MO",28.3464,21.0946007,-157.0174,NA,"KACH1","50A0F2E2",NA,NA,2.53999999999999,1.27000000000004,9.398,0,NA,NA,NA,NA,NA,NA,NA,NA,NA,NA,NA,NA,NA,3.30199999999999,0.253999999999991,NA,0,NA,NA,NA,NA,NA,0,NA
536.6,"KAUNAKAKAI 3.5 ESE","KAUNAKAKAI 3.5 ESE","CoCoRaHS","MO",13,21.068,-156.963,"US1HIMI0002",NA,NA,NA,NA,NA,0.3,NA,NA,0.5,0,0,0,0,0,0,0,0,0.8,0,0,NA,NA,0.8,0,0,0,0,0.5,0,0,NA,NA
538,"MOLOKAI 1","RAWS","RAWS","MO",833.0184,21.115,-156.9475,"USR0000HMLK","MLKH1","487016AC",NA,NA,NA,2.54000000000002,33.528,0.507999999999981,0,0,0,1.01600000000002,1.77800000000002,0,0,0,1.01599999999996,0.254000000000019,0,0,1.01600000000002,4.06399999999996,0,0,0,0,1.524,0,0,0.254000000000019,NA,1.27000000000004
541.2,"Puu ALII WEST","Puu ALII WEST","RAWS","MO",1159.764,21.14083333,-156.9022222,NA,"PAFH1","32D6062E",NA,NA,NA,0.254000000000133,29.2099999999998,1.77800000000002,0.762000000000171,0,0,3.04799999999977,NA,0,0,0.761999999999944,7.87400000000002,3.30199999999991,2.03199999999993,0,6.35000000000014,29.2205618170562,5.8420000000001,5.8420000000001,NA,0.507999999999811,12.7,2.79399999999987,3.04800000000023,7.87399999999957,76.9966282448589,NA
542.11,"Kamalo","NWS","HydroNet-UaNet","MO",8.8392,21.052,-156.871,"USC00513045","KMLH1",NA,NA,NA,NA,NA,NA,NA,NA,NA,NA,NA,NA,0,0,0,NA,NA,NA,NA,NA,NA,NA,NA,NA,NA,NA,NA,NA,NA,NA,NA
550.3,"MAUNALOA 3.2 NNW","MAUNALOA 3.2 NNW","CoCoRaHS","MO",93,21.1804,-157.2319,"US1HIMI0006",NA,NA,NA,NA,0,0,8.9,4.1,0,0,0,0,0.5,0,0,0,0,0,2.8,0,0,0,NA,0,0,0,0,0,0,0,0,0
553,"MAKAPULAPAI","RAWS","RAWS","MO",22.86,21.20333333,-156.9661111,"USR0000HMAK","MKPH1","FA9024CE",NA,NA,3.81000518798828,NA,13.7159957885742,0,0,0,0,0,0,0,0,0,0,0,0,0,0.762,NA,NA,NA,0.254,0,0,0,0,0,NA,1.778
672.1,"Lanai City","NWS","HydroNet-UaNet","LA",498.0432,20.8262997,-156.9182,"USC00515286","LANH1",NA,NA,NA,0.254,0,0,0,0.254,0,0.254,0,NA,0.254,0,0,0,NA,0,NA,0,0,0.254,0,0,0.254,0,0,0,NA,0,0
679,"LANAI 1","RAWS","RAWS","LA",387.096,20.87333333,-157.0063889,"USR0000HLAN","LNIH1","48702336",NA,NA,NA,3.80999999999999,NA,0,0,0,0,0,0,0,0,0,0.254000000000005,0.507999999999996,0.762,0.254000000000005,0.507999999999996,1.27,1.77800000000001,0.253999999999991,1.27,0,0,0,0,0,0,0
702.7,"Kapolei-Kalaeloa AP","NWS","NWS","OA",15,21.31667,-158.06667,"USW00022551","PHJR",NA,NA,NA,3.302,8.128,24.384,0,0,0,0,1.016,0,0,0,0,0.232291167134886,3.8,2.286,0,0,0,1.27,0,1.016,0,0,0,0,0,0.762,0
702.8,"PTWC","NWS","HydroNet-UaNet","OA",1.524,21.3150005,-157.9992,NA,"PTWH1",NA,NA,NA,2.032,12.1862663760187,17.272,0.508,0.115445784124662,0,0,1.524,0,0,0,0,0.451243624717322,8.23986428320247,0.254,0,0,0.346337352373986,1.97302922340803,0,2.29539584361051,0.115445784124662,0,0,0,0,4.572,2.44033166827754
703,"HONOLULU INTERNATIONAL AIRPORT","USWB","NWS","OA",2.1,21.324,-157.9294,"USW00022521","PHNL",NA,NA,NA,1.524,2.286,10.414,0.327286413520986,0,0,0,0,NA,0,0,0.254,0,NA,1.016,0,0,2.286,7.62,NA,NA,0,0,0,0,0.22239229217574,6.35,0.254
703.1,"HONOLULU FIRE STATION 703.1, HI US","COOP","COOP","OA",1,21.3287,-157.9298,"USC00511925",NA,NA,NA,NA,0,4.8,8.4,7.1,0,0,0,0,2.3,0,0,0,0.3,1,0,3.8,0,0,3.50174870441012,3.3,0.5,0.262838792462928,0.32854849057866,0,0.427113037752258,2.10271033970342,2.3,4.58159772917122
705,"BERETANIA PUMP STN 705","BWS","COOP","OA",6,21.305169,-157.8522571,"USC00510211",NA,NA,NA,NA,1.8,2.2025879479995,18.8,0,0,0,0,0.8,0,0,0,0,0,1.3,0,0,0,2.5,0.8,0.3,0.8,0,0,0,0.3,1.8,11.4,9.1
705.12,"Aloha Tower","NWS","HydroNet-UaNet","OA",38.1,21.3034,-157.8627,NA,"ALOH1",NA,NA,NA,1.778,0.762,14.732,0,0,0,0,0.508,0,0,0,0.096699994064269,0.137899425074258,0.757786832810193,0.432766451281842,0,0,0.762,3.67862324333219,0.12713946812283,0.959585994494916,0,0,0,0.08475964541522,0.254,7.9366901286222,3.81
707.2,"EWA KALAELOA AIRPORT","LYDECKER RC","STATE","OA",14,21.30489073,-157.8305905,"USW00022551",NA,NA,NA,NA,2,4.1,14.2,0,0,0,0,1,0,0,0,0,0,3.8,1.8,0,0,0,1.3,0,2,0,0,0,0,0,2.86677670632719,0
707.5,"HONOLULU 2.0 SW","CoCoRaHS","CoCoRaHS","OA",12,21.3004,-157.8293,"US1HIHN0023",NA,NA,NA,NA,0,4.92841839663855,8.70974229387807,10.0167341822618,0,0,0,0,1,0,0,0,0.0975696939605297,0,0,0,0,0,0.3,1.3,0.8,0,0,0,0,0,8.6,8.1
712.1,"MANOA 712.1","BEAUMONT MRS J","COOP","OA",61,21.31044568,-157.8147571,"USC00516122",NA,NA,NA,NA,2,9.4,14.2,15.5,0,0,0,0,1,0,0,0,0.5,0.5,0.5,2.5,0,1,2.16787876762174,11.9798966906393,1.78493996401715,1,0.3,0,0.5,2.5,16.1364112159995,24.2428081248644
713,"UNIV OF HAWAII 713","UH MET DEPT","COOP","OA",24,21.29933514,-157.8167017,"USC00518815",NA,NA,NA,NA,0.3,5.3,7.9,13.5,0,0,0,0,0.8,0,0,0,0,0,0.3,0,0,0.309421172739177,0.5,3,1.3,0,0,0,0,5.6,10.2474886351583,13.2891196347261
715,"WAIALAE KAHALA","TINKER SPENCER","COOP","OA",15,21.27433592,-157.7880917,"USC00519185",NA,NA,NA,NA,1.5,5.1,5.80895524990718,6.34076101222262,0,0,0,0,0,0,0,0,0.8,1.3,1,0,0,0,0,0,0.5,0.3,0,0,0.5,0.8,6.0095498844441,2.5
718,"PALOLO VALLEY 718","BWS","COOP","OA",302,21.32183297,-157.7717015,"USC00517664",NA,NA,NA,NA,18.3,3,24.4,0,0,0,0,0.3,0,0,0,0.8,1.8,3,1,0.3,0.3,7.4,8.4,1.3,4.1,0,0,0,0,1,28.0221419630658,10.661303357789
720.6,"HONOLULU 2.7 SSE","CoCoRaHS","CoCoRaHS","OA",113,21.285,-157.7816,"US1HIHN0010",NA,NA,NA,NA,0.3,3.6,7.18005069752774,8.25749566699015,0,0,0,0,0,0,0,0,0,0,0.8,0.3,0.3,0,0.5,0,0,0.3,0,0,0,0,7.18396955204673,1.3
721,"WILHELMINA RISE 721","BWS","COOP","OA",335,21.29766804,-157.7853133,"USC00519980",NA,NA,NA,NA,9.4,1,19.6,0,0,0,0,0.8,0,0,0,0,1,3.8,1.3,0,0,1.3,2.5,0.3,1.8,0,0,0,0,0,12.4,7.4
721.4,"Palolo Fire Stn","NWS","HydroNet-UaNet","OA",59.436,21.2996006,-157.7944,"USC00517662","PFSH1","19014414",NA,NA,8.12800000000016,3.04799999999977,25.400024446875,0,0,0,0,0.254000000000133,0,0,0,0,0.762000000000171,0.761999999999716,0.254000000000133,0,0,3.048,3.04799999999977,0,2.28600000000006,0,0,0,0,0,12.7,10.1600000000001
721.5,"Honolulu HI US AU956-KH6CTR ","unknown","APRSWXNET","OA",111.96,21.298,-157.792,NA,"AU956",NA,NA,NA,3.04800009727478,0.508000016212463,14.2240005731583,NA,0,0,NA,0.508000016212463,0,0,NA,0,NA,1.52399993753433,1.26999998092651,NA,NA,NA,0.254000024318694,0.25399996471405,NA,NA,0,0,0,0,NA,2.28600003215332
723.4,"PAIKO DRIVE 723.4","GRUBB DL","COOP","OA",3,21.28172556,-157.7282194,"USC00517540",NA,NA,NA,NA,4.1,2.3,8.4,0,0,0,0,0,8.1,0,0,0,0,0,1.5,0,0,1.5,0,0.3,0,0,0,0,0,0,2,1
723.8,"Niu Valley","NWS","HydroNet-UaNet","OA",19.812,21.2896996,-157.7332,"USC00516865","NIUH1","1900D38C",NA,NA,3.04799999999994,2.03200000000004,14.986,0,0,0,0,0.253999999999962,0.254000000000076,0,0,0.253999999999962,1.01600000000002,1.01600000000002,2.53999999999996,0,0,1.524,0.254000000000019,2.03199999999998,0.507999999999981,0,0,0,0,0,0.762,0.508000000000038
724.19,"HAWAII KAI GC 724.19","UNOAA-NWS","COOP","OA",9,21.29889,-157.66444,"USC00511308",NA,NA,NA,NA,NA,2.33338417797107,13.4817752504993,0,2.5,0.3,0,0,0,0,0,0.3,0.5,2.85191399529823,0,0,0,0.5,0,0.5,0.3,0,0.3,0.3,0,0,0.3,1.8
724.21,"Kamehame","NWS","HydroNet-UaNet","OA",242.316,21.3085995,-157.6791,NA,"KMHH1","190046EE",NA,NA,2.32814300691122,2.28600000000006,13.2080000000001,0,8.89,0,0,0,0,0,0,0,0.507999999999811,2.79400000000032,0,0,0,0.826958986142197,0.253999999999905,0,0,0,0,0,0,0,0,0.253999999999905
724.22,"Hawaii Kai Golf Course","NWS","HydroNet-UaNet","OA",8.8392,21.2991009,-157.6644,NA,"HAJH1",NA,NA,NA,2.286,7.366,9.652,0,2.54,0.254,0,0,NA,0,0,0.254,0.508,NA,0,0,0,0.508,0,0.508,0.254,0,0.254,0.254,0,0,0,1.016
734.5,"HONOULIULI STREAM TRIBUTARY NEAR WAIPAHU 4WNW","NWS","STATE","OA",195.72,21.4019,-158.067,NA,"HOUH1","DD7ED01C",NA,NA,0,0,177.8,0,0,0,0,0,0,0,0,0,0,0,0,0,0,0,0,0,0,0,0,0,0,0,0,0
740.5,"Kunia","NWS","HydroNet-UaNet","OA",85.0392,21.3869991,-158.0358,NA,"KUNH1",NA,NA,NA,1.524,7.366,18.034,1.27,0.254,0,0,2.794,0,0,0,0,0.254,0.45797109852291,0.508,0,0,0.762,0.254,0,0.254,0.254,0,0,0.758599071614389,0,5.588,5.08
742.4,"HONOULIULI PHB","FWS","RAWS","OA",1.524,21.35666667,-158.0205556,NA,"HOFH1","327BF39A",NA,NA,1.26999999999998,7.36599999999999,10.414,0,0,0,0,1.77800000000025,0,0,0,0,0.761999999999716,4.31257841118907,1.27000000000021,0,0,0.253999999999678,1.4924140722911,0,0.254000000000133,0,0,0,0,0,9.39800000000014,4.42310389641838
752.6,"WAIAWA PHB","FWS","RAWS","OA",1.524,21.38694444,-157.9811111,NA,"WWFH1","3274C092",NA,NA,1.26999999999998,3.04799999999977,12.9540000000002,0,0,0,0,1.26999999999998,0,0,0,0,1.01600000000008,0.508000000000266,4.31799999999976,0,0,0.507999999999811,1.52400000000034,0,0.253999999999905,0,0,0,0.507999999999811,0,8.88999999999987,8.63600000000042
764.6,"AIEA HEIGHTS 764.6","G FOWLER","COOP","OA",238,21.39488776,-157.91031,"USC00510123",NA,NA,NA,NA,0.8,4.6,13,7.6,0,0,0,0,1.8,0,0,0,0,2.3,1.3,0,0,0.8,4.3,24.4,4.3,3.8,1.3,2,3.3,8.4,16.8489543392848,37.1
764.7,"AIEA 0.7 ENE","CoCoRaHS","CoCoRaHS","OA",175,21.393,-157.9186,"US1HIHN0014",NA,NA,NA,NA,1.3,3.3,12.3102796336518,14.1575714457446,0.3,0,0,0,0,0,0,0,0,1,2.5,0,0,0.5,4.1,27.9,3.3,2.5,1.3,1,2.8,8.9,12.3169985548691,46.5
770,"MOANALUA 770","ROXBURGH J","COOP","OA",6,21.34794527,-157.8950332,"USC00516395",NA,NA,NA,NA,0,3.33334435430807,11.8574184194179,6.2157237725431,0,0,0,0,3.6,0,0,0,0.3,1.3,0,0.3,0,0.250231055432351,10.4,3.6,1.3,0.8,1,0,1.3,6.4,7.6,18.6613096172941
771.11,"N.HalawaValleyRGattunnel","USGS","USGS","OA",335.28,21.40488889,-157.8504444,NA,"TNLH1","DD75A524",NA,NA,27.686,17.5260000000001,26.924,0.507999999999925,0,0.254000000000019,0,1.77799999999991,0,0,0,0.254000000000133,5.33399999999995,10.414,1.77800000000002,0,0,10.922,17.2719999999999,4.31799999999998,10.921997234375,0,1.74962063485938,0.84312774738538,0.963477559873221,1.79264216381033,22.1736648501407,14.0480987676928
772.3,"MoanaluaRGNo.1atalt1000","USGS","USGS","OA",304.8,21.39338889,-157.8401111,NA,"MOGH1","1689664A",NA,NA,22.098,19.812,27.178,0,0,0,0,0.762,0,0,0,0.254,8.128,11.6655411368206,2.032,0.254,0,12.446,10.16,4.064,10.414,0,2.794,0.508,0.254,1.524,32.5857813235084,15.7511481529791
772.5,"Moanalua Stream","USGS","HydroNet-UaNet","OA",72.2376,21.3736,-157.8801,"USC00516400","MOAH1","1900B66A",NA,NA,25.4209402603646,1.01600000000005,16.2559999999999,0,0.254000000000019,0,0,0.50800000000001,0.3,0,0,0.254,2.286,1.778,0,0,0,5.231999971357,17.690501001274,5.842,6.45489328367601,0,2.44410450845661,0.390005593023267,4.75550729768354,4.318,18.2214728286337,15.748
773,"KAPALAMA 773","KAMEHAMEHA SCH","COOP","OA",188,21.33933391,-157.8567005,"USC00513268",NA,NA,NA,NA,0.339966555417036,5.6,27.4,0.8,0.5,0,0,0,5.1,1.3,0,0,0.135402344001326,1.16570580561091,0.465827928229752,0.135402344001326,0,2.05829709486102,21.1,9.15274671044338,2.26970085216743,1.31761935071352,2.3,1.3,1.41742855123634,0.5,16.2909005988902,17.3012573488667
775,"NUUANU RES 5 775","BWS","COOP","OA",125,21.339125,-157.835905,"USC00516933",NA,NA,NA,NA,45.7,2.9778235126314,23.4,0,0,0,0,1.3,0.3,0,0,0.3,4.8,6.2814011900438,1,0,0,7.6,38.1,4.8,13.7,0.3,3.6,1,6.1,4.3,32.5,10.7
777,"KALIHI RES SITE 777","BWS","COOP","OA",277,21.37516437,-157.8222555,"USC00512960",NA,NA,NA,NA,40.9,8.9,23.4,0.3,0.3,0,0,0.8,0,0,0,0.5,4.37400422527447,7.30175312551125,0.5,0.3,0,9.01923051821667,8.9,5.3,8.6,0.3,0,1,0,0.5,10.9,2.8
781.12,"Luluku","NWS","HydroNet-UaNet","OA",84.1248,21.3875008,-157.8099,NA,"LULH1",NA,NA,NA,NA,NA,25.146,0.508,0,0,0,0.508,NA,0,0,0.254,4.064,NA,1.016,0,0,12.954,4.826,2.286,9.906,0,0,0,0,0.508,5.842,4.318
781.13,"KANEOHE 0.8 SW, HI US","CoCoRaHs","CoCoRaHs","OA",20,21.4039,-157.8017,"US1HIHN0027",NA,NA,NA,NA,NA,8.9,NA,NA,0.5,0,0,0,0.8,0,0,0,0,9.4,8.9,0,0,NA,8.9,0.5,5.6,0.3,0,0,0,0.3,NA,3.8
782.3,"Nuuanu Upper","NWS","HydroNet-UaNet","OA",248.412,21.3502007,-157.8184,"USC00516938","NUUH1","156097FE",NA,NA,78.4860000000001,4.31799999999998,28.194,0,0,0,0,1.01599999999985,0,0,0,1.77800000000025,9.90599999999995,11.1759999999999,1.52400000000011,0.507999999999811,0.254000000000133,14.9859999999999,32.0040000000001,6.60400000000004,11.4299999999998,0.254000000000133,5.07999999999993,0.762000000000171,3.30199999999968,1.0160000000003,20.8279999999997,13.97
783,"NUUANU RES 4 783","BWS","COOP","OA",320,21.35266525,-157.807534,"USC00516928",NA,NA,NA,NA,65.3,3.8,21.1,0,0,0,0,0.5,0,0,0,2.3,10.9,9.7,0.8,0.3,0,13.2,17.8,6.9,10.9,0.3,1.3,0.5,3,0.5,16,10.4
784,"PAUOA FLATS 784","BWS","COOP","OA",549,21.33516,-157.81058,"USC00517810",NA,NA,NA,NA,99.3,4.3,31,0,0,0,0,0.5,0,0,0,0.5,8.77134956741348,11.4214025951274,0.3,0.3,0,15.3934267899742,45.5,13.5,14.2255998590881,0,2.3,0.8,2.8,3.3,25.9,15.0822104924053
785.11,"WAIHI STREAM NEAR HONOLULU 3NE","USGS","USGS","OA",108,21.3283,-157.801,NA,"WISH1","16EA459A",NA,NA,NA,0,NA,0,0,0,0,0,0,0,0,0,0,0,0,0,0,0,0,0,0,0,0,0,0,0,0,0
785.4,"Manoa Lyon Arbo","NWS","HydroNet-UaNet","OA",151.7904,21.3330002,-157.8024,"USC00516128","MNLH1",NA,NA,NA,69.088,5.588,30.734,0.254,1.016,0,0,0.508,0,0,0,2.794,8.6316044858312,12.1265871169179,0.508,0,0,14.13267682296,22.606,8.89,15.9902161218225,0,1.27,0.254,1.778,1.27,45.974,18.0420871421689
787.2,"Maunawili","NWS","HydroNet-UaNet","OA",127.1016,21.3509998,-157.7668,NA,"MAUH1","19007374",NA,NA,26.67,6.35000000000002,45.466,0.254000000000019,0.254000000000019,0,0,0,0,0,0,1.01599999999996,3.55600000000004,27.432,4.06399999999996,0,0,NA,4.31799999999998,3.81,8.38200000000001,0,0,0,1.01600000000002,0,8.12799999999999,4.06400000000002
788.1,"PALI GOLF COURSE 788.1","C&C PARKS & RECR","COOP","OA",146,21.37183016,-157.7839226,"USC00517656",NA,NA,NA,NA,15.2,19.8656527962274,23.8736353779224,2.61390168371413,1,0.522780336742827,0,0,7.14466460215197,0,0,0,0,4.00798258169501,14.6378494287992,0,0,0,10.4,9.23578594912328,8.88726572462806,0,0,0,0,1,NA,5.7505837041711
788.2,"St Stephens Seminary","NWS","HydroNet-UaNet","OA",142.9512,21.3666992,-157.7786,NA,"STVH1","19005598",NA,NA,11.938,4.37754331913861,46.228,1.27000000000002,0,0,0,0.253999999999991,0.253999999999991,0,0,0,1.01600000000001,29.972,5.334,0,0,7.36599999999999,10.4399500655674,3.55599999999998,6.60399999999998,0,0,0,1.01600000000002,0,3.81,5.58799999999999
790.11,"Olomana Fire Stn","NWS","HydroNet-UaNet","OA",45.1104,21.3777008,-157.7507,"USC00517052","OFSH1","19011468",NA,NA,5.04950607938018,2.2856445625,20.1823794476482,0,0,0,0,0.5,0,0,0,0,0,18.288,2.22141914508787,0,0,2.286,0.507999999999999,0.254000000000001,2.286,0,0,0,0.254000000000001,0,1.524,1.524
793.1,"WAIMANALO EXPERIMENTAL FARM","CoCoRaHS","CoCoRaHS","OA",38,21.3727,-157.725,"US1HIHN0022",NA,NA,NA,NA,0.5,1.3,16.8,0,NA,0,0,0.3,0,0,0,0,0,NA,7.1,0.8,0,0.8,0.8,0.3,1,0,0,0,0,0,1.8,0.8
793.2,"BELLOWS AFS AT WAIMANALO","NWS","STATE","OA",6.66,21.3667,-157.717,NA,"BELH1","B14036D2",NA,NA,0.762000000000015,2.03199999999998,18.542,0,0,0,0,0,0,0,0,0,0,0,0,0,0,1.27000000000001,0.253999999999991,0,0,0,0,0,0,0,0.50800000000001,0
795.1,"WAIMANALO EXP F 795.1","HAES","COOP","OA",18,21.33516407,-157.7105906,"USC00519523",NA,NA,NA,NA,0.5,4.8,13.2,NA,0.3,0,NA,NA,NA,NA,0,NA,NA,NA,NA,0,0,1,4.6,0,0,2.8,0,0,0,0,0,0
795.3,"Waimanalo Nonokio","NWS","HydroNet-UaNet","OA",20.1168,21.3356991,-157.7116,NA,"WMLH1","224185AC",NA,NA,0.50800000000001,4.572,NA,0.253999999999991,0,0,0,0,0,0,0,0,0.253999999999991,NA,0.253999999999991,0,0,3.81,0,0.253999999999991,2.03200000000001,0,0,0,0,0,0.253999999999991,1.01600000000002
801.1,"Waianae Kawiwi","MT VIEW DAIRY","HydroNet-UaNet","OA",19.812,21.4566994,-158.18,NA,"WAIH1",NA,NA,NA,12.192,1.778,24.892,0,0,0.254,0,3.302,NA,0,0,0,0,NA,0,0,0,1.524,0.254,0,0,0,0,0,0,0,5.08,0
801.2,"WAIANAE BOAT HARBOR","NWS","STATE","OA",4.25,21.4503,-158.184,NA,"WBHH1","15D13434",NA,NA,9.65200000000004,3.04799999999989,23.876,NA,NA,3.04800000000012,0,2.54000000000008,0,0,0,0,0,NA,0,0,0,4.82599999999991,1.01599999999996,NA,NA,0,NA,0,0,0,3.55600000000004,NA
803.2,"WAIANAE VALLEY","RAWS","RAWS","OA",291.6936,21.48055556,-158.1552778,"USR0000HWVA","WNVH1","487005DA",NA,NA,7.1863802990993,2.79400000000004,40.894,1.27000000000004,0,1.26999999999998,0,6.096,0,0,0,0,0,1.01600000000002,3.30199999999996,0,0,2.53999999999996,2.79400000000004,0.254000000000019,0.253999999999962,0,0.254000000000019,0,0,0,24.0034042542348,3.048
804,"Lualualei","US VY","HydroNet-UaNet","OA",35.9664,21.4211006,-158.1352,"USC00515647","LUAH1","8170406C",NA,NA,1.26999999999992,NA,21.336,0,0,0,0,NA,0.762000000000057,0,0,0,3.55599999999998,6.35000000000002,0,0,7.87399999999997,NA,2.79399999999998,0.254000000000019,0.507999999999981,0,0,4.31799999999998,0,5.334,NA,NA
810.1,"WHEELER ARMY AIR FIELD 810.1","COOP","NWS","OA",255,21.48722,-158.02806,"USW00022508","WAFH1","B14101B2",NA,NA,4.57199999999966,6.34999999999991,26.4160000000002,1.52400000000034,0.253999999999451,0.25400000000036,0,5.8420000000001,0,0,0,0,0,6.85799999999972,0.253999999999905,0.253999999999905,0,8.89000000000033,12.9539999999997,2.54000000000042,4.57199999999966,0,0.762000000000171,0,5.8420000000001,8.63599999999951,51.5620000000004,11.1759999999999
820.6,"Mililani","NWS","HydroNet-UaNet","OA",226.7712,21.4638004,-157.9991,"USC00516261","MITH1",NA,NA,NA,5.08,3.556,30.226,1.27,0,0.254,0,3.81,0,0,0,0,0.254,1,3.048,0,0,4.6160612325297,8.89,3.81,6.35,0.508,0.762,0.508,5.47731536201023,8.128,34.798,13.208
824.2,"Waipio","NWS","HydroNet-UaNet","OA",124.968,21.4199009,-158.0058,NA,"PECH1",NA,NA,NA,0.508,8.636,17.018,0.254,0,0,0,1.778,0,0,0,0,0.762,0.390125669861641,0.254,0,0,1.778,6.604,0,1.524,0,0,0,2.286,0.508,11.938,10.668
828,"SCHOFIELD EAST","RAWS","RAWS","OA",381,21.49944444,-157.9933333,"USR0000HSCH","SCEH1","325AB384",NA,NA,5.58799999999997,3.048,31.4960000000001,0.761999999999944,0,0,0,4.31800000000021,0,0,0,0,0.761999999999944,1.77800000000002,4.57199999999989,0,0,5.51253483983013,20.0744104231186,3.30199999999991,4.82600000000002,3.30200000000013,7.61999999999989,1.01600000000008,7.61999999999989,11.9380000000001,100.838,17.2719999999999
834.13,"Waiawa CF","NWS","HydroNet-UaNet","OA",235.6104,21.4440994,-157.9669,"USC00519257","WAWH1",NA,NA,NA,15.24,1.27,28.702,0,0,0.254,0,4.572,0,0,0,0.254,1.016,0,0,0,0,4.90576681382358,19.812,3.302,9.398,3.556,2.032,0.508,7.112,8.636,45.212,24.384
835.2,"Palisades","NWS","HydroNet-UaNet","OA",261.8232,21.4298,-157.9452,NA,"PACH1",NA,NA,NA,14.478,2.032,13.208,0,0,0,0,1.27,0.117554790637493,0,0,0.762,1.524,1.1639413587307,0,0,0,5.91775945757919,18.034,2.286,6.858,4.572,3.302,0.254,10.668,6.604,29.972,13.97
837,"WAIAHOLE 837 ","OAHU SUGAR","COOP","OA",227,21.47016136,-157.8833636,"USC00518964",NA,NA,NA,NA,NA,NA,30.5,NA,0,NA,NA,NA,3.8,0,0,0,NA,NA,NA,NA,0,3.8,NA,NA,NA,NA,0,0.5,0,0,NA,NA
837.12,"WAIAHOLE STREAM NEAR KAHALUU 2N","USGS","USGS","OA",4,21.48194,-157.8458,NA,"WHSH1","162B784C",NA,NA,6.60400000000001,1.01599999999999,27.432,0,0.253999999999991,0,0,2.03200000000001,0,0,0,0,0.253999999999991,5.84200000000001,0,0,0,5.334,2.79399999999998,1.27000000000001,6.858,0,0,0,0,1.01599999999999,NA,2.286
837.5,"WAIHEE 837.5","COOP","COOP","OA",34,21.45167,-157.84889,"USC00519281",NA,NA,NA,NA,7.1,12.7,25.7,3.86669175086112,0.3,0.5,0,0,0.8,0,0,0,2.3,2.8,0.3,0,1.3,0,9.74700310167896,7.4,6.1,0,0,0,0,0.8,5.22497424770977,10.4
839.15,"Ahuimanu Loop ","NWS","HydroNet-UaNet","OA",74.0664,21.4319992,-157.8373,NA,"AHUH1","15CE7632",NA,NA,10.922,NA,34.29,0.507999999999811,0.254000000000133,0,0,2.28600000000006,0,0,0,2.28600000000006,3.04799999999977,7.87400000000025,0.507999999999811,0,0,3.55600000000004,6.85799999999995,4.31800000000021,8.12799999999993,2.79399999999987,0,0,0.508000000000038,0.508000000000038,10.414,4.06400000000008
839.8,"Waihee Pump","USGS","HydroNet-UaNet","OA",64.3128,21.4463997,-157.8584,"USC00519286","WPPH1","195042AC",NA,NA,30.1303149937681,5.84200000000001,36.068,0.762,0.507999999999981,0,0,2.79400000000004,0,0,0,2.53999999999999,1.27000000000001,5.07999999999998,1.27000000000001,1.52399999999997,0.508000000000038,8.62574671401836,7.11199999999999,2.286,6.60399999999998,1.01600000000002,0,0,0.3,0.586747541899084,5.588,10.668
840,"KANEOHE BAY MCAS","USMC","NWS","OA",3,21.44404851,-157.7730876,"USW00022519",NA,NA,NA,NA,0,0,0,0,0,0,0,0,0,0,0,0,0,0,0,0,0,3.3,0.5,0,1.3,0,0,0,0.5,0,3.6,0.5
841.2,"KUAOKALA","S&PF","RAWS","OA",267.0048,21.57027778,-158.26,NA,"KKRH1","48710720",NA,NA,9.398,10.16,38.354,0,4.82600000000001,0,0,4.318,0,0,0,0,0,0,NA,0,0.507999999999996,1.77800000000001,3.048,0,0,0,0,0,0,0,3.80999999999999,0
841.3,"KAENA POINT 841.3","LOCKHEED BALLISTIC","COOP","OA",378,21.56322317,-158.2430755,"USC00512410",NA,NA,NA,NA,NA,NA,51.3,NA,4.8,NA,NA,NA,NA,NA,0,0,NA,NA,NA,NA,0,1.3,4.3,NA,NA,NA,0,0,0,0,NA,NA
842.1,"MakahaRainGage","USGS","USGS","OA",286.097472,21.50158333,-158.1801667,NA,"MKHH1","DD1423F8",NA,NA,9.90600000000001,7.87399999999997,21.59,2.28600000000004,0.254,2.54,0,7.27523675198359,0,0,0,0,0,1.016,3.302,0.254000000000001,0,6.604,1.778,1.524,0.253999999999998,0,0,0,0,0.254000000000001,13.716,3.302
842.8,"MAKUA RANGE","RAWS","RAWS","OA",6.096,21.52861111,-158.2261111,"USR0000HMAR","MKRH1","3266B468",NA,NA,NA,NA,NA,0.761999999999972,4.31800000000001,0.762000000000029,0,5.84199999999996,0,0,0,NA,NA,NA,NA,NA,NA,NA,NA,NA,NA,NA,0.507999999999981,0,0,0,6.35000000000002,0.253999999999962
842.9,"MAKUA RIDGE","RAWS","RAWS","OA",533.4,21.54277778,-158.1988889,"USR0000HMRG","MKGH1","3266C2F8",NA,NA,19.05,7.36600000000001,90.804224759519,2.79399999999998,1.77800000000002,0,0,NA,0,0,0,0,0,6.096,0.254000000000019,0,0.254000000000019,6.096,NA,0.507999999999981,1.524,0,0.508000000000038,0,0.253999999999962,0,NA,1.26999999999998
843.7,"DILLIINGHAM","RAWS","RAWS","OA",31.0896,21.57194444,-158.1986111,NA,"DLGH1","3278D278",NA,NA,8.636,7.62,46.99,2.03200000000001,1.77799999999999,0.254000000000019,0,8.38199999999998,0,0,0,0,0,1.77800000000002,1.77799999999999,0,1.27000000000001,6.09599999999998,8.636,1.52400000000003,1.26999999999998,0,0,0,0,0.253999999999991,6.85800000000003,1.26999999999998
855.3,"Poamoho Exp Farm","NWS","HydroNet-UaNet","OA",220.0656,21.5382004,-158.0893,NA,"POAH1",NA,NA,NA,3.048,6.48948683972329,67.056,4.572,1.778,1.27,0,3.66215049770043,0,0,0,0,0,4.24193389307989,2.286,0,0,4.09471323656523,8.73034699618399,0.762,4.572,0,0.254,0,3.556,1.016,25.2814288734879,3.81
858,"SCHOFIELD BARRACKS","RAWS","RAWS","OA",298.704,21.495,-158.0819444,"USR0000HSCO","SCBH1","3266A71E",NA,NA,5.58799999999997,5.65553571090925,55.626,2.79400000000004,0.254000000000019,0.761999999999944,0,5.84200000000004,0,0,0,0,0,7.62,2.79399999999998,0.254000000000019,0,5.58800000000002,10.922,0.507999999999981,2.54000000000002,0,0,0,0,1.01600000000002,34.0359999999999,3.048
884.4,"PunaluuRainGageatalt","USGS","USGS","OA",73.152,21.55644444,-157.899,NA,"PNSH1","DD989652",NA,NA,25.4,12.3141819418758,40.8939999999999,3.04800000000012,1.26999999999998,0.253999999999905,0,4.3180000000001,0.254000000000133,0,0,0,4.31799999999987,4.82600000000014,1.26999999999987,0,0,9.65200000000004,10.16,9.14400000000001,7.75332935630677,1.01600000000008,1.77800000000002,2.03199999999993,4.31799999999998,6.096,6.34999999999991,5.58799999999997
885.6,"KUALOA RANCH 885.6","COOP","COOP","OA",25,21.53,-157.85028,"USC00514829",NA,NA,NA,NA,1.5,8.4,17,2.8,0,0,0,0,4.3,0,0,0,0,4.3,6.28240342135377,0,0.3,0.5,14.2353595390364,6.6,6.11787569673065,0,0,0.5,0.3,2.3,3.3,1.8
886.1,"Waikane - Hakipuu Mauka","KUALOA RANCH","HydroNet-UaNet","OA",14,21.5084922,-157.8555853,NA,"HAKH1","16C69380",NA,NA,7.36599999999999,2.53999999999996,24.6380000000004,0.507999999999811,1.52400000000034,0,0,2.0319999999997,0,0,0,0,0.507999999999811,8.12800000000016,0.508000000000266,0.761999999999716,0,7.11200000000008,5.58800000000019,5.07999999999993,6.60399999999981,0,0,0,2.03200000000015,0,5.07999999999993,7.8739999999998
886.11,"KUALOA RANCH HAKIPUU 886.11, HI US","COOP","COOP","OA",74.04,21.51083,-157.86222,"USC00514828",NA,NA,NA,NA,7.1,16.2944777293478,26.7,5.8,0.3,0.3,0,0,2.5,0,0,0,0,4.5814423780113,8.73078069737542,0,0.8,0.911453706707653,19.7831616258792,5.1,8.4,0,0,0,0.5,4.1,4.6,7.6
886.4,"KahanaRainGageatalt","USGS","USGS","OA",28.956,21.54041667,-157.8825556,NA,"KNRH1","17B972EE",NA,NA,22.352,4.31799999999998,32.004,1.52400000000003,1.27000000000001,0,0,2.79399999999998,0.253999999999991,0,0,0,3.55600000000001,2.79399999999998,0.50800000000001,0.254000000000019,0.253999999999991,11.43,7.36600000000004,6.858,11.684,0.253999999999962,1.01600000000002,1.27000000000004,2.79399999999998,4.572,8.12799999999999,6.60399999999998
886.8,"Hakipuu Mauka","RILEY W","HydroNet-UaNet","OA",8.5344,21.5067005,-157.8547,"USC00510920","PTRH1","16C69380",NA,NA,7.36599999999999,2.53999999999996,24.6380000000004,0.507999999999811,1.52400000000034,0,0,2.0319999999997,0,0,0,0,0.507999999999811,8.12800000000016,0.508000000000266,0.761999999999716,0,7.11200000000008,5.58800000000019,5.07999999999993,6.60399999999981,0,0,0,2.03200000000015,0,5.07999999999993,7.8739999999998
886.9,"KUALOA RANCH HEADQUATERTERS 886.9","COOP","COOP","OA",7,21.5213,-157.8374,"USC00514830",NA,NA,NA,NA,3.3,11.4,13.7,1.5,0,0.3,0,0,4.1,0,0,0,0,2.3,8.4,0,1.5,1,9.7,5.3,5.1,0,0,1.8,0,1.33622419001961,2.2520397362297,3.3
892.2,"WAIMEA ARBORETUM 892.2","COOP / WB","COOP","OA",8,21.638859,-158.058759,"USC00519603",NA,NA,NA,NA,4.3,4.8,12.4,3.2182137184351,1,1.3,0,0,0.608902840548755,0.3,0,0,2,2.5,5.1,0.3,1.5,0.8,9.03448288170243,9.9,8.6,3.6,6.1,4.8,7.6,8.9,20.8662017371629,7.4
897.11,"KamananuiRainGageatalt","USGS","USGS","OA",219.456,21.62238889,-158.0143056,NA,"KMRH1","DD34C1E4",NA,NA,12.954,2.54,26.416,1.27,1.778,0.508,0,10.414,0.254,0,0,1.778,3.302,5.86203587924313,0.254,0,0,4.91228519347187,16.764,5.588,7.366,3.048,17.018,5.842,9.398,8.6207058156996,17.1364275632599,11.4319031675735
897.9,"PupukeaRdRainGageatalt","USGS","USGS","OA",353.568,21.59902778,-158.0169167,NA,"PPRH1","1713D512",NA,NA,6.604,2.032,30.988,2.54,0.254,0,0,9.652,0,0,0,1.016,3.048,3.91772830247544,0,0.254,0,6.096,16.256,7.874,5.08,1.524,15.748,2.286,6.096,8.636,24.8752143088572,12.954
901.2,"KII KAHUKU 911","NWS","COOP","OA",7.6,21.6793,-157.945,"USC00514500",NA,NA,NA,NA,NA,4.6,NA,NA,3,0.3,0,0,2,0,0,0,0,1,0,8.6,0,0.8,2.8,7.1,4.6,0,0,0,1.8,1.3,0.8,2
903.2,"LAIE 0.2 WNW","CoCoRaHS","CoCoRaHS","OA",2,21.65,-157.9287,"US1HIHN0002",NA,NA,NA,NA,3.6,8.49077044381974,6.4,NA,5.1,0.5,0,0,4.3,0,0,0,0,0.3,1,1,0,3.6,0.8,2.8,6.4,0.3,0.3,0,0.3,2.3,1.3,9.1
904.1,"KAPAKA FARM 904.1","HON. FIRE DEPT","COOP","OA",1,21.60987636,-157.9100271,"USC00513208",NA,NA,NA,NA,2.66674035526447,6.9,15.6001411054282,2.10269213384648,2,1.5,0,0,4.6,0.3,0,0,0,1.8,10.3656115219899,0,1.05162864715239,1.3,11.969813305155,6.04491123978588,4.6,0.5,0.8,1.3,2.3,1.93395681551713,2.77480760487241,2.79286797366776
905.2,"PUNALULU PUMP 905.2","FUJII D","COOP","OA",4,21.5843,-157.8915,"USC00518314",NA,NA,NA,NA,11.7,2.89476733717767,20.0737840527115,0.915792050647114,0.3,0,0,3.8,0,0,0,0,3,5.8,0.3,0,0,0.8,4.47425519624077,3.16458511214194,0.3,0,0.459739715242579,0.545283910762969,0,1.77492138568914,3.69070816143061,4.41101266282082
905.22,"Punaluu Pump","NWS","HydroNet-UaNet","OA",3.9624,21.5842991,-157.8916,NA,"PUNH1","19051152",NA,NA,11.43,2.79400000000001,32.004,1.52400000000002,0.253999999999991,0,0,3.80999999999999,0,0,0,0,2.79400000000001,NA,0.253999999999991,0,0,0.762000000000015,11.43,3.80999999999997,2.286,0,0,2.286,0,0.762,3.302,5.84200000000001
909,"KAHUKU TRAINING AREA","RAWS","RAWS","OA",181.6608,21.67916667,-157.9894444,"USR0000HKAH","KTAH1","325A861E",NA,NA,8.33343581108822,1.524,23.876,2.28599999999999,8.63600000000002,0.507999999999981,0,7.366,0,0,0,1.27000000000001,0.50800000000001,1.77799999999999,8.636,0,0.253999999999991,4.572,4.82600000000002,2.53999999999999,0.253999999999991,0,1.77799999999999,4.06400000000002,4.06399999999999,1.27000000000001,4.06399999999999,8.12799999999999
911.1,"KII","RAWS","RAWS","OA",1.524,21.68833333,-157.9525,"USR0000HKII","KFWH1","8375210E",NA,NA,4.85938163769803,0.508000000000003,14.224,0,2.032,0.254000000000005,0,2.032,0,0,0,0.50800000000001,0,1.01599999999999,4.572,0,0,3.30199999999999,8.38200000000001,1.91774995018627,2.53999999999999,0,0.254000000000005,1.01599999999999,0.254000000000005,1.524,2.286,4.318
912,"KAUHUKU 912","KUILIMA  GOLF","COOP","OA",4,21.695,-157.9811,"USC00512570","KAHH1","B1404042",NA,NA,NA,0.253999999999905,NA,1.26999999999998,NA,0.507999999999811,0.254000000000133,0,0,0.253999999999905,0,0.253999999999905,0.254000000000133,4.06400000000008,7.61999999999989,0,0,2.28600000000006,5.33400000000006,3.30199999999991,3.30199999999991,0,0.254000000000133,2.53999999999996,0,0.508000000000038,4.06399999999985,3.81000000000017
926,"PORT ALLEN CAA AIRPORT","FAA","COOP","KA",9,21.89381249,-159.6010997,"USW0022526","PAKH1","B159A272",NA,NA,0.508000000000003,NA,34.036,0,0,0,0,3.80999999999999,0,0,0,0,0,0,0.253999999999991,NA,NA,0,NA,0,0.254000000000005,0,0.50800000000001,NA,NA,2.53999999999999,2.28599999999999,0
927,"ELEELE 927","MCBRYDE SUGAR","COOP","KA",50,21.90353436,-159.5772088,"USC00510470",NA,NA,NA,NA,2.5,2.51853219519533,32.4270028488879,2.54678681066859,0,0,0,0,4.43938400693073,0,0,0,0,0,0,3,13.2,0.3,1.5,0,0,1.85724145834737,0,1.5,0.8,2.8,0,0
930,"WAHIAWA 930","MCBRYDE SUGAR","COOP","KA",66,21.89631087,-159.5572079,"USC00518941",NA,NA,NA,NA,4.6,4.3,38.9,2.96222028326409,0,0,0,0,5.3,0,0,0,0,0,0,3.8,11.9,0.5,1.5,0,0,2.16019585769383,0,2,1.3,2.8,0,0
931,"WEST LAWAI 931","MCBRYDE SUGAR","COOP","KA",64,21.89019743,-159.5172067,"USC00519955",NA,NA,NA,NA,5.6,4.8,43.2,2.47046255949466,0.3,0,0,0,3.3,0,0,0,0,0,0,7.1,2.8,1.3,2,0,0,1.8015820827908,0.8,0.8,1,2.94799228939137,0,0
936,"KOLOA 936","MCBRYDE SUGAR","COOP","KA",73,21.90686471,-159.4622057,"USC00514742",NA,NA,NA,NA,7.1,1.5,48.378637368523,1.83126865810454,0,0,0,0,5.6,0,0,0,0,0,0.8,10.2,9.69885885957308,5.3,4.1,0,0,4.1,0,0.8,0,1.5,0,0
940.2,"KOLOA 2.1 SSE","CoCoRaHS","CoCoRaHS","KA",12,21.8788,-159.4518,"US1HIKI0020",NA,NA,NA,NA,0,11.5800397832494,35.6,5.3,0,0,0,0,0.778110170357725,0,0,0,0,0,0,6.6,12.3434596213441,4.26608334474008,3.23693610929025,1,0.8,0,0,0,0,2.3,1,5.3
941.1,"MAHAULEPU 941.1","GROVE FARM","COOP","KA",24,21.90102957,-159.422207,"USC00515710",NA,NA,NA,NA,2.5,1.3,42.1007345758366,1.59363222913075,0,0,0,0,5.6,0,0,0,0,0,0.3,11.4481143293836,7.1,4.6,3.8,0,0,2,0,0,0,1.86119692649309,0,0
946,"WAIMEA HTS","RAWS","RAWS","KA",159.7152,21.96638889,-159.6638889,NA,"WHGH1","487090B8",NA,NA,1.75337335027727,9.14400000000001,35.052,1.5028914430948,0.250481907182457,0,0,5.07999999999998,0,0,0,0,0,0,5.08000000000001,11.43,0.507999999999996,NA,52.578,0,0,0,0.250481907182485,0,0.254000000000019,0.253999999999991,0.253999999999991,0
946.1,"WAIMEA TANK AT WAIMEA","NWS","unknown","KA",70,21.964722,-159.666944,NA,"WMTH1","1900E616",NA,NA,NA,8.12800000000004,37.592,NA,NA,NA,NA,5.33400000000006,NA,NA,NA,NA,NA,NA,4.82599999999991,11.9380000000001,0.507999999999925,NA,54.356,NA,NA,NA,NA,NA,NA,0.254000000000019,NA,NA
965,"MAKAWELI 965","OLOKELE SUGAR","COOP","KA",43,21.91909048,-159.6272113,"USC00515864",NA,NA,NA,NA,3.26467338707053,0.5,30.5,3.6,0.0479582941962173,0,0,0,5.8,0,0,0,0,0,0,2.44142466116049,7.5491926163042,0.3,2.33326409781019,0,0,NA,0.3,0.3,0.5,2.3,0,0
966.4,"Hanapepe","NWS","HydroNet-UaNet","KA",110.6424,21.9365005,-159.5866,NA,"HNPH1","156011EA",NA,NA,8.63599999999951,1.7780000000007,48.7679999999996,0,0,0,0,5.33400000000029,0,0,0,0,0,0,2.28600000000006,NA,5.84199999999964,0,NA,0.253999999999905,0,0,0.25400000000036,0.253999999999905,3.55600000000049,4.3179999999993,3.30200000000013,0.762000000000171
985,"BRYDESWOOD STA 985","MCBRYDE SUGAR","COOP","KA",220,21.92519845,-159.5338717,"USC00510240",NA,NA,NA,NA,8.4,4.88376569207104,52.3093075219046,3.16219262405715,0.3,0,0,0,6.25522504836507,0,0,0,0,0,0,3.6,15.7411616547856,0.8,9.4,0,0,2.7615225690258,1,4.8,1.61720271057623,3.77343078423242,0,0
986.2,"Kalaheo","KUKUILONO GOLF COU","HydroNet-UaNet","KA",263.0424,21.9183006,-159.5265,NA,"KHEH1","1560740C",NA,NA,6.85799999999995,2.49340803233997,36.83,0,0,0,0,1.63090298336515,0.254000000000019,0,0,0,0,0,5.07999999999998,4.06400000000002,0.507999999999981,1.01600000000002,15.9327062377905,3.30199999999996,4.82600000000002,1.27000000000004,2.53999999999991,2.03200000000004,3.55600000000004,4.31799999999993,3.18767401294102,2.286
992.1,"Omao","NWS","HydroNet-UaNet","KA",99.9744,21.9071007,-159.4768,"USC00517116","OMAH1","195001A6",NA,NA,4.31799999999998,3.55599999999998,46.736,0,0,0,0,3.45628201227091,0,0,0,0,0,1.01600000000002,2.69144038631097,6.60399999999998,8.04577856624118,3.30200000000002,24.5081815415584,5.36282199120375,1.26999999999998,0,1.01600000000002,0.254000000000019,0,2.286,6.75546029671139,1.77800000000002
1006,"HALENANAHO 1006","GROVE FARM","COOP","KA",149,21.96491938,-159.4305374,"USC00511038",NA,NA,NA,NA,9.34845303800303,24.461032725173,81.7240419246778,3.09348681010304,0.134499426526219,0,0,0.3,7.44926925449068,0,0,1.3,0,0,0.644584507401159,22.2225617875567,16.3838832835131,7.57478776249287,6.10063247550967,0,0,5.40413544221018,0.134499426526219,0.584968456494395,0.134499426526219,1.3,0,0
1013,"PUHI 1013","LIHUE PLANTATION","COOP","KA",101,21.96491954,-159.3972052,"USC00518217",NA,NA,NA,NA,6.9505523402218,50.8,45.7,2.3,0.3,0,0,0.3,1.5,0,0,0,0,0,0.479247030302768,26.2,12.1813777996438,3.6,4.53580556666568,0,0,4.01796169826546,0.3,0.3,0.3,2.68616111840876,0,0
1020.1,"LIHUE WEATHER SERVICE OFFICE AIRPORT 1020.1","LIHUE WEATHER SERVICE OFFICE AIRPORT 1020.1","NWS","KA",45,21.98156999,-159.3422063,"USW00022536","PHLI",NA,NA,NA,9.10563294839749,16.764,20.574,0,0.254,0,0,1.27,0,0,0,0,2.286,0,NA,5.43972877436717,11.938,3.556,6.35,0.254,0,0,0,0,0,0,5.08496385429981,3.54764920067432
1020.6,"LIHUE 1.3 NE","CoCoRaHS","CoCoRaHS","KA",25,21.987,-159.338,"US1HIKI0009",NA,NA,NA,NA,0,17.5,34,4.1,0,0,0,0,1,0,0,0,1.3,0.3,0,18.3,12.7,6.1,2.3,6.6,0.5,0,0,0,0,0.3,0,7.6
1022.1,"LIHUE 1.2 NNW","CoCoRaHS","CoCoRaHS","KA",60,21.9923,-159.3586,"US1HIKI0002",NA,NA,NA,NA,0,14.7,47.8,2.3,0,0,0,0,0.8,0,0,0,0.8,3.3,0,18.3,9.1,5.3,3.3,7.6,1,0,0,0,0,0.5,0.3,9.61497029971811
1029,"MANA","RAWS","RAWS","KA",26.2128,22.02944444,-159.7622222,NA,"MNRH1","4870603C",NA,NA,0,0.507999999999996,17.526,0.254000000000005,5.58799999999999,0,0,4.826,0,0,0,0,0,0,NA,18.796,0.507999999999996,0.253999999999991,17.018,0,0,0,0,0,0,0,1.524,0
1036,"PUU OPAE","RAWS","RAWS","KA",652.8816,22.04083333,-159.6958333,NA,"POPH1","4870734A",NA,NA,3.55600000000001,2.286,33.528,3.048,0.507999999999981,0,0,9.14400000000001,0,0,0,0,0,0,10.3027002190626,50.546,0.761999999999972,NA,41.656,0,0,0,0.508000000000038,0,0,0.253999999999991,1.01599999999999,0
1042,"WaialaeRainGagenrWaimea","USGS","USGS","KA",1219.2,22.08972222,-159.5925,NA,"WLGH1","DDF7C28E",NA,NA,9.65199999999999,7.11199999999997,76.708,6.858,2.286,0.254000000000019,0.253999999999962,12.954,0.507999999999981,0.254000000000019,0,0.254000000000019,1.01599999999996,0.508000000000038,5.07999999999998,24.384,20.32,11.938,122.936,3.04800000000012,0.254000000000019,0.507999999999925,4.82447522242387,0.5932884775047,2.25674283251888,3.40319335483474,15.726999055856,10.414
1047,"Mt.WaialealeRainGagenrLihue","USGS","USGS","KA",1569.72,22.07088889,-159.4979722,"USC00516565","WLLH1","DD5E818E",NA,NA,123.19,14.4780000000001,60.9600000000003,2.03199999999993,1.77800000000002,0.253999999999905,0.253999999999905,8.63600000000019,0.507999999999811,0.254000000000133,0,0.253999999999905,14.4780000000001,25.9079999999999,4.1788311241387,28.9560000000001,25.9079999999999,41.1479999999999,235.966,61.2139999999999,36.7733608160921,7.88000588916245,68.5799999999999,65.5320000000002,48.0059999999999,24.3839999999998,57.4040000000002,25.6539999999998
1051,"NWailuaDitchRainGagenrLihue","LIHUE PLANTATION","USGS","KA",338.328,22.0625,-159.4677222,"USC00516888","WLDH1","1732B3E0",NA,NA,99.5679999999999,7.62000000000012,44.1959999999999,0.762000000000057,0,0,0,9.14400000000001,0.507999999999925,0,0,0,9.14400000000001,16.256,8.95967757110477,17.78,33.528,27.9399999999999,164.592,34.7979999999999,17.7800000000001,3.80999999999995,15.494,11.4299999999998,9.14400000000023,11.6839999999999,33.0200000000001,8.63599999999997
1059,"Lihue Variety Stn","NWS","HydroNet-UaNet","KA",117.0432,22.0240002,-159.3868,NA,"LIHH1","1561501A",NA,NA,13.2080000000001,10.1599999999999,39.116,0,0,0,0,0.761999999999944,0,0,0,0,0.762000000000171,3.55600000000004,NA,8.12799999999993,15.4939999999999,6.35000000000014,21.5899999999999,NA,0.508000000000038,0,1.01599999999985,0,0,2.7940000000001,5.07999999999993,NA
1060,"Wailua UH Exp Stn","NWS","HydroNet-UaNet","KA",158.1912,22.0660992,-159.396,"USC00519475","WUHH1",NA,NA,NA,19.558,2.794,25.654,1.016,0,0,0,5.588,0,0,0,0,2.54,0,0.88024506330696,11.684,25.146,4.826,39.624,11.684,4.826,0,0,0.762,0.508,0.762,10.922,7.62
1061.5,"Wailua UH Exp Stn","NWS","HydroNet-UaNet","KA",158,22.066,-159.3962,NA,"WUHH1","15C163D6",NA,NA,19.558,2.79399999999987,25.6540000000005,1.01599999999962,0,0,0,5.58799999999974,0,0,0,0,2.54000000000087,3.80999999999949,8.70285979286934,11.6839999999993,25.1460000000006,4.82600000000002,39.6239999999998,11.6840000000002,4.82600000000002,0,0,0.761999999999716,0.50800000000072,0.761999999999716,10.9219999999996,7.61999999999989
1063.2,"KAPAA 2.7 SSW, HI US","CoCoRaHs","CoCoRaHs","KA",90.04,22.0593,-159.365,"US1HIKI0023",NA,NA,NA,NA,NA,NA,25.4,1.3,NA,0.5,NA,NA,NA,0,0,0,0.5,3.8,0.3,NA,26.4,NA,18.8,19.6,NA,0.3,1,0.3,1,0.5,0.3,NA
1063.3,"Kapaa HI US F0098-AH7L ","unknown","APRSWXNET","KA",122,22.071,-159.359,NA,"F0098",NA,NA,NA,NA,7.87400072860711,NA,0.508001565933289,0.508000032424926,NA,NA,NA,NA,NA,NA,0,NA,NA,NA,NA,NA,5.58800104005427,25.9080002855529,NA,NA,NA,0,NA,0,0,NA,NA
1065.2,"KAPAA 2.3 SW, HI US","CoCoRaHs","CoCoRaHs","KA",105.03,22.0721,-159.3767,"US1HIKI0026",NA,NA,NA,NA,NA,12.7,26.2,3,0.3,0.8,0.3,0,NA,0,0,0,0,4.1,0,12.7,27.7,NA,13,24.1,4.3,0,0.3,0,0.3,1,0.5,13.5
1074,"MAKAHA RIDGE","RAWS","RAWS","KA",544.9824,22.13055556,-159.7152778,"USR0000HMAH","MKAH1","3286026C",NA,NA,0,0.50800000000001,42.926,5.08000000000001,2.03200000000001,0,0,19.05,0,0,0,0,0,0.254000000000019,NA,23.622,30.48,1.27000000000004,39.116,0.761999999999944,0,0,0.254000000000019,0,0.507999999999981,0,0,0
1076,"Kokee","NWS","HydroNet-UaNet","KA",1279.2456,22.1485996,-159.6448,NA,"KOKH1","1900E616",NA,NA,0,8.12800000000004,37.592,0,0,0,0,22.8563806646183,0,0,0,0,0,0,4.82599999999991,31.5481526980597,40.7907957803399,0,54.356,0,0,0,0,0,0,0.254000000000019,0,0
1082,"WaiakoaliRainGagenrWaimea","USGS","USGS","KA",1042.416,22.1245,-159.6220833,"519130","WKRH1","17B79574",NA,NA,10.922,8.89,61.976,8.382,7.62,0,0,32.258,0.254,0.254,0,0,0.508,0.205940270545003,3.78433179558898,54.61,27.686,14.224,110.744,1.778,0.254,0.254,6.096,0.508,4.572,5.08,8.636,8.636
1083,"MoCrsgRainGagenrWaimea","USGS","USGS","KA",1042.416,22.11708333,-159.6009722,"USC00516433","MCRH1","D109224A",NA,NA,9.144,12.192,59.436,7.62,4.572,0.254,0,20.066,0.254,0,0,0,0,0.20387113471994,5.334,27.94,28.702,20.32,115.57,2.032,0.254,0.254,8.382,1.27,2.24790607612765,3.38986742766413,13.208,10.16
1084,"KilohanaRainGafenrHanalei","USGS","USGS","KA",1219.2,22.15408333,-159.5946111,"USC00514610","KLOH1","DDCC972A",NA,NA,23.7080658932828,22.5105445085219,72.1359999999999,18.2389099944455,17.78,0.254000000000133,0,40.6399999999999,0.508000000000038,0,0.253999999999905,0.254000000000133,0.253999999999905,0.254000000000133,2.03199999999993,31.4959999999999,160.782,43.434,141.732,4.06400000000008,1.52400000000011,0.253999999999905,11.5586025976162,1.42141588899617,5.33399999999983,8.15345871578965,60.7059999999999,46.482
1094.2,"Kapahi","NWS","HydroNet-UaNet","KA",158.496,22.1021004,-159.3856,"USC00513171","KPIH1","15608488",NA,NA,30.7014370743897,3.29474824053956,20.0660000000007,1.77799999999843,0,0,0,5.58226139660268,0,0,0,0,1.01600000000144,4.06399999999849,NA,11.1759999999995,82.0419999999995,7.8739999999998,56.0653367400697,14.2625792169857,3.04800000000068,0,0.253999999998996,0,0,1.77800000000025,13.4136102123618,6.97883741952236
1094.3,"KAPAA 1.4 W","CoCoRaHS","CoCoRaHS","KA",139,22.0936,-159.3758,"US1HIKI0005",NA,NA,NA,NA,1.57188027561752,11.2,25.4,2,0.5,0,0.3,0,6.1,0,0,0,0.691283069103594,3.6,0.3,12.4,49.8,17.1190883871355,16.5,34.3,2.30406819925105,4.3,1.3,0,0,1.8,1.8,18
1097.4,"KAPAA 1.9 WSW","CoCoRaHS","CoCoRaHS","KA",157,22.0829,-159.3786,"US1HIKI0019",NA,NA,NA,NA,1.56106294795896,17.3,26.9,1.8,0.8,0.3,0,0,3.30920885266379,0,0,0.8,0.5,3.3,0,13.2,45,7.4,12.4,27.9,2.2882121184505,5.8,1.8,0,0.8,0.3,1,20.8
1111.4,"Anahola","HAWN FRUIT PACKERS","HydroNet-UaNet","KA",75.2856,22.1373997,-159.312,NA,"ANHH1","1560029C",NA,NA,0.761999999999944,3.30199999999991,22.606,1.0160000000003,1.77799999999979,0,0,NA,0,0,0,0,0.762000000000171,0.507999999999811,4.31799999999998,NA,56.8960000000002,NA,NA,NA,0,0,0,0,0,3.04800000000023,1.26999999999998,0.761999999999944
1115.1,"PH Wainiha","NWS","HydroNet-UaNet","KA",35.052,22.1959991,-159.5563,NA,"WNHH1",NA,NA,NA,6.096,2.286,20.066,5.588,29.464,0,0,NA,NA,0,0,0,0,NA,0,NA,125.73,27.178,NA,NA,0.508,0,2.794,6.35,NA,17.78,28.956,6.35
1116.1,"HANALEI 3.0 W, HI US","CoCoRaHs","CoCoRaHs","KA",10.457,22.2103,-159.5492,"US1HIKI0024",NA,NA,NA,NA,0.8,NA,NA,NA,22.6,0.8,0,0,NA,0.3,0,0,0,0.3,1,NA,68.1,66.5,45.2,NA,4.3,0.5,0,6.1,NA,10.2,15.5,NA
1117,"PRINCEVILLE RANCH 1117","PRINCEVILLE RANCH","COOP","KA",90,22.213196,-159.4722008,"USC00518165",NA,NA,NA,NA,0.8,3.8,7.4,5.8,0.23112079029221,0,0,0.3,2.73870341679617,0,0,0,2,0.5,0,1,94.5,47,49.3,143.5,4.64098746831782,1.5,1,6.1,0.23112079029221,7.9,9.1,11.9838278639968
1117.9,"PRINCEVILLE AIRPORT NEAR KILAUEA 4W","NWS","STATE","KA",88.497,22.2114,-159.443,NA,"PRIH1","B15952F6",NA,NA,NA,0,9.65200000000004,1.52399999999989,3.8100000000004,0,0,NA,0,0,0,0,0.507999999999811,1.52399999999989,1.52399999999989,NA,142.24,25.9079999999999,98.5520000000001,NA,2.53999999999996,0.762000000000171,1.52399999999989,2.79399999999987,1.77800000000025,6.096,8.63599999999997,NA
1134.2,"KILAUEA 0.5 SE","CoCoRaHS","CoCoRaHS","KA",79,22.2057,-159.4048,"US1HIKI0006",NA,NA,NA,NA,3.3,9.59751230788244,9.4,3,0,1.3,0.3,0,5.31666736075156,0,0,0,0,2.18005550674685,0,0,90.2,29.2,33.3,94.2,3.3,1,0,0.5,0,3.27722972323068,3.88704922106795,12.1348380168399
1137,"KOLOKO RESERVOIR 113","KILAUEA SUGAR","COOP","KA",224,22.18140774,-159.3777576,"USC00514758",NA,NA,NA,NA,5.1,10.4,5.3,3.59424830139955,0,0,0,3,5.40004554559127,0,0,0,2.8,5.8,0.5,0,90.9,22.9,33.0443426133007,16,2.8,0,0,0.8,0,2.8,2,2.5
1144.1,"ANAHOLA 2.8 N","CoCoRaHS","CoCoRaHS","KA",74,22.1869,-159.3236,"US1HIKI0021",NA,NA,NA,NA,0.5,0.8,12.2526658487287,4.8,0.252821981444852,0.5,0,0.3,3.54384362639979,0.3,0,0,0,1.3,0.5,4.8,84.1,19.3,9.1,53.1,0.3,0,0,0,0,0.8,0.5,1
1146,"Moloaa Dairy","RAWS","RAWS","KA",85.344,22.18333333,-159.3375,"USR0000HMOL","MLDH1","AAB6D15A",NA,NA,0,0,0,0,0,0,0,0,0,0,0,0,0,0,0,0,0,0,0,0,0,0,0,0,0,0,0,0
