"SKN","Station.Name","Observer","Network","Island","ELEV.m.","LAT","LON","NCEI.id","NWS.id","NESDIS.id","SCAN.id","SMART_NODE_RF.id","X2021.07.01","X2021.07.02","X2021.07.03","X2021.07.04","X2021.07.05","X2021.07.06","X2021.07.07","X2021.07.08","X2021.07.09","X2021.07.10","X2021.07.11","X2021.07.12","X2021.07.13","X2021.07.14","X2021.07.15","X2021.07.16","X2021.07.17","X2021.07.18","X2021.07.19","X2021.07.20","X2021.07.21","X2021.07.22","X2021.07.23","X2021.07.24","X2021.07.25","X2021.07.26","X2021.07.27","X2021.07.28","X2021.07.29","X2021.07.30","X2021.07.31"
2.32,"SOUTH KONA 2 2.32","COOP","COOP","BI",647,19.10778,-155.78944,"USC00518652",NA,NA,NA,NA,1.5,0,NA,1,NA,NA,NA,NA,NA,0,NA,NA,0,NA,NA,0,0.5,NA,NA,NA,0,0,0,0,1.3,0.8,0,0.8,0.5,NA,0
2.34,"MILOLII 2.34","COOP","COOP","BI",280,19.186302,-155.886763,"USC00516304",NA,NA,NA,NA,NA,0,2.3,0.3,8.9,NA,6.6,5.1,0.3,NA,NA,NA,NA,10.4,0.5,0,3.8,1.3,2.3,NA,0,6.1,1.5,0,2.5,10.4,5.8,3,NA,NA,2.5
2.36,"KAPUA 2.36","COOP","COOP","BI",533,19.14472,-155.84944,"USC00513376",NA,NA,NA,NA,NA,0,0,NA,NA,1,NA,NA,NA,NA,6.1,NA,0,NA,1,0,0,4.6,1.3,NA,NA,NA,NA,NA,NA,NA,NA,NA,NA,NA,NA
3.22,"HAWAIIAN OCEAN VIEW 4.7 NNE","HAWAIIAN OCEAN VIEW 4.7 NNE","CoCoRaHS","BI",1273,19.135,-155.747,"US1HIHI0035",NA,NA,NA,NA,0.5,NA,NA,NA,0.5,NA,2.3,NA,4.6,0.5,0.5,NA,0,0.3,1.3,0.5,0.5,NA,0.5,0,0,0,0.8,0.5,NA,3.8,0.5,2,0.8,0.5,0.3
3.9,"LOWER KAHUKU CS","LOWER KAHUKU CS","RAWS","BI",953.7192,19.10083333,-155.6697222,NA,"LKHH1","32D620C2",NA,NA,4.82600000000002,5.84199999999993,2.286,5.84200000000004,6.096,11.938,3.81,NA,1.524,NA,0.508000000000038,3.81,0.254000000000019,8.12799999999993,1.27000000000004,1.27000000000004,NA,9.65199999999999,NA,8.88999999999999,NA,NA,NA,5.58799999999997,NA,NA,NA,9.14400000000001,3.55599999999993,7.11200000000008,0.253999999999905
4.14,"NAALEHU 4.7 WSW, HI US","CoCoRaHs","CoCoRaHs","BI",393.18,19.0421,-155.6371,"US1HIHI0057",NA,NA,NA,NA,3,0,0,NA,NA,15.2,NA,NA,1.3,0.5,2.5,0.5,0,0.5,0,0,0,0,0,0,0,0,2.5,0,1.3,6.9,1.5,1.5,4.1,1.5,4.1
4.15,"SOUTH POINT NEAR NAALEHU 12SSW","NWS","STATE","BI",295.78,18.9928,-155.668,NA,"SOPH1","B1507246",NA,NA,NA,0,0,NA,1.524,NA,0.508,NA,0,0,0,0.254,0,0,0,0,0,0,NA,0,NA,NA,0.254,0,0.762,NA,0,0.254,NA,2.794,NA
6.2,"NAALEHU 5.7 W","NAALEHU 5.7 W","CoCoRaHS","BI",679,19.0732,-155.6632,"US1HIHI0012",NA,NA,NA,NA,7.1,4.3,2.8,6.1,6.6,12.2,4.6,4.3,0.5,1.3,0,5.1,10.2,2,2.5,0.8,0.5,8.6,7.6,1,0,1,4.3,10.2,5.6,0.68255736736076,0,6.9,10.2,3.6,6.4
9.2,"Nene Cabin","Nene Cabin","RAWS","BI",1991.7737,19.2564,-155.6144,NA,"NENH1","32D64524",NA,NA,0,0,0.253999999999962,1.52400000000006,0,NA,1.01599999999996,0.253999999999962,NA,10.16,0,0.507999999999981,0,0.508000000000038,0,0,1.01600000000002,0.507999999999981,NA,1.26999999999998,NA,NA,0,NA,NA,NA,0.253999999999962,0.508000000000095,0,0,0
12.15,"SEA MOUNTAIN 12.15","SEA MOUNTAIN","COOP","BI",21,19.13310292,-155.5152744,"USC00518600",NA,NA,NA,NA,0.32819461738337,0,0,0,0,4.83655060044,1.87128633106212,4.8,0.690935800062858,0,0,1,0,0,0,0,0,0,0,0,0,0,0,0,0,0.431834875039286,0,0,0,0,0.690935800062858
14,"NAALEHU 14","KAU SUGAR","COOP","BI",206,19.06032754,-155.5855501,"USC00516588",NA,NA,NA,NA,0.5,0,0,2.23424443559478,2.41737922539763,5.6,2.76817448359049,4.8,0.8,0,0,2.4468998443362,0,0,0,0,0,3.14991838460903,0,0,0,0,0,3.73594971197815,0,0.5,0,2.52726009927934,3.73594971197815,0.5,0.8
21,"Pahala","KAU SUGAR","HydroNet-UaNet","BI",346.8624,19.2042999,-155.4872,"USC00517421","PPLH1","B16084B2",NA,NA,0.141238112042308,0,0,0,1.01600000000008,3.30199999999996,9.90600000000006,3.55599999999998,9.65199999999999,3.30199999999996,0.254000000000019,1.01600000000002,0.253999999999962,0,0,0,0,0,NA,0,0,0,0,0,0,0,0,0,0,0,0
21.3,"PAHALA MAUKA 21.3","COOP","COOP","BI",332,19.20667,-155.48861,"USC00517437",NA,NA,NA,NA,0.3,0,0,0,0.712200120566694,5.54541638964506,2.5,8.6,7.22743914506927,1.5431002612277,0.118700020094449,1.3801898232919,0.118700020094422,0,0.3,0,0,0,0,0,0,0,0,0,0,0.288461249803885,0,0,0,0.192307499869257,0.461537999686216
23,"KAHUKU","RAWS","RAWS","BI",1796.4912,19.23222222,-155.78,NA,"KRCH1","32639544",NA,NA,0.507999999999925,0.254000000000019,0.762000000000057,5.08000000000004,0.761999999999944,4.572,6.60399999999993,3.81000000000006,1.524,7.62,4.31799999999998,2.28599999999994,11.176,1.01599999999996,0,0,0,5.58800000000008,NA,2.03200000000004,NA,NA,NA,0,NA,4.06400000000008,1.26999999999998,5.08000000000004,3.048,0.507999999999925,0.254000000000133
26.2,"KEALAKEKUA 26.2","GREENWELL ESTATE","COOP","BI",442,19.48975723,-155.9122125,"USC00513977",NA,NA,NA,NA,0.468973063043232,1.5,0,1.40691918912969,1.87589225217461,NA,NA,NA,4.6,0.8,6.09664981956454,0.937946126087303,3.95018508196422,2.57935184673946,1.53907103005683,0.8,7.70196958631175,NA,NA,3.59644249070356,0,2.17449951558896,2,0.8,3.2828114413043,NA,10.7637726021654,7.81069456209161,8.70103528111584,3.79035036629661,8.4
27,"HONAUNAU 27","TANAKA S","COOP","BI",332,19.4403158,-155.8788789,"USC00511665",NA,NA,NA,NA,NA,1,0,NA,NA,NA,NA,NA,7.1,0.73580149755363,NA,NA,3.6,NA,3.6,1,3.6,NA,NA,6.4,0,2,0,3.6,NA,NA,9.9,3.8,8.00279348764,4.6,4.8
27.6,"Honaunau No. 2","NWS","HydroNet-UaNet","BI",398.0688,19.4629002,-155.8824,NA,"HAUH1","15D12742",NA,NA,1.01599999999871,0,2.03200000000106,4.5719999999983,8.89000000000124,NA,NA,7.61999999999989,0.253999999999905,4.06400000000031,6.85799999999927,4.57200000000103,3.55599999999959,1.77799999999934,0.762000000000626,0,6.60400000000027,13.9700000000003,NA,0.253999999998996,NA,NA,NA,0.507999999999811,10.9219999999996,NA,NA,8.63599999999951,NA,5.07999999999902,3.04800000000068
29.12,"Kealakekua","NWS","HydroNet-UaNet","BI",537.972,19.5181007,-155.9159,NA,"KLEH1","81708572",NA,NA,0.507999999999811,1.01600000000053,3.00246506857955,1.52399999999943,2.03200000000106,NA,NA,7.57047180668883,2.54000000000087,4.57199999999921,6.60400000000027,1.01600000000053,4.3179999999993,2.79400000000078,0,1.77799999999934,12.4459999999999,13.8791983122634,NA,0.254000000000815,NA,NA,2.166435729606,0,3.55600000000049,NA,NA,12.4460000000008,9.42511685878584,2.79399999999987,8.38200000000052
34,"Kapapala Ranch","NWS","HydroNet-UaNet","BI",638.556,19.2754993,-155.4514,"USC00513300","KAYH1","B16097C4",NA,NA,0,0,0,0,0.507999999999811,0.253999999999905,10.3075603053169,3.04799999999977,9.14400000000023,8.1279999999997,0,0,0,0,0,0,0,0,NA,0,NA,NA,NA,0,0.253999999999905,0,0,0.253999999999905,0,0,0
36.3,"KAPAPALA RANCH","KAPAPALA RANCH","RAWS","BI",1081,19.25811,-155.441781,NA,"KPRH1","AA10E258",NA,NA,0.253999999999905,0,0,0,0.254000000000133,0.76199999999983,5.08000000000015,0.508000000000038,8.38199999999995,2.79399999999998,0,0.762000000000057,0,0,0,0,0,0,NA,0,NA,NA,NA,0,0.253999999999905,0,0,0,0,0,0
38.9,"KAELAKOMO","KAELAKOMO","RAWS","BI",29.5656,19.29277778,-155.1075,NA,"KMOH1","32807432",NA,NA,0,0,0,0,1.01599999999985,NA,0,0,0,1.77800000000002,0,2.53999999999996,0,0.507999999999811,0,0,0,0,NA,0,NA,NA,NA,0,10.6679999999999,NA,NA,0,0,0,0
39,"Mauna Loa Observatory","NWS","ESRL/GMD","BI",3397,19.5362,-155.5763,"USC00516198","MOBH1",NA,NA,NA,0,0,NA,NA,NA,NA,0,0,0,NA,NA,NA,0,0,0,0,NA,NA,NA,0,NA,NA,NA,NA,NA,NA,2.8,6.9,0,0,NA
39.2,"MAUNA LOA 5 NNE","MAUNA LOA 5 NNE","USCRN","BI",3398,19.5354,-155.576,"USW00021514","MLBH1","CD07379A",NA,NA,0,0,0,0,0,0,0,0,0,0,0,0,0,0,0,0,0,0,NA,0,NA,NA,NA,0,1.9,2.4,6.1,0,0,0,0
43.3,"PUHE CS","PUHE CS","RAWS","BI",34.126,20.025,-155.8211111,NA,"PHRH1","32D61558",NA,NA,0,0,NA,0.254000000000019,0,5.58799999999999,10.414,0,0,NA,0.50800000000001,1.01600000000002,2.286,2.28599999999997,0,0,0.254000000000019,0,NA,0,NA,NA,NA,0,0,1.27000000000004,10.668,0,0,0.253999999999991,5.33400000000003
47,"KEMOKU LAVA FLOW","RAWS","RAWS","BI",1706.88,19.47555556,-155.3627778,"USR0000HKEA","KKUH1","FA4447E8",NA,NA,0,0,0,0,0,0,0.762000000000171,4.06400000000008,2.28599999999983,1.77800000000002,0,0.253999999999905,0,0,0,0,0,0,NA,0,NA,NA,NA,0,6.096,1.26999999999998,NA,0,0,0,0
48,"PALI 2","RAWS","RAWS","BI",847.344,19.3175,-155.2922222,"USR0000HPAL","PLIH1","FA900222",NA,NA,NA,0,0,0,0,NA,NA,0,0,NA,0,NA,NA,0,0,0,0,0,NA,NA,NA,NA,NA,0,0,NA,NA,0,0,0,NA
55.6,"VOLCANO 4.0","COOP","COOP","BI",1194.8,19.441359,-155.2487445,"US1HIHI0071",NA,NA,NA,NA,1,0.5,1,NA,0.3,NA,2.3,5.3,0,3.8,7.4,0.5,4.1,0.8,7.6,0,0.5,6.1,4.8,4.3,NA,2.8,NA,2.3,7.4,NA,NA,NA,NA,NA,NA
63,"KALOKO-HONOKOHAU","RAWS","RAWS","BI",7.62,19.67277778,-156.0202778,NA,"KHOH1","FA667668",NA,NA,0,0,0,0,0,0,7.62,4.572,NA,0,0,0,2.286,0,0,2.53999999999996,5.58800000000002,6.35000000000002,NA,9.65200000000004,NA,NA,NA,0,0,0,0.254000000000019,5.58800000000002,4.06399999999996,1.524,0.508000000000038
65.4,"PAHOA 2.1 E","PAHOA 2.1 E","CoCoRaHS","BI",137,19.5043,-154.9165,"US1HIHI0003",NA,NA,NA,NA,2.3,0,4.3,0.3,7.1,13,6.6,3.6,0.5,4.1,4.6,2,5.6,11.7,5.3,7.6,7.6,3.8,9.7,14.5,13.5,3.6,26.2,12.2,28.4,29.2,23.1,13.2,9.1,4.6,3.6
65.6,"KURTISTOWN 6.6 SSE, HI US","CoCoRaHs","CoCoRaHs","BI",339.63,19.5021,-155.029,"US1HIHI0055",NA,NA,NA,NA,6.9,1,4.8,2.5,3.6,12.7,8.1,4.1,0,3.8,4.8,1.3,5.8,3,5.6,8.1,5.6,9.1,8.4,9.4,18.3,7.32288107076566,39.1,8.4,49.5,39.6,56.9,15,10.7,10.2,6.6
67.7,"PAHOA 2.7 SSE","PAHOA 2.7 SSE","CoCoRaHS","BI",259,19.4654,-154.927,"US1HIHI0051",NA,NA,NA,NA,1.5,0,4.1,0.3,5.1,14.2,8.6,1.5,0.5,5.1,7.9,1,3.8,5.3,5.1,4.6,6.1,7.9,10.7,9.7,14.5,2.8,19.3,10.7,18.3,42.7,17.5,8.1,7.1,4.6,3.6
68.14,"HONOKOHAU HARBOR 68.14","COOP","COOP","BI",9,19.67944,-156.02333,"USC00511880",NA,NA,NA,NA,0,0,0,0,0,0,2,4.1,2.8,0,0,0,5.6,0,0,3.6,1.3,7.9,0.5,NA,0.5,1.3,NA,0,0,0,NA,5.6,NA,5.8,0.5
68.21,"KAILUA KONA KE AHOLE AIRPORT","KAILUA KONA KE AHOLE AIRPORT","NWS","BI",27,19.73556,-156.04889,"USW00021510","PHKO",NA,NA,NA,0,0,0,0,NA,0,0.3,9.7,NA,0,NA,0,0,0.5,0,0,0,0,0.8,6.9,NA,NA,NA,0,0.3,0,NA,5.8,3.3,0.3,0
69.25,"Palamanui","Hilo Forest Service","HIPPNET","BI",297,19.73756,-155.99582,NA,NA,NA,NA,NA,0,0,0,0,0,3.302,4.826,NA,1.016,NA,0,0,0,0,0.254,0.254,0.762,0.762,7.366,4.318,0.762,NA,0.762,0,0,6.858,0.254,NA,8.128,NA,0
69.27,"KALAOA 1.7","KALAOA 1.7","CoCoRaHS","BI",304.5,19.7238,-155.9926,"US1HIHI0006","","",NA,NA,0.3,0,0,0,0,0,7.4,7.6,NA,1.3,NA,0.5,0,0,0,0,3.8,1,2.3,4.6,3.8,0.8,0.3,1.3,0,0.8,10.4,9.9,2.8,NA,1.8
69.28,"Kailua-Kona HI US G0154-W6SPO-13 ","unknown","APRSWXNET","BI",0,19.707,-155.978,NA,"G0154",NA,NA,NA,NA,NA,NA,NA,NA,NA,NA,NA,NA,NA,NA,NA,NA,NA,0.508000016212463,4.31799983978272,3.81000018119812,5.07999992370606,7.62000036239624,7.36599969863892,0.76199996471405,NA,0.76199996471405,NA,0.508000016212463,NA,NA,7.87400007247925,NA,6.34999990463257,0.508000016212463
69.51,"Kailua Kona HI US E6648-EW6648 ","unknown","APRSWXNET","BI",164.05,19.61,-155.96,NA,"E6648",NA,NA,NA,0.25399994850159,NA,3.55599999427795,NA,NA,NA,4.3180008005372,1.77799964714051,3.81000006484984,0.25399973678589,1.01599998092651,4.06400016212464,0.76199984550476,NA,NA,1.01600003242493,8.12800041103363,7.62000020599368,3.04800021648408,2.03200007220764,0.76199991035461,NA,NA,NA,NA,11.4299993515015,9.9060000686646,NA,NA,1.01600006185303,2.53999999427796
70.16,"Waiaha Stream","NWS","HydroNet-UaNet","BI",460.5528,19.6331997,-155.9486,NA,"WIHH1","9321011E",NA,NA,1.524,0.507999999999925,7.87400000000014,3.55600000000004,2.28943733561614,NA,NA,NA,5.58799999999997,11.176,2.79399999999998,2.03200000000004,3.55600000000004,2.28599999999994,2.79399999999998,8.88999999999999,3.80999999999995,NA,NA,2.79399999999998,NA,NA,NA,0,4.00651533732671,NA,NA,14.0228036806425,NA,5.33400000000006,4.57200000000012
70.7,"Puuwaawaa","Hilo Forest Service","HIPPNET","BI",1659,19.72544,-155.87389,NA,NA,NA,NA,NA,0.508,0.254,1.524,0.508,5.08,0.508,7.874,6.35,1.778,7.874,0.254,0.508,NA,0.254,0,0.254,1.016,0.254,NA,3.048,NA,3.81,5.334,0.254,2.794,NA,4.826,7.874,6.35,NA,NA
74.8,"KEALAKEKUA 4 74.8","COOP","COOP","BI",433,19.5106,-155.9217,"USC00513987",NA,NA,NA,NA,0.53359550606633,1.33698416808603,0,1.60078651819899,2.13438202426723,NA,NA,NA,7.4,2.85629803300751,6.93674157886515,1.06719101213361,4.49450336057373,2.93477528336673,0.8,1.33829627195556,8.76326740910628,NA,NA,4.0920165828128,0,2.47413606643484,1.13779563927138,1.78789381033327,3.73516854246621,NA,12.2469735288525,8.88697421242849,9.9,4.31264411808295,8.09991192647382
75.1,"PTA KIPUKA ALALA","RAWS","RAWS","BI",1641.348,19.66694444,-155.7077778,"USR0000HPTK","PKAH1","32666200",NA,NA,0,0.253999999999991,0.254000000000019,0.253999999999991,0,0,0.507999999999981,0,0.762,2.03200000000001,0,1.524,0.254000000000019,0,0,0,0,0,NA,0.253999999999991,NA,NA,NA,1.52400000000003,0.507999999999981,NA,0.762,0,0.253999999999991,0,0.253999999999991
83,"QuarryRainGageatSaddleRd","USGS","USGS","BI",1286.256,19.68586111,-155.2942222,NA,"SDQH1","DDF6B6E4",NA,NA,2.286,1.77799999999999,5.08,0.253999999999991,4.82600000000001,8.89,5.58800000000002,1.77799999999996,5.08000000000001,4.64171854934446,0.50800000000001,5.58800000000002,0.761999999999972,7.87400000000002,1.52399999999997,0.254000000000019,9.79990781801517,9.90600000000001,6.7743073933711,9.90600000000001,16.8598197111404,21.9045767225278,31.0616415713005,12.192,45.72,40.386,45.4438651866107,5.58799999999997,1.01600000000002,4.31799999999998,0.507999999999981
87,"HILO INTERNATIONAL AIRPORT 87","NWS","HydroNet-UaNet","BI",11.6,19.7191,-155.053,"USW00021504","PHTO",NA,NA,NA,1,0.8,3.8,2,7.35072341241646,4.8,4.1,1.3,5.1,2.04657883212355,6.6,0.8,2.5,5.1,1,3,5.8,0.5,4.8,12.7,17.8,7.6,13,7.6,35.3,36.8,17.6316212090698,9.18704477040535,1.3,7.4,0.8
87.5,"HILO 5 S","HILO 5 S","USCRN","BI",189,19.645,-155.0827,"USW00021515",NA,NA,NA,NA,1.5,0.3,5.1,1.5,9.6,7.3,0.9,0,0,2.91921727226809,1.4,0.3,5.8,3.8,0.7,3.3,12.6,8.2,5.1,10.8,20.5210495685232,11.9997409551039,23.1004810867199,16.1,34.7,55.4,15.1,8.7,0.5,8.8,0.8
87.9,"IPIF","Hilo Forest Service","HIPPNET","BI",111,19.69748,-155.0954,NA,NA,NA,NA,NA,1.27,0.254,3.81,2.032,12.954,3.556,4.572,0,0,2.46718240671756,2.794,0,4.826,3.81,2.794,2.54,8.128,1.778,5.842,7.874,17.526,17.78,18.034,19.304,58.928,52.578,16.764,7.24112606356435,1.016,7.112,0.254
89.13,"KAIWIKI HOMESTEAD 89.11, HI US","COOP","COOP","BI",379.67,19.7509,-155.1362,"USC00512802",NA,NA,NA,NA,9.7,0.5,4.6,6.6,2.5,25.8500423139909,2,0.5,1.8,3.6,6.9,0.3,5.3,0.8,8.1,5.1,5.6,12.2577001684488,10.4,10.1189758661686,26.2953214443612,12.4,53.8,16.3,43.7,97.3,60.5,16.8,7.4,9.1,5.3
91.11,"PUNA MACADAMIA O 91.11","COOP","COOP","BI",244,19.61861,-155.08667,"USC00518315",NA,NA,NA,NA,0,0,3.23650718462482,3.18944003194034,5.35837994538731,16.5768628743297,0,8.1,0,2.9146083291333,3.67772005123738,0,0,0,0,3.37283640869539,6.07517305525267,4.85854563004086,4.50100597386527,6.52758484304974,32.3,6.9,27.2,10.1409043215193,28.4578925911188,105.9,34.8,14.7,11.4,10.7,4.00114177941386
92,"KEAAU 92","PU SUGAR","COOP","BI",87,19.62918887,-155.0333418,"USC00513872",NA,NA,NA,NA,3.16290827724881,1.39702946592252,3.04463667282977,3.00035981170317,4.56266526422269,14.7,2.5,2.8,0,2.74182101246996,3.45969302759224,0.5,1.42507881900042,0.288377552015662,8.6,5.8,4.61177447762706,4.57051548413416,3.8,5.1,19.8578969118523,6.42033153296126,24.5212179611747,8.81901467080668,26.7708175733324,59.1536151225133,34.7128700746452,10.7818273641581,5.9575446255034,6.37073833450608,3.76394127986678
92.5,"KiholoRainGage","USGS","USGS","BI",283.96692,19.82580556,-155.8925833,NA,"KIRH1","DD60236E",NA,NA,0,0,0,0,0,0,0,0,0,1.778,0,0,0,2.54,0.254000000000001,0,0,0,NA,0,NA,NA,NA,0,1.016,0,3.048,0,3.556,0,0
93.12,"PUUANAHULU","RAWS","RAWS","BI",830.58,19.83277778,-155.7697222,NA,"PULH1","48703040",NA,NA,0,0,0,0,0.253999999999991,0,0,0,NA,2.79399999999998,0,4.31800000000004,0.253999999999962,0,0,0,0,0,NA,0,NA,NA,NA,1.27000000000004,3.30199999999996,0,0,0,0,0,0
93.13,"Mamalahoa","Hilo Forest Service","HIPPNET","BI",636,19.80256,-155.85062,NA,NA,NA,NA,NA,2.286,0,0,0,0,0,4.318,1.016,0.762,11.0950417244076,0.254,1.778,0,3.81,0,0,0,0,NA,0.254,0.254,NA,NA,0,0.762,0.254,25.908,0.254,9.144,0,0
93.61,"PAHOA 4.7 NE, HI US","CoCoRaHs","CoCoRaHs","BI",53.95,19.5473,-154.8988,"US1HIHI0065",NA,NA,NA,NA,2.3,0,3,3.6,5.8,8.9,4.3,6.1,1,1.8,0,0.8,6.4,5.6,2.5,7.9,5.1,2.5,7.4,9.7,11.9,4.1,15.5,8.1,28.4,21.6,20.6,8.1,7.1,4.8,2.8
93.62,"PAHOA 5.7 NE","COOP","COOP","BI",27.4,19.5565,-154.8865,"US1HIHI0070",NA,NA,NA,NA,2,0,2.3,2.5,6.9,7.6,4.1,NA,NA,NA,0.5,0,7.1,6.1,2.3,6.6,3.8,2.3,7.1,14.5,9.7,3.3,8.9,4.6,21.3,22.9,NA,NA,NA,NA,NA
93.63,"HAWAIIAN PARADISE PARK 2.4 E","COOP","COOP","BI",10.1,19.594568,-154.936038,"US1HIHI0072",NA,NA,NA,NA,2.8,0,5.6,2.8,9.1,7.9,NA,3.6,0,3.8,2.8,1.5,3.8,4.8,3,13.5,6.4,5.8,8.4,13,14.7,10.4,11.2,10.4,25.1,20.6,NA,6.1,5.8,5.1,1.5
93.64,"KEAAU 5.5","COOP","COOP","BI",18,19.613803,-154.955684,"US1HIHI0068",NA,NA,NA,NA,8.1,0,5.1,1.3,7.1,15.2,10.2,2.8,1,0,0.8,2,2.8,3.8,5.6,8.6,6.6,3,4.8,8.9,18.8,4.6,8.1,4.3,21.8,24.6,NA,6.1,6.1,6.1,1.8
93.8,"KONA VILLAGE 93.8","KO VILLAGE RES","COOP","BI",12,19.8314012,-155.9858256,"USC00514765",NA,NA,NA,NA,1.3,0,0,0,0,0,0,0,0,0,0,0,0,0,0,0,0,0,NA,0,0,NA,NA,0,0,0,0,1.3,0.5,0,0
94,"KAUPULEHU LAVA FLOW","RAWS","RAWS","BI",372.1608,19.80333333,-155.9180556,NA,"KPLH1","4870E628",NA,NA,0,0,0,0,0,0,0,0,0,1.26999999999998,0,0,0,0.253999999999991,0,0,0,0,NA,1.01600000000002,NA,NA,NA,0,0.253999999999991,2.54000000000002,0.507999999999981,1.01599999999999,1.01599999999999,0,0
94.5,"PUU WAAWAA","RAWS","RAWS","BI",708.9648,19.795,-155.8452778,"USR0000HPUW","PWWH1","487046D0",NA,NA,1.27000000000004,0,0,0,0,0,9.39800000000002,0.253999999999962,0.508000000000095,10.1599999999999,0.254000000000076,3.55599999999993,0.254000000000019,1.01599999999996,0,0,0,0,NA,0,0.232593987846204,NA,NA,0,0.762000000000057,0.253999999999962,18.542,0,5.07999999999998,0,0
95.11,"WAIKOLOA VILLAGE 2.7 ENE","WAIKOLOA VILLAGE 2.7 ENE","CoCoRaHS","BI",265,19.9465,-155.7883,"US1HIHI0047",NA,NA,NA,NA,0,0,0,0,0,0,2.5,0,0,9.4,3.6,0,0,0,0,0,0,0,NA,0,NA,NA,NA,0,0,0,0,0,0,0,0
95.6,"WAIKOLOA","RAWS","RAWS","BI",297.7896,19.92416667,-155.7936111,NA,"WKVH1","4870C0C4",NA,NA,0,0,0,0,0,0,0,0,4.064,3.048,0,0.254000000000005,0,0,0,0,0,0,NA,0,NA,NA,NA,0,0,0,0,0,0,0,0
95.8,"WAIKOLOA 95.8","BOISE CASCADE","COOP","BI",268,19.93389178,-155.7877744,"USC00519142",NA,NA,NA,NA,0,0,0,0,0,0,0,0,0,6.78798322712669,2.59965315081448,0,0.3,0,0,0,0,0,NA,0,NA,NA,NA,0,0,0,0,0,0,0,0
95.9,"WAIKOLOA BEACH RT 95.9","COOP","COOP","BI",24,19.91278,-155.87778,"USC00519144",NA,NA,NA,NA,0,0,0,0,0,0,0,1,5.3,0.3,0,0,0,0,0,0,0.5,0,NA,0,1,NA,NA,0,0,0,0,0,0,0,0
98.1,"PUUKOHOLA HEIAU 98.1","ROSE FUJIMORI","COOP","BI",43,20.02666416,-155.81944,"USC00518422",NA,NA,NA,NA,0,0,0,0,0,0,3,NA,0,6.6,0,0,0,0,0,0,0,0,NA,0,NA,NA,NA,0,0,0,0,0,0,0,0
98.2,"PUHO CS","PUHO CS","RAWS","BI",29.5656,19.42194444,-155.9075,NA,"PERH1","32D6803A",NA,NA,0,0,NA,NA,NA,NA,NA,NA,NA,4.318,NA,NA,NA,NA,0,0,NA,NA,NA,0.507999999999996,NA,NA,NA,0,NA,NA,NA,NA,NA,NA,NA
98.91,"HOLUALOA 0.95","COOP","COOP","BI",527.3,19.6225861,-155.927558,"US1HIHI0067",NA,NA,NA,NA,NA,6.4,NA,NA,3.3,1.8,NA,NA,NA,1,9.4,2.8,4.8,6.4,0.5,1.3,6.4,9.4,NA,5.3,5.8,1.5,3.3,4.3,NA,0.8,NA,NA,8.9,11.2,6.4
99,"PTA WEST","RAWS","RAWS","BI",1307.592,19.77166667,-155.7022222,"USR0000HPTW","PKWH1","32667176",NA,NA,0,0,0,0,0.507999999999981,0.253999999999991,0,0,1.77800000000002,3.048,0,2.53999999999999,0.254000000000019,0,0,0,0,0,NA,0,NA,NA,NA,0,1.52399999999997,4.06400000000002,0,0,0,0,0
102.8,"AUHMOA","RAWS","RAWS","BI",2001.9264,19.83638889,-155.6130556,NA,"AHMH1","4870D3B2",NA,NA,0,0,0,0,1.01599999999999,0,0.253999999999991,0,2.54000000000002,0.507999999999981,0.254000000000019,2.286,0,4.31800000000001,0,0,0,0,NA,0,NA,NA,NA,0.254000000000019,1.01599999999999,4.82599999999999,4.06399999999999,0,0,0,0
107.4,"PTA EAST","RAWS","RAWS","BI",1959.864,19.68277778,-155.5452778,"USR0000HPTA","PTAH1","3266D18E",NA,NA,0,0,0,0,0,0,0,0,0,0,0,0,0,0,0,0,0,0,NA,0,NA,NA,NA,0,0.762000000000029,3.04799999999997,0.254000000000019,0,0,0,0
109,"PTA RANGE 17","RAWS","RAWS","BI",1734.312,19.74583333,-155.6261111,NA,NA,"3279630C",NA,NA,NA,0,0,0,0,0,0,0,0,0.50800000000001,0,NA,0,0,0,0,0,0,NA,0,NA,NA,NA,0,0,NA,0,0,0,0,0
111,"HALEPOHAKU 111","STATE DIV FTRY","COOP","BI",2811,19.76029046,-155.4555569,"USC00511065",NA,NA,NA,NA,NA,NA,NA,NA,NA,NA,0,0.3,0.8,1,NA,NA,NA,NA,0.5,NA,0,NA,NA,NA,NA,NA,NA,0,0.5,NA,NA,0,0.5,NA,NA
113.2,"PUU MALI","RAWS","RAWS","BI",2165,19.92666,-155.44,NA,"PMLH1","3181742E",NA,NA,0,0,0,0,0,NA,NA,0,0.254000000000019,0.507999999999981,0,0.254000000000019,0,0,0,0,0,NA,NA,0,NA,NA,NA,NA,0,18.542,NA,NA,NA,0,0
127.5,"Laupahoehoe","Hilo Forest Service","HIPPNET","BI",1145,19.93217,-155.29129,NA,NA,NA,NA,NA,2.032,1.27,10.16,0,4.572,27.3890983137361,7.112,0.254,0.508,2.794,0.254,0,1.016,5.842,0.254,0,11.3356865537513,5.842,5.334,7.62,8.89,31.75,32.2716286026078,5.08,24.384,92.202,40.5281120979562,7.112,0,1.778,0.254
129,"HAKALAU","RAWS","RAWS","BI",1950.72,19.82111111,-155.3305556,"USR0000HHAK","HKUH1","8374D370",NA,NA,0,0,0,0,1.27000000000021,1.96194266973766,3.81000000000017,0.254000000000133,1.26999999999975,3.80999999999995,0.508000000000266,1.77800000000002,0.507999999999811,0.761999999999944,0,0,5.08000000000015,2.70274758208695,2.08303480361447,4.08461143276468,5.33041585603079,8.37047188243339,6.06733366240323,6.09725349645686,18.0339999999999,38.8620000000001,5.55953566895877,1.77800000000002,0,0,0
132.2,"Spencer","Hilo Forest Service","HIPPNET","BI",454,19.96358,-155.25014,NA,NA,NA,NA,NA,3.81,0.254,5.842,0.254,11.684,40.132,0.762,0,0,5.334,0.254,0,0,1.778,0,1.27,11.4842996898269,6.096,2.286,11.684,23.876,55.372,44.196,7.874,21.336,105.918,54.102,9.72915156519382,0.254,3.556,0
132.6,"Laupahoehoe, HI US F9660-FW9660","unknown","APRSWXNET","BI",334,19.9672,-155.2367,NA,"F9660",NA,NA,NA,2.5400007852782,0,2.79399991035461,1.01600006246567,10.1600004758835,37.5920009613039,1.0159948027344,NA,1.5239999294281,3.04800012670288,NA,0,0,3.0479998588562,NA,2.28600001335144,13.2079997196198,4.57200025613399,2.53999948501587,12.4460003757477,26.4159956970214,50.5460063716431,58.1660000610352,5.84199791336066,17.0179977416993,78.7400150299071,38.6079960327144,10.1599994735718,0.25400018692017,2.03200001335144,NA
133.3,"Laupahoehoe","NWS","HydroNet-UaNet","BI",499.872,19.9792,-155.2372,NA,"LPHH1","B159741A",NA,NA,2.53999999999996,0,2.53999999999996,0.253999999999905,11.6840000000002,19.558,0.507999999999811,0,1.77800000000025,0.761999999999716,0,0,0,2.03200000000015,0,1.52400000000034,7.8739999999998,4.57200000000012,2.74548420768831,11.1760000000004,10.0873645653445,20.4529884344489,15.6047430145522,7.36599999999999,21.7466167629933,62.9920000000002,27.9399999999996,9.39800000000014,0.254000000000815,3.04799999999886,0
138.2,"KAHUNA FALLS 138.2","COOP","COOP","BI",424,19.86139,-155.16361,"USC00512595",NA,NA,NA,NA,6.4,6.6,6.4,7.9,9.4,29.5,1.3,1,0.3,3,2.5,0.5,2,0.5,7.6,0.3,6.37501459333238,16,9.4,7.1,24.6,11.7382846972427,66,15.1481435362174,39.6,59.9,86.4,18.398858075673,6.71631861232809,3.8,8.6
140.1,"PAPAIKOU MAUKA NO 2 140","MAU KEA SUGAR","COOP","BI",427,19.78695738,-155.1388973,"USC00517724",NA,NA,NA,NA,8.1,0.8,2.8,3.8,3.6,21.6,1.3,0.8,0.5,4.3,3.8,0.5,4.3,0.8,8.9,4.8,2.8,6.1,5.1,7.9,21.3,7.6,34.8,12.4,34.5,61,32.8,10.2,6.1,7.1,7.9
144.1,"PAPAIKOU 144.1","MAU KEA SUGAR","COOP","BI",61,19.78362447,-155.0922318,"USC00517711",NA,NA,NA,NA,3.00594021389832,1.32769801825241,2.89353816466952,2.85145866512697,4.33623039243293,14.820231391801,5.3,0,0.117314212814579,2.60575056822823,3.28799620089806,0.275709585596459,1.3543553446748,0.274066019120681,5.8,3.01542073446017,4.38290242541819,4.34369102348871,4.02403944185726,7.1,18.8723939041019,6.10170483927994,21.1,8.38134669810775,25.4422417752221,56.2179535123581,32.9901479748143,10.2467493876942,2.5,3.6,3.57714529292163
147.1,"MIDDLE PEN 147.1","KAHUA RANCH","COOP","BI",421,20.10027112,-155.8322151,"USC00516270",NA,NA,NA,NA,NA,NA,NA,NA,0,0,NA,NA,0,NA,NA,NA,7.6,0,NA,0,NA,0,NA,0,NA,NA,NA,NA,0,0,0,NA,NA,NA,NA
147.2,"KOHALA RANCH","KOHALA RANCH","RAWS","BI",328.8792,20.08305556,-155.8325,NA,"KHRH1","4870B654",NA,NA,0,0,0,0,0,0,NA,2.53999999999996,0,1.52400000000006,NA,0,0,0,0,0,0,0,NA,0,NA,NA,NA,0,0,0,0,2.28599999999994,3.55600000000004,0,0
160.3,"Upolu Airport","NWS","HydroNet-UaNet","BI",34,20.265,-155.8582,NA,"UPLH1","B15017A0",NA,NA,0.508000000000038,0.507999999999981,0.508000000000038,1.26999999999998,5.84199999999998,1.77800000000002,1.26999999999998,0,0,NA,0,0,0,2.54000000000002,0.253999999999962,0.507999999999981,0.254000000000076,1.77799999999996,NA,NA,NA,NA,NA,6.60400000000004,6.858,1.524,9.90600000000001,1.77799999999996,4.31800000000004,4.82599999999996,0
176.3,"Kahua Ranch HQ","KAHUA RANCH","HydroNet-UaNet","BI",987.552,20.1249008,-155.7884,NA,"KASH1","15D293C2",NA,NA,0.254000000000019,0.253999999999905,4.572,0.254000000000133,1.01599999999996,1.77800000000002,0.986390865832161,0,0,2.56461625116423,0,2.36733807799765,0.253999999999905,2.54000000000008,0.507999999999925,1.38094721216531,2.53999999999996,0.762000000000057,NA,0.762000000000057,NA,NA,NA,1.52400000000011,1.77799999999991,1.52399999999989,0.508000000000152,0.508000000000038,1.77550355849811,5.52378884866125,0.253999999999905
178.12,"PONOHOLO RCH 178.11","PONOHOLO RCH 178.11","COOP","BI",762,20.12554592,-155.7774941,"USC00518101",NA,NA,NA,NA,NA,NA,3,NA,5.1,NA,NA,0,NA,NA,NA,NA,NA,NA,NA,NA,NA,9.4,0,3,NA,0,10.2,NA,3.3,2,2,NA,3.3,NA,NA
185.7,"KawainuiRainGagenearKamuela","USGS","USGS","BI",1237.488,20.08533333,-155.6811667,NA,"KWSH1","DDF6A592",NA,NA,NA,NA,NA,1.01600000000002,NA,NA,5.33399999999995,0,3.81,10.414,0.507999999999981,NA,2.79400000000004,4.82600000000002,NA,NA,NA,NA,7.62000000000006,NA,18.8509951144145,50.1841590083482,50.6735996979008,NA,NA,NA,59.3217945068003,NA,NA,NA,3.04800000000012
191.1,"LALAMILO FLD OF 191.1","DOWALD","COOP","BI",799,20.01083015,-155.6763867,"USC00515260",NA,NA,NA,NA,NA,NA,NA,NA,NA,NA,NA,NA,NA,NA,NA,NA,NA,NA,NA,NA,NA,NA,NA,NA,2.5,0.8,NA,NA,NA,NA,NA,NA,NA,NA,NA
192.7,"Kamuela Upper","NWS","HydroNet-UaNet","BI",948.5376,20.0319996,-155.6667,"USC00513080","KUUH1","817075F6",NA,NA,4.06399999999985,3.81000000000017,4.47632302245854,0.508000000000038,8.38199999999983,6.09600000000023,1.26999999999975,0,0,3.30200000000013,0,3.048,0,0.761999999999944,7.87400000000002,1.77800000000002,6.03377363852051,12.192,NA,8.12799999999993,3.58667418456517,2.7525639090849,19.1011253084983,6.60326215878278,4.75020755528826,7.20974795843196,0.654061206716248,9.65200000000004,2.28599999999983,7.11200000000008,0.163515301678952
192.9,"PUUKAPU HMSTD 192.9","COOP","COOP","BI",916,20.0375,-155.6347,"USC00518386",NA,NA,NA,NA,9.4,1.3,3.8,3.6,0.3,5.31862141416384,0.8,2.5,0,0.3,3.3,0,0.3,0.3,0.5,9.4,4.3,11.2,6.9,0.5,4.3,3.3,22.9,10.9433046001958,7.6,8.6,18.913429747679,7.1,9.4,6.1,9.1
201.3,"Kamuela 1","NWS","HydroNet-UaNet","BI",877.824,20.0394993,-155.6084,NA,"KMUH1","81706680",NA,NA,3.45951357607874,1.27000000000044,3.55599999999959,0.507999999999811,5.84199999999964,4.31800000000112,1.26999999999953,0,0,1.77799999999934,0,0,0,0,5.58799999999974,2.54000000000087,9.14399999999932,5.08000000000084,NA,1.52399999999943,2.91671602864166,2.23840997546918,15.5332086176498,9.14400000000023,4.57200000000012,10.1599999999989,10.463731658697,8.1279999999997,1.01600000000053,5.84199999999964,0
208.1,"Honokaa HI US E6549-AH6AE ","unknown","APRSWXNET","BI",310.01,20.101,-155.531,NA,"E6549",NA,NA,NA,0.25399978637695,NA,1.5239999294281,0.25399997792969,4.0640000782013,6.34999931907654,0.254000282287589,NA,0,NA,0.254000008106232,NA,NA,NA,NA,NA,NA,NA,NA,NA,NA,NA,NA,NA,NA,NA,NA,NA,NA,NA,NA
215.5,"Honokaa","NWS","HydroNet-UaNet","BI",591.9216,20.0656,-155.49,NA,"HNKH1","B15047DC",NA,NA,1.01600000000053,0,5.07999999999902,0.254000000000815,8.89000000000033,9.90599999999904,4.75568318593815,0,0,0,0,0,0,0,0,1.52399999999943,1.19754917598495,4.7788747099385,0,6.60399999999936,4.50937375610325,4.08648167914252,10.3598271719197,8.63651307462455,9.39800000000014,11.9074032248137,15.2399999999998,6.90793269430008,5.73884871182541,5.08000000000084,1.10212873751896
216.6,"HONOKAA 2.5 SSW","HONOKAA 2.5 SSW","CoCoRaHS","BI",757,20.0417,-155.4777,"US1HIHI0033",NA,NA,NA,NA,10.4270494318386,1,3.6,2.8,0.5,12.4,5.3,4.3,0.3,2,0.5,0,0,0,0,0,2.5,11.6695565215034,1.5,0.3,3.8,3.6,24.4,6.6,0.5,7.4,33.8,8.1,15.7,1.5,3
216.8,"KALOPA 216.8","COOP","COOP","BI",396,20.06111,-155.43528,"USC00512982",NA,NA,NA,NA,5.45374858415611,0.95719267782715,0.8,0.978709166932924,6.59810467262225,3.8,8.4,0,0,0.40780553141217,0,0,0.3,0,0,0,2.3,4.6,0.8,0,7.1,7.4,9.9,14,0,10.0450363524021,31.5,6.4,10.4,0,1.3
216.9,"HONOKAA 2.7 ESE","HONOKAA 2.7 ESE","CoCoRaHS","BI",333,20.0606,-155.43,"US1HIHI0034",NA,NA,NA,NA,11.2,0.3,1.91527613807517,0,3.20202380916277,3,9.1,0,0,0.3,0,0,0,0,0,0,1.3,11.4,1.3,0,6.6,4.1,20.1,14,0.3,10.4,34.3,5.1,7.4,0.612800975395979,1
217.2,"PAAUHAU MAUKA 217.2","COOP","COOP","BI",341,20.07306,-155.44722,"USC00517209",NA,NA,NA,NA,6.4,0,0.3,0.3,3.3,3.8012270868755,5.3,0,0,0,0,0,0,0,0,0,1,10.2,0.8,0,5.3,1.92859988965405,13.7282150300365,7.35179835138473,0.3,15.5,30,6.4,6.9,0,1.5
221,"PAAUILO 221","HAMAKUA MILL","COOP","BI",244,20.03860487,-155.3688913,"USC00517312",NA,NA,NA,NA,1,2.5,1.3,0.286415466926593,6.8274409308441,8.4,7.9,0,0,0,0,0,0,0,0,0,2.5,6.1,5.6,0,8.9,6.6,25.9,10.198408587642,5.54240949704848,15,52.1,6.48730244106318,9.7,0,2.5
221.7,"PAAUILO 2.4 SW","PAAUILO 2.4 SW","CoCoRaHS","BI",613,20.019,-155.3988,"US1HIHI0050",NA,NA,NA,NA,9.1,0.3,1.5,3.3,3.13024855769287,4.6,7.81310447139679,3.6,0,1.3,0,0,0,0.5,0,0,1.83735725050818,11.6477269881054,0.8,0.0998129360498165,6.49938611578166,2.5,27.9,12.8354210540158,0.3,10.2,42.2,3.8,10.7,0.3,1.3
249.1,"MAKENA GOLF CRS 249.1","MAKE GC","COOP","MA",30,20.6420893,-156.4388486,"USC00515842",NA,NA,NA,NA,0,0,0,NA,NA,0,0,NA,NA,0,0,0,0,NA,NA,NA,NA,NA,NA,0,NA,NA,NA,NA,NA,0,NA,NA,NA,NA,NA
250,"ULUPALAKUA RANCH 250","ULUPALAKUA RANCH","COOP","MA",579,20.648174,-156.398497,"USC00518760",NA,NA,NA,NA,NA,NA,NA,NA,NA,NA,NA,NA,0.8,NA,NA,NA,1.3,0,0,0,NA,NA,NA,0,0,0,0,NA,NA,NA,0,0,NA,2.8,NA
250.2,"Ulupalakua Ranch","NWS","HydroNet-UaNet","MA",581.5584,20.6487999,-156.3981,NA,"ULUH1","8170531A",NA,NA,0,0,0,0,0,0,7.11200000000008,0.253999999999905,0.254000000000133,1.52399999999989,0,1.2700000000001,0,0,0,0,0,0.254000000000019,NA,0,NA,NA,NA,0.253999999999905,0.254000000000133,0,0,0,2.79399999999998,0.253999999999905,0
255,"KepuniGulchRainGage","USGS","USGS","MA",225.552,20.6195,-156.2518889,NA,"KPNH1","F000D4EA",NA,NA,0,0,0,0,0,0,0,0,0,0,0,0,0,0,0,0,0,0,0,0,NA,NA,0,0,0,0,0,0,0,0,0
267,"KULA HOSPITAL 267","KULA SATORIUM","COOP","MA",916,20.70013977,-156.3555187,"USC00515004",NA,NA,NA,NA,0,0,0,0,0,1.8,0.5,0,NA,0.5,NA,0,0,0,0,0,0,0,0,0,0,0,0,0,0,0,0,0,0,0.5,0
267.8,"KULA 1","KULA 1","RAWS","MA",1998.5736,20.68305556,-156.3216667,NA,"KLFH1","AA10F12E",NA,NA,0,0,0,0.507999999999925,0.508000000000038,0,5.08000000000004,NA,3.048,1.2700000000001,1.01599999999996,0,0,2.79399999999998,0,0,0,0,NA,0,NA,NA,NA,0,0,0,0,0,0,0,0
279,"POHAKAU PALAHA HN-161","HaleNet","HaleNet","MA",2460,20.73061111,-156.1413056,NA,NA,NA,NA,NA,0,0.762,0.508,1.016,0.508,0,0,0,0,1.778,0.762,NA,0,3.556,0.254,0,0,0.508,0.762,3.302,3.048,0.762,0.508,3.302,7.366,0.508,0,0.254,0,0,0
302,"MAALAEA BAY","NWS","STATE","MA",302,20.7903,-156.514,NA,"P36","15DF05C6",NA,NA,NA,0,0,0,0,NA,0,NA,0,0,0,0,0,NA,NA,NA,0,0,NA,0,NA,NA,NA,0,0,0,NA,NA,0,0,0
311.2,"Kealia Pond NWR","Kealia Pond NWR","RAWS","MA",3.6576,20.7975,-156.4772222,NA,"KPDH1","32B2C438",NA,NA,NA,NA,0,0,0,NA,NA,NA,NA,0,0,0,0,NA,NA,NA,0,0,NA,0,NA,NA,NA,0,0,0,NA,NA,0,0,0
311.5,"Kihei 2","NWS","HydroNet-UaNet","MA",54.5592,20.7061005,-156.437,NA,"KHIH1","93202508",NA,NA,0,0,NA,0,0,0,NA,0,0,NA,0,NA,NA,0,0,0,0,0,NA,NA,NA,NA,NA,0,0,NA,0,0,NA,NA,0
324.7,"Kula Branch Stn","NWS","HydroNet-UaNet","MA",944.88,20.7577991,-156.3217,"USC00515000","KBSH1","93220610",NA,NA,0,0,0,0,0,0,0,NA,2.03200000000015,0,0,0,0,NA,0,0,0,0.253999999999905,NA,0,0,0,0,0,0,0,0,NA,0,0,0
329,"LOWER KAHUKU CS","BD OF A&F","STATE","MA",1149,20.80179746,-156.2805211,NA,"LKHH1",NA,NA,NA,NA,NA,2.28601076171875,5.3339844171875,NA,NA,3.30203247070312,4.14062499842771e-08,1.52401733398438,NA,NA,3.80999755859375,0.25399784414063,7.87402344023438,0.761962890625,0.76199343398438,NA,0.762023962890598,NA,NA,NA,NA,NA,NA,NA,NA,1.5240173378907,4.8259582519531,1.5239872773437,5.8419189453125,0.2540283203125
337,"south rim","south rim","CraterNet","MA",2898,20.703948,-156.241101,NA,NA,NA,NA,NA,0,0,0,0,0,0,0,0,0,0,0,0,0,0,0,0,0,0,0,0,0,0,0,4.2,0,0,0,0,0,0,0
337.1,"Sliding Sands","Sliding Sands","CraterNet","MA",2697,20.714563,-156.2394,NA,NA,NA,NA,NA,0,0,0,0,0,0,0,0,0,0,0,0.4,0,0,0,0,0,0,0,0,0,0,0,1.4,0,0,0,0,0,0,0
337.12,"Puu Alaea","Puu Alaea","CraterNet","MA",2282,20.73782363,-156.1453106,NA,NA,NA,NA,NA,0,5.4,5,3,0,0,0,0,0,0.4,3,5,0.4,4.8,0.2,0,0.2,0.2,5.2,2.4,2.8,4.2,0.4,0.6,4.4,2,0.2,0,0,0,0
337.13,"Paliku","Paliku","CraterNet","MA",1927,20.71236611,-156.1437572,NA,NA,NA,NA,NA,0,0.2,0,0.2,1.8,0,0,0,0,3.8,1,9.2,0,7.8,0.2,0,0.8,1.4,NA,NA,4.8,4.2,1,NA,NA,0.4,0,0.2,0,0,0
337.2,"Puu o Pele","Puu o Pele","CraterNet","MA",2424,20.709651,-156.224485,NA,NA,NA,NA,NA,0,0,0,0,0,0,0,0,0,0,0,0.4,0,0,0,0,0,0,0,0,0,0,0,1,0,0,0,0,0,0,0
337.3,"Lava lake","Lava lake","CraterNet","MA",2270,20.718443,-156.212261,NA,NA,NA,NA,NA,0,0,0,0,0,0,0,0,0,0,0,0.2,0,0,0,0,0,0,0,0,0,0,0,1.90360493932132,0,0,0,0,0,0,0
337.4,"Silversword loop","Silversword loop","CraterNet","MA",2186,20.731704,-156.205387,NA,NA,NA,NA,NA,0,0,0,0,0,0,0,0,0,0,0,0.2,0,0,0,0,0,0,0,0,0,0,0,2.10984126248383,0,0,0,0,0,0,0
337.5,"Leleiwi","Leleiwi","CraterNet","MA",2722,20.74337371,-156.2288651,NA,NA,NA,NA,NA,0,1.6,0.8,0,NA,0,0,0,0,3.4,0.6,0.4,0,1.6,0,0,0,0,0,0.8,0,0.2,0,2,0,0,0,0,0,0,0
337.6,"Puu Nole","Puu Nole","CraterNet","MA",2261,20.717807,-156.188007,NA,NA,NA,NA,NA,0,0,0,0,0,0,0,0,0,0,0,0.4,0,0,0,0,0,0,0,0,0,0,0,0.8,0,0,0,0,0,0,0
337.7,"Hanakauhi","Hanakauhi","CraterNet","MA",2645,20.73567887,-156.1754875,NA,NA,NA,NA,NA,0,0.4,0.2,0,0,0,0,0,0,1,NA,2.2,0,1,0,0,0,0,NA,0,NA,0.2,0,0.2,0.4,0,0,0,0,0,0
337.8,"Aloha Park","Aloha Park","CraterNet","MA",2455,20.73555054,-156.1587809,NA,NA,NA,NA,NA,0,2.2,1,1,0,0,0,0,0,0.6,1.2,1.6,0,2.2,0,0,0,0,1.8,0.2,0.6,1.4,0,0,1.2,0.2,0,0,0,0,0
338,"HALEAKALA RANGER STATION 338","HAWAII T PARK","COOP","MA",2143,20.75846738,-156.2455233,"USC00511004",NA,NA,NA,NA,0,0,0.3,0,0,1,0,0,0,1,0,0,0,1,0,0,0,0,0.5,0,1.3,0,0,0,0,0,0,0,0,0,0
339.4,"PARK HQ HN-151","HaleNet","HaleNet","MA",2120,20.75980556,-156.2481667,NA,NA,NA,NA,NA,0,0,0,0,0.762,0,0,0.508,0,0,0,0,0,0.254,0,0,0,0,0,0,0,0,0,0,0,0,0,0,0,0,0
339.5,"NENE NEST HN-152","HaleNet","HaleNet","MA",2590,20.73819444,-156.2458333,NA,NA,NA,NA,NA,0,0,0,0,0,0,0,0,0,0,0,0,0,0.254,0,0,0,0,0,0,0,0,0,2.15100113582369,0,0,0,0,0,0,0
339.6,"SUMMIT HN-153","HaleNet","HaleNet","MA",2990,20.71036111,-156.25675,NA,NA,NA,NA,NA,0,0,0,0,0,0,0,0,0,0,0,0,0,0,0,0,0,0,0,0,0,0,0,2.37179850725717,0,0,0,0,0,0,0
348.5,"WestWailuaikiRainGagenrKeanae","USGS","USGS","MA",472.44,20.81436111,-156.1429722,NA,"WWKH1","DD5E710A",NA,NA,2.0319999999997,2.83856662801858,7.92243127848607,10.1599999999999,5.30099716797575,0.589953360455232,6.85800000000017,0.762000000000171,0,4.826,5.588,4.318,1.778,6.82270767246322,6.35,3.302,8.06269592622082,NA,6.20844335696575,NA,17.6810466559441,41.4601746642504,30.9232813928925,8.59965963150999,NA,1.76127700524444,0.393302240303488,5.20696314596024,4.32632464333802,1.78744470265762,6.09599999999995
353,"Hana AP","NWS","HydroNet-UaNet","MA",19,20.7946,-156.0157,"USC00511125","HNAH1","B150314C",NA,NA,0,3.55600000000049,3.30199999999968,2.03200000000015,0.762000000000171,1.26999999999953,1.52400000000034,0.253999999999451,0,1.52400000000034,2.28600000000006,3.04799999999977,1.01600000000008,NA,0,1.26999999999998,5.07999999999993,0.508000000000266,NA,5.08000000000038,NA,NA,NA,2.79399999999941,4.82600000000002,1.01599999999962,0.508000000000266,7.62000000000035,1.52399999999989,0.762000000000171,0.253999999999905
361.1,"Lahainaluna","NWS","HydroNet-UaNet","MA",238.0488,20.8909,-156.6556,NA,"LAHH1","81700366",NA,NA,0,0,0,0,0,NA,0,0,0.254000000000019,0.507999999999925,0.254000000000133,0,NA,0.76199999999983,0,0,0,0,NA,0,NA,NA,NA,0,0,0,0,0,0,0,0
380,"PuuKukuiRainGageatalt","BALDWIN PKRS","USGS","MA",1759,20.89083333,-156.6008333,"USC00514887","PKKH1","DD73556E",NA,NA,0.253999999999905,2.89086413540305,1.18416280088788,3.55600000000049,5.39866228381302,3.30200000000059,5.26547205164207,0.761999999999716,0.133516135649089,4.75553763409912,0.761999999999716,3.80097085807515,2.03200000000015,2.53999999999996,0.507999999999811,0.253999999999905,8.21124234242195,1.18416280088788,1.77624420133182,7.69705820577121,7.10497680532727,1.77624420133182,1.18416280088788,7.69705820577121,17.1703606128742,1.7937266212861,5.58799999999974,6.85799999999927,2.03200000000015,0.253999999999905,0.761999999999716
386.6,"Wailuku","NWS","HydroNet-UaNet","MA",146.9136,20.8831005,-156.5124,NA,"WUKH1","9321D776",NA,NA,0,0,0.507999999999811,0.25400000000036,0,NA,0.253999999999451,NA,0,0,0,0,0,NA,0,0,0,0,NA,0,NA,NA,NA,0,0,0,0,0,0,0,0
387.6,"Maui HI US AR427-AH6GR ","unknown","APRSWXNET","MA",233.76,20.875,-156.516,NA,"AR427",NA,NA,NA,NA,NA,0.254000008106232,0.254000016212464,0,0,0.76199996471405,0.7619999694281,NA,NA,NA,NA,NA,0,NA,NA,NA,NA,NA,NA,NA,NA,NA,NA,0,0,NA,NA,NA,NA,NA
390.4,"Waikapu Country Club","NWS","HydroNet-UaNet","MA",145.9992,20.8346996,-156.5135,NA,"WCCH1","9320E016",NA,NA,NA,NA,NA,NA,NA,NA,NA,NA,NA,NA,0,0,0,NA,NA,NA,0,0,NA,NA,NA,NA,NA,0,NA,NA,NA,NA,NA,NA,0
398,"KAHULUI AIRPORT","NOAA-NWS","NWS","MA",12,20.8887,-156.41,"USW00022516","PHOG",NA,NA,NA,NA,0,0,NA,NA,0,NA,NA,NA,NA,NA,0,0,0,0,0,0,0,0,0,0,0,0,0,0,0,0,0,0,0,0
426.6,"Pukalani","NWS","HydroNet-UaNet","MA",495.9096,20.8355007,-156.3307,NA,"PUKH1","15D2B52E",NA,NA,NA,0,0,NA,NA,0,NA,NA,NA,1.01600000000008,NA,NA,NA,0,NA,NA,0,0,NA,NA,NA,NA,NA,0,0,0,0,0,0,NA,NA
432.4,"Makawao AP834-KH6HHG","unknown","APRSWXNET","MA",473.95,20.855,-156.315,NA,"AP834",NA,NA,NA,0,2.03200006484985,1.01599979400635,0.25400006771088,8.10623201896732e-09,NA,NA,0,NA,NA,0,NA,NA,NA,NA,NA,NA,NA,NA,NA,NA,NA,NA,NA,NA,NA,NA,NA,NA,NA,NA
457.1,"PUUKOLII 457.1","COOP","COOP","MA",128,20.93194,-156.67611,"USC00518407",NA,NA,NA,NA,0.491089454775271,NA,2.11546226672425,1.05773113336212,0.755522238115802,0.18888055952895,0,0.944402797644752,0,0.302208895246321,1.24661169289107,0.3,0,NA,0,0,NA,0.755522238115802,3.8,1,0,1.24661169289107,0.3,0.755522238115802,NA,0.566641678586852,0.491089454775271,0.566641678586852,1.81325337147792,1.62437281194897,0.755522238115802
462.4,"KAPALUA W.MAUI AIRPORT 462.4","KAPALUA W.MAUI AIRPORT 462.4","NWS","MA",73,20.9625,-156.6753,"USC00513317",NA,NA,NA,NA,0.23434265103303,0,3.02842810565762,0.982829782454014,0.691272570512886,0,0,0.450658944294288,0,0.216316293261258,0.937449260910613,0.66856064539021,0,0.305053733332262,0,0,NA,1.03738079644029,3.47864462270384,0.952145613643034,1.1572954926433,1.78460941940538,0.369307097348655,1.08158146630629,NA,1.23413784433571,0.351513976549545,0.91245120597813,1.19632521523646,0.825293996639423,0.616031651833016
466,"MAHINAHINA 466","PIONEER MILL","COOP","MA",257,20.94678808,-156.6555055,"USC00515715",NA,NA,NA,NA,1.3,NA,5.6,2.8,2,1,0,2.5,0,0.8,3.3,2,0,0.55652520701432,0,0,NA,2,6.4,1.8,1.78088066244582,3.3,0.794152666500381,2,NA,1.5,1.3,1.5,4.8,4.3,2
482,"WAIHEE VALLEY 482","WAILUKU SUGAR","COOP","MA",91,20.94012106,-156.5255102,"USC00519315",NA,NA,NA,NA,0,0,NA,0.73015458152799,0.48676972101866,0,0,0,0,0,0.146030916305598,0.8,0,0.5,0,0,NA,1.60634007936158,2.48252557719517,0.5,2.5,NA,0.5,NA,NA,3.8,0,0,0,0,0.24338486050933
482.5,"Kahakuloa","Kahakuloa","HydroNet-UaNet","MA",335.28,20.9540997,-156.5342,NA,"KHKH1","781001B6",NA,NA,0.253999999999905,0.25400000000036,1.77799999999979,1.26999999999998,0.253999999999905,0,2.79399999999987,0,0,0,0.508000000000266,0.253999999999905,0,0,0,0,0,5.07999999999993,NA,1.26999999999998,NA,NA,NA,6.34999999999991,0,NA,0,0.507999999999811,0,0,0
484,"WAIEHU CAMP 484","WAILUKU SUGAR","COOP","MA",98,20.91623388,-156.5088444,"USC00519275",NA,NA,NA,NA,0,0,NA,0.558040417770743,0.372026945180495,0.248017963453663,0,0,0,0,0.111608083554149,0.611421670849955,0,0.377082744730859,0,0,NA,1.22768891909563,1.89733742042052,0.5,2.14583258528064,NA,0.382138544281222,NA,NA,1.78695071893109,0,1.19048622457758,0.613844459547817,0.0930067362951238,0.186013472590248
486.7,"HAIKU 3.2 SE","HAIKU 3.2 SE","CoCoRaHS","MA",416,20.92011989,-156.3071849,"US1HIMI0001",NA,NA,NA,NA,0,0,10.0624372973925,1.5,1,2,NA,0,0,0,0.3,2.61860760254124,0,1,0,0,NA,3.3,5.1,1.5,6.4,5.92965055024917,1.02717974929429,3.59372760621162,NA,1.8,1.16796147201878,6.4,3.3,0.5,0.5
489,"Haiku","NWS","HydroNet-UaNet","MA",99.3648,20.9288998,-156.3225,"USC00510822","AIKH1","50A30568",NA,NA,0,5.08000000000001,NA,1.01599999999999,1.01599999999999,1.524,0,0,0,0,0,0.254000000000019,0,0.253999999999991,0.254000000000019,0.507999999999981,2.79400000000001,4.57199999999997,NA,3.048,NA,NA,NA,NA,5.84200000000001,1.52399999999994,1.27000000000004,7.11199999999997,0.253999999999991,0.996327046758939,0.762000000000029
499.9,"KANELOA","RAWS","RAWS","KO",248.412,20.52222222,-156.5658333,"USR0000HKAN","KAOH1","32793370",NA,NA,0,0,0,0,0,0,0,0.253999999999991,0,0,0,0.254000000000019,0,0,0,0,0,0,NA,0,NA,NA,0,0,0,0,0,0,0,0,0
524,"MOLOKAI KAUNAKAKAI MOLOKAI AIRPORT","ALOHA AIRLINES","NWS","MO",141,21.15514996,-157.0924625,"USW00022534","PHMK",NA,NA,NA,0,0.3,2.5,0.8,0,0,0,0,0,0,0,0,0,0,0,0,0,0,0,0,0,0,0,0,0,0,0,0,0,0,0
536.5,"Kaunakakai Mauka","MOLOKAI GEN HOSP","HydroNet-UaNet","MO",28.3464,21.0946007,-157.0174,NA,"KACH1","50A0F2E2",NA,NA,NA,NA,0,0,0,NA,NA,NA,NA,NA,NA,0,NA,NA,NA,NA,NA,0,NA,NA,NA,NA,NA,0,0,0,NA,NA,NA,NA,0
536.6,"KAUNAKAKAI 3.5 ESE","KAUNAKAKAI 3.5 ESE","CoCoRaHS","MO",13,21.068,-156.963,"US1HIMI0002",NA,NA,NA,NA,0,0,NA,NA,NA,NA,0,0,0,0,0,NA,0,0,NA,0,0,NA,0,0,0,0,0,NA,NA,NA,0,0,NA,0,NA
538,"MOLOKAI 1","RAWS","RAWS","MO",833.0184,21.115,-156.9475,"USR0000HMLK","MLKH1","487016AC",NA,NA,0,0.508000000000152,1.01599999999996,0.761999999999944,0,0,0,0,0,0,0,0,0,0,0,0,0.254000000000019,0,NA,1.26999999999998,NA,NA,NA,NA,0,0,0,0,0,0,0
541.2,"Puu ALII WEST","Puu ALII WEST","RAWS","MO",1159.764,21.14083333,-156.9022222,NA,"PAFH1","32D6062E",NA,NA,0,2.54000000000008,0.75091386261588,4.57199999999989,6.09600000000012,0.762000000000057,5.58799999999997,2.03199999999993,0.253999999999905,3.30200000000013,2.03199999999993,2.03200000000015,0.507999999999925,3.55599999999993,0.508000000000152,1.77800000000002,10.4139999999999,NA,1.12637079392382,NA,4.50548317569528,1.12637079392382,0.75091386261588,4.88094010700322,NA,1.52399999999989,0.508000000000038,6.34999999999991,5.58799999999997,3.30200000000013,0.508000000000038
550.3,"MAUNALOA 3.2 NNW","MAUNALOA 3.2 NNW","CoCoRaHS","MO",93,21.1804,-157.2319,"US1HIMI0006",NA,NA,NA,NA,0,0,4.1,3.3,0,0,0,0,0,0,0,0,0,0.8,0,0,0,0,0,0,0,0,0.8,0,0,0,0,0,0,0,0
553,"MAKAPULAPAI","RAWS","RAWS","MO",22.86,21.20333333,-156.9661111,"USR0000HMAK","MKPH1","FA9024CE",NA,NA,NA,NA,NA,NA,NA,0,2.2860107421875,0.76202396796875,2.5400390625,0.25396728515625,0.508056640625,NA,NA,1.7779541015625,NA,NA,1.01605224609375,NA,NA,NA,NA,NA,NA,NA,NA,NA,NA,NA,NA,NA,NA
563,"KALAUPAPA 563","CIVIL AIR PATROL","COOP","MO",9,21.19014673,-156.9824624,"USC00512896",NA,NA,NA,NA,NA,NA,NA,NA,NA,NA,0.3,0.5,NA,NA,NA,NA,NA,0.5,0.5,0,NA,NA,NA,2.3,1.8,2.3,0.3,NA,NA,NA,NA,0,0.8,0.8,NA
679,"LANAI 1","RAWS","RAWS","LA",387.096,20.87333333,-157.0063889,"USR0000HLAN","LNIH1","48702336",NA,NA,0,0,0,0,0,0,0,0,0,0,0,0,0,0.254000000000019,0,0,0,0,NA,0,NA,NA,NA,1.01599999999996,0.762000000000029,0,0,0,0.762,0,0
702.7,"Kapolei-Kalaeloa AP","NWS","NWS","OA",15,21.31667,-158.06667,"USW00022551","PHJR",NA,NA,NA,0,0,0,0.3,0,0,0.3,0,0,0,0,0.8,0.8,0.5,0,0,0,0,0,0,0,0,0,0,0,0,0,0,0,0,0
703,"HONOLULU INTERNATIONAL AIRPORT","USWB","NWS","OA",2.1,21.324,-157.9294,"USW00022521","PHNL",NA,NA,NA,0,0,NA,0.5,NA,0.3,0.5,0,0,0,NA,0.3,0,0,0.5,0,0,0,NA,NA,0,0,0,0,0,0,0,0,0,0,0
703.1,"HONOLULU FIRE STATION 703.1, HI US","COOP","COOP","OA",1,21.3287,-157.9298,"USC00511925",NA,NA,NA,NA,0,0,0.5,1.02475605818958,1.3,0.3,1.3,0,0,0,0.3,0.3,0.305681582609429,0,1.5,0,0,0.305681582609429,0.3,1.48556512290065,1.83408949565658,0.860481812900248,0,0,0,0,0,0,0,0,0
705,"BERETANIA PUMP STN 705","BWS","COOP","OA",6,21.305169,-157.8522571,"USC00510211",NA,NA,NA,NA,0,0,6.1,3,0.5,2.32280738641922,0.5,0,0,0.3,1.5,0.8,0,0.5,0.885946953115623,0,0.3,0,1.3,2.8,1,0,0.5,0,0.3,0,0,0,0,0,0
707.2,"EWA KALAELOA AIRPORT","LYDECKER RC","STATE","OA",14,21.30489073,-157.8305905,"USW00022551",NA,NA,NA,NA,0,0,0,0.3,0,0,0.3,0,0,0,0,0.8,0.8,0.5,0,0,0,0,0,0,0,0,0,0,0,0,0,0,0,0,0
707.5,"HONOLULU 2.0 SW","CoCoRaHS","CoCoRaHS","OA",12,21.3004,-157.8293,"US1HIHN0023",NA,NA,NA,NA,0,0,3,1.3,1.5,2.3,0.8,0,0,0,4.6,1.3,0.5,0,1,0,0,0.5,0.5,2,3,1.3,0.5,0.8,1.5,0,0,0,0,0.3,0
712.1,"MANOA 712.1","BEAUMONT MRS J","COOP","OA",61,21.31044568,-157.8147571,"USC00516122",NA,NA,NA,NA,0,0,6.6,4.6,6.4,5.3,4.3,0,0,0.5,5.6,7.9,0.3,0,6.1,0,0,2.3,3,6.6,7.9,7.6,1.3,5.8,5.1,0.5,0,0,1,0,0
713,"UNIV OF HAWAII 713","UH MET DEPT","COOP","OA",24,21.29933514,-157.8167017,"USC00518815",NA,NA,NA,NA,0,0,3,2,2,3.8,1,0,0,0,5.6,2.9717552661983,0.5,0.3,2.5,0,0,0.3,1.3,1.3,3.8,2.23335758280263,1.3,1.5,2.3,0,0,0,0,0,0
715,"WAIALAE KAHALA","TINKER SPENCER","COOP","OA",15,21.27433592,-157.7880917,"USC00519185",NA,NA,NA,NA,0,0,0.5,0,2.8,1.3,0,0,0,0,1.8,1,0,0,0,0,0,0,0,0.3,3.21705310586544,3.3,0.5,1.8,0,0,0,0,0,0,0
718,"PALOLO VALLEY 718","BWS","COOP","OA",302,21.32183297,-157.7717015,"USC00517664",NA,NA,NA,NA,0.0817710750327056,2.8,4.8,10.9538094523925,9.4,5.1,3.8,2.40855734401695,1.31385890880645,20.9349893186441,3.96572064407452,13.2454686055716,2.01513222580782,10.1033224304675,6.08433213753006,1.80198614361351,3.40521164211427,3.8561733032392,13.6891743016801,7.17314316203689,14.4077943598843,0.39647647035266,9.73290819097084,17.5807937183222,9.16873170532258,0.417788366160817,0.272570250109019,11.5658779010887,5.22067187190543,0.0817710750327056,0
720.6,"HONOLULU 2.7 SSE","CoCoRaHS","CoCoRaHS","OA",113,21.285,-157.7816,"US1HIHN0010",NA,NA,NA,NA,0,0,1,2.3,7.9,0,7.1,0,0,0,3.8,2,0,0,0.5,0,0,0,1.3,1,5.1,0,1.8,0.5,0,0,0,0.3,0.3,0,0
721,"WILHELMINA RISE 721","BWS","COOP","OA",335,21.29766804,-157.7853133,"USC00519980",NA,NA,NA,NA,0,1.3,2.5,5.3,4.1,3.3,2,0,1.5,5.1,2.5,2.5,0,4.3,0,0.3,1.5,0.5,3.3,5.6,4.6,0,4.6,4.3,1.3,0,0,0.3,1.8,0,0
721.4,"Palolo Fire Stn","NWS","HydroNet-UaNet","OA",59.436,21.2996006,-157.7944,"USC00517662","PFSH1","19014414",NA,NA,0,1.26999999999998,4.31799999999976,4.57200000000012,4.31800000000021,3.04799999999977,1.27000000000044,0,1.26999999999998,3.30199999999968,3.55600000000004,2.53999999999996,0.253999999999905,4.06399999999985,0,0,1.01600000000053,0.253999999999905,NA,3.80999999999995,NA,0,NA,3.55600000000004,1.52400000000034,0,0,0,0.761999999999716,0,0
721.5,"Honolulu HI US AU956-KH6CTR ","unknown","APRSWXNET","OA",111.96,21.298,-157.792,NA,"AU956",NA,NA,NA,NA,0.254000008106232,0.254000016212463,2.03200008106231,1.27000004577636,1.01599991321564,1.01600003713898,NA,0.254000008106232,2.28599996185303,1.77799965286255,NA,NA,NA,NA,NA,NA,NA,NA,NA,NA,NA,NA,NA,NA,NA,NA,NA,NA,NA,NA
723.4,"PAIKO DRIVE 723.4","GRUBB DL","COOP","OA",3,21.28172556,-157.7282194,"USC00517540",NA,NA,NA,NA,0,0,3.6,1.8,0,1.8,0,0,0,0,0,0,0.3,0,0,0,2,0,0,0.8,4.1,0,2,0,0,0,0,0,0,0,0
723.8,"Niu Valley","NWS","HydroNet-UaNet","OA",19.812,21.2896996,-157.7332,"USC00516865","NIUH1","1900D38C",NA,NA,0,1.77800000000002,2.79399999999998,6.35000000000002,1.26999999999987,0.254000000000019,0.762000000000057,0.253999999999905,0,0.508000000000038,0.762000000000057,0,0,1.26999999999998,0,0.253999999999905,2.03200000000015,0.507999999999925,NA,2.03200000000004,NA,NA,NA,2.28599999999994,0,0,0,0,0.254000000000019,0,0
724.21,"Kamehame","NWS","HydroNet-UaNet","OA",242.316,21.3085995,-157.6791,NA,"KMHH1","190046EE",NA,NA,0,0.508000000000266,1.01600000000008,3.04799999999977,0.508000000000266,0.253999999999451,0.25400000000036,0,0,0.38802383448524,0,0.253999999999905,0,2.53999999999996,0,0,0.508000000000266,0,NA,0.253999999999451,NA,NA,NA,1.52399999999989,0,0,0,0,0,0,0
728.2,"PALEHUA","RAWS","RAWS","OA",722.376,21.385,-158.1041667,NA,"PLHH1","4870F55E",NA,NA,0,0,3.30199999999996,5.33400000000006,0.762,0.253999999999962,0.254000000000019,0,0,0,0.253999999999962,2.7940000000001,0.761999999999944,2.03200000000004,0.253999999999962,0.507999999999981,1.26999999999998,0.507999999999981,NA,0.761999999999944,NA,NA,NA,0.508000000000038,0.254000000000019,0,0,0,2.03199999999993,0.508000000000038,0
734.5,"HONOULIULI STREAM TRIBUTARY NEAR WAIPAHU 4WNW","NWS","STATE","OA",195.72,21.4019,-158.067,NA,"HOUH1","DD7ED01C",NA,NA,0,0,0,0,0,0,0,0,0,0,0,0,0,0,0,0,0,0,0,0,NA,NA,NA,0,0,0,0,0,0,0,0
742.4,"HONOULIULI PHB","FWS","RAWS","OA",1.524,21.35666667,-158.0205556,NA,"HOFH1","327BF39A",NA,NA,0,0,0.787241997775344,2.03200000000038,0.253999999999678,0,0,0,0,0,0,0.254000000000133,0,0,0,0,0.254000000000133,0,0,0,0,0,0,0,0,0,0,0,0,0,0
752.6,"WAIAWA PHB","FWS","RAWS","OA",1.524,21.38694444,-157.9811111,NA,"WWFH1","3274C092",NA,NA,0,0,2.53999999999999,4.82600000000002,0.507999999999996,0.507999999999996,0.253999999999991,0,0,0,0.522045835919048,2.54000000000001,0,0.50800000000001,0.253999999999991,0,0,0,1.21818783422616,0.507999999999996,0.937067564789356,0,0.468533782394678,0,0,0,0,0,0,0,0
764.6,"AIEA HEIGHTS 764.6","G FOWLER","COOP","OA",238,21.39488776,-157.91031,"USC00510123",NA,NA,NA,NA,0,0,7.9,5.3,5.6,1.8,5.8,0,0.3,0,3.3,7.9,5.6,0.3,12.7,0,0.3,2.8,3.3,9.7,2.8,7.6,1,1.5,1.8,0.8,0,1.8,1,1.3,0
764.7,"AIEA 0.7 ENE","CoCoRaHS","CoCoRaHS","OA",175,21.393,-157.9186,"US1HIHN0014",NA,NA,NA,NA,0,0,6.4,6.9,0.8,3.8,0,0,0,0,2.5,7.1,3.8,0.3,11.2,0,0,0.5,0.8,11.2,2.8,3.8,0,0.5,0.5,0,0,0,2.3,0.5,0
770,"MOANALUA 770","ROXBURGH J","COOP","OA",6,21.34794527,-157.8950332,"USC00516395",NA,NA,NA,NA,0,0,3.6,2,2,0,2.5,0,0,0,1.5,3.6,0.5,0,2,0,0,0.5,0.8,2.8,3,1.5,1,0,0.3,0,0,0,0,0,0
772.5,"Moanalua Stream","USGS","HydroNet-UaNet","OA",72.2376,21.3736,-157.8801,"USC00516400","MOAH1","1900B66A",NA,NA,0,3.55600000000004,5.84199999999998,7.36599999999999,2.03200000000004,4.572,2.53999999999996,0,0,4.3180000000001,8.38199999999995,10.9219999999999,0.762000000000057,5.33400000000006,5.33400000000006,0.253999999999905,0.762000000000057,2.53999999999996,6.51720457410825,3.80999999999995,6.37206561724065,2.16767611368401,4.64412191602791,2.28600000000006,1.01600000000008,0.253999999999905,0,1.524,1.26999999999998,0,0
773,"KAPALAMA 773","KAMEHAMEHA SCH","COOP","OA",188,21.33933391,-157.8567005,"USC00513268",NA,NA,NA,NA,0.5,0.3,4.99932140762373,3.1607352379349,3.23625206162253,2.20855348840384,5.1,0.3,0.8,0,4.09467948034875,5.41024169708009,2.5,0.214105182604319,7.9,0.3,0.07551682368763,1.06908262000345,1.79230753320645,9.1,6.6,1.5,1.30361344760217,1.07052591302159,1.65101403782172,0.201378196500347,0.3,0.3,0.5,0.3,0
775,"NUUANU RES 5 775","BWS","COOP","OA",125,21.339125,-157.835905,"USC00516933",NA,NA,NA,NA,0,2.8,3,6.6,4.3,3.6,2.3,1,0,11.7,3.6,10.2,0.5,7.6,6.6,0,1,1.5,10.4,6.9,9.4,0,5.1,7.4667317237622,7.78322819915583,0.3,0,4.93348463339778,1,0,0
777,"KALIHI RES SITE 777","BWS","COOP","OA",277,21.37516437,-157.8222555,"USC00512960",NA,NA,NA,NA,0,5.8,1.8,10.2,5.8,7.4,7.1,1,3.3,20.6052900805882,2.3,8.6,4.3,5.8,1.3,2.3,2.8,1.8,6.4,2,7.9,0.5,6.4,12.7,3.3,0.5,0,10.2000358995888,5.1,0,0
781.13,"KANEOHE 0.8 SW, HI US","CoCoRaHs","CoCoRaHs","OA",20,21.4039,-157.8017,"US1HIHN0027",NA,NA,NA,NA,0,0,3.3,2.5,NA,2.5,10.2,0,1.5,0.8,0.5,5.1,3.6,2,3.8,0.3,1.8,2,3.8,NA,3,4.8,0.5,5.8,5.3,3.6,0.5,2.3,0,1.5,0.5
782.3,"Nuuanu Upper","NWS","HydroNet-UaNet","OA",248.412,21.3502007,-157.8184,"USC00516938","NUUH1","156097FE",NA,NA,0,5.08000000000001,5.33399999999999,9.39800000000001,12.7,8.636,5.58799999999999,4.82599999999999,0,19.812,6.34999999999999,13.208,1.524,11.938,3.30200000000002,1.01600000000002,4.57199999999997,2.79400000000001,13.982189450059,6.60400000000001,13.6708043510598,0.336115175741028,9.96362653967452,18.034,15.748,0,0.253999999999962,9.90600000000001,7.87400000000002,0,0
783,"NUUANU RES 4 783","BWS","COOP","OA",320,21.35266525,-157.807534,"USC00516928",NA,NA,NA,NA,0,6.1,4.1,9.9,11.9,7.4,7.4,2.3,0,20.1,4.6,12.4,0.3,10.4,3.6,1.3,4.1,2.5,10.7,3.6,17,0.5,11.7,18.5,12.7,0,0.5,13.7,7.4,0,0
784,"PAUOA FLATS 784","BWS","COOP","OA",549,21.33516,-157.81058,"USC00517810",NA,NA,NA,NA,0.3,5.47126718668507,7.9,13.3910986450838,9.12535281918807,7.62101298996997,6.12499998201876,5.6,0.5,19.8826031842596,4.6,16.9109839334949,0.8,13.3836519952445,7.9,3.6,6.9,8.9,21.8,10.4,24.4,0.8,17.5,17.4800675732387,15.3505864653134,0.3,1,14.38339873242,6.80575135381176,0.3,0
785.11,"WAIHI STREAM NEAR HONOLULU 3NE","USGS","USGS","OA",108,21.3283,-157.801,NA,"WISH1","16EA459A",NA,NA,0,0,0,0,0,0,0,0,0,0,0,0,0,0,0,0,0,0,NA,0,NA,NA,NA,0,0,0,0,0,0,0,0
785.4,"Manoa Lyon Arbo","NWS","HydroNet-UaNet","OA",151.7904,21.3330002,-157.8024,"USC00516128","MNLH1",NA,NA,NA,1.3,0,6.27260469045639,11.6371694068379,11.8632940834178,8.63235076862975,5.56104289241019,0,5.3,6.4,6.09344938071671,17.1279149237302,6.4,5.1,7.39777114768417,2,2.5,4.62329691150496,18.3,10.7,16.5,0.437605139368704,15.2,7.6,20.5031079587077,3.8,1.3,7.6,5.96203555758471,0.0867805263434746,0
787.2,"Maunawili","NWS","HydroNet-UaNet","OA",127.1016,21.3509998,-157.7668,NA,"MAUH1","19007374",NA,NA,0.508000000000038,4.31799999999998,2.79399999999987,10.1600000000001,6.85799999999995,6.35000000000014,4.82599999999979,5.8420000000001,0,2.7940000000001,0.761999999999716,4.82600000000025,0,8.12799999999993,2.28600000000006,3.30199999999991,3.048,0.761999999999944,NA,1.52400000000011,NA,NA,NA,10.1600000000003,2.53999999999974,0,0,1.27000000000021,2.53999999999996,0,0
788.1,"PALI GOLF COURSE 788.1","C&C PARKS & RECR","COOP","OA",146,21.37183016,-157.7839226,"USC00517656",NA,NA,NA,NA,0.8,0,NA,NA,NA,2.61390168371413,8.88726572462806,0.8,2.5,NA,NA,NA,0.522780336742827,NA,3.6,0,2.61390168371413,4.00798258169501,5.7505837041711,3.3,7.14466460215197,1.3,1.74260112247609,3.13668202045696,NA,NA,0.8,4.3,1.3,1.5,0
788.2,"St Stephens Seminary","NWS","HydroNet-UaNet","OA",142.9512,21.3666992,-157.7786,NA,"STVH1","19005598",NA,NA,0,3.04799999999989,2.03200000000015,3.30199999999991,2.53999999999996,6.35000000000002,4.82600000000002,1.01599999999996,0.475632202177942,6.78631881554308,0.254000000000133,4.82600000000002,0,5.07999999999981,0.762000000000057,0.508000000000038,1.94081741829893,0.507999999999925,7.46490302337371,1.01599999999996,9.69044893506127,0.356116856755652,6.99261820196097,8.128,3.048,0,0,2.794,2.032,0,0.254000000000001
790.11,"Olomana Fire Stn","NWS","HydroNet-UaNet","OA",45.1104,21.3777008,-157.7507,"USC00517052","OFSH1","19011468",NA,NA,0,0.762,0.254000000000019,2.53999999999996,0.507999999999981,4.31800000000004,3.55599999999998,0,0,0,0,4.31799999999998,0,2.54000000000008,0,0.507999999999925,0.762000000000057,0,NA,0,NA,NA,NA,4.06400000000008,0.507999999999925,0,0,0,0.254000000000019,0.254000000000133,0
793.1,"WAIMANALO EXPERIMENTAL FARM","CoCoRaHS","CoCoRaHS","OA",38,21.3727,-157.725,"US1HIHN0022",NA,NA,NA,NA,0,0,0.8,0,0,1,1.5,0.3,0,0,0,0.8,0,1.3,4.3,0.8,0,0,2,0.5,0.5,0,0.8,1.5,0.5,0.3,0,0,0,0,0
793.2,"BELLOWS AFS AT WAIMANALO","NWS","STATE","OA",6.66,21.3667,-157.717,NA,"BELH1","B14036D2",NA,NA,0,0,0,0,0,0,0.507999999999981,0,0,0,0,0,0,1.27000000000004,0,0,0,0,NA,0,NA,NA,NA,0,0,0,0,0,0,0,0
795.1,"WAIMANALO EXP F 795.1","HAES","COOP","OA",18,21.33516407,-157.7105906,"USC00519523",NA,NA,NA,NA,NA,NA,NA,NA,NA,NA,NA,NA,NA,NA,NA,NA,NA,NA,5.6,0,0,0,2.8,0,0,0,2.8,0,2.5,0,0,0,0,0,0
795.3,"Waimanalo Nonokio","NWS","HydroNet-UaNet","OA",20.1168,21.3356991,-157.7116,NA,"WMLH1","224185AC",NA,NA,0,1.016,0.254000000000001,5.842,3.048,0,0,0.508000000000003,0,0,0,3.302,0,4.064,0.507999999999999,0,0,0.254000000000001,NA,0,NA,NA,NA,1.01599999999999,0,0,0,0,0,0,0
801.2,"WAIANAE BOAT HARBOR","NWS","STATE","OA",4.25,21.4503,-158.184,NA,"WBHH1","15D13434",NA,NA,0,0,0,0,0,0,0,0.253999999999905,0.253999999999905,0.254000000000019,0,NA,0,0.508000000000038,0,0,0,NA,NA,NA,NA,NA,NA,0,0,0,0,0,0,0,0
803.2,"WAIANAE VALLEY","RAWS","RAWS","OA",291.6936,21.48055556,-158.1552778,"USR0000HWVA","WNVH1","487005DA",NA,NA,0,0,1.77800000000002,3.55600000000004,0,0,0.254000000000019,1.01599999999996,0.254000000000019,1.26999999999998,0,0.761999999999944,0,1.01599999999996,0,0,0.254000000000133,2.03199999999993,2.15403698111016,4.82599999999991,NA,NA,NA,0,0,0,0,0,0,0,0
810.1,"WHEELER ARMY AIR FIELD 810.1","COOP","NWS","OA",255,21.48722,-158.02806,"USW00022508","WAFH1","B14101B2",NA,NA,0,2.53999999999996,3.55600000000004,5.07999999999993,0.253999999999905,1.01600000000008,1.77800000000025,0,0,0.253999999999451,2.03200000000015,6.09600000000046,0.253999999999451,2.28600000000006,0.762000000000171,0.507999999999811,3.30200000000013,2.28600000000006,NA,0.808127262041018,NA,NA,NA,0.253999999999905,1.52400000000034,0,0,0,1.01599999999962,0,0
828,"SCHOFIELD EAST","RAWS","RAWS","OA",381,21.49944444,-157.9933333,"USR0000HSCH","SCEH1","325AB384",NA,NA,0,0.762000000000171,8.38200000000006,10.922,1.26999999999998,3.30200000000013,4.57199999999966,0,0,7.36600000000044,11.8862474807929,15.4881406567907,2.28600000000006,7.36599999999999,10.1600000000003,1.77799999999979,4.82600000000002,8.12800000000016,NA,5.40283976399673,NA,NA,NA,6.09600000000046,7.36599999999953,0.25400000000036,0,0,5.84199999999964,0.508000000000266,0
834.14,"Pearl City HI US F9678-FW9678 ","unknown","APRSWXNET","OA",182.69,21.423,-157.952,NA,"F9678",NA,NA,NA,0,1.77799999713898,7.11199998855591,8.63599969100952,0.254000008106232,0.76199996471405,1.77799999713898,0,0,3.0479998588562,4.57200002670288,4.57200002670288,0.76199996471405,7.62000036239624,4.57200002670288,0.254000008106232,1.77799999713898,2.28600001335144,NA,5.33399976343445,7.36599969863892,0,0,1.01600003242493,0.508000016212463,0,0,0.508000016212463,2.28600001335144,0,0
837,"WAIAHOLE 837 ","OAHU SUGAR","COOP","OA",227,21.47016136,-157.8833636,"USC00518964",NA,NA,NA,NA,0,0,NA,NA,NA,NA,NA,8.9,2.5,NA,NA,NA,1.3,6.4,7.6,3.8,NA,NA,NA,1.3,2.5,NA,2.3,NA,NA,NA,0,2,4.6,8.4,NA
837.12,"WAIAHOLE STREAM NEAR KAHALUU 2N","USGS","USGS","OA",4,21.48194,-157.8458,NA,"WHSH1","162B784C",NA,NA,0,1.016,1.524,NA,0.762,0.508000000000003,3.048,1.524,0,3.81,2.286,5.588,0.254000000000005,3.81,1.016,3.302,0.508000000000003,2.54,NA,0.254000000000005,NA,NA,NA,3.302,3.302,0.254000000000005,0,0,2.794,0,0
837.5,"WAIHEE 837.5","COOP","COOP","OA",34,21.45167,-157.84889,"USC00519281",NA,NA,NA,NA,0,0,2.8,4.3,4.75864405988393,0.5,1.8,4.6,0.3,0.74787088427553,2.5,10.2,0,2.3,3,0.3,1.5,0.5,4.3,5.1,3,4.8,0.3,7.6,5.1,1.3,0.3,0,2.3,1.5,0
839.15,"Ahuimanu Loop ","NWS","HydroNet-UaNet","OA",74.0664,21.4319992,-157.8373,NA,"AHUH1","15CE7632",NA,NA,0.253999999999999,2.032,1.27,5.588,4.064,1.016,5.588,5.334,0.762,3.302,4.06400000000001,4.82599999999999,0,2.032,0.253999999999998,1.016,0.508000000000003,3.04799999999999,NA,0.762000000000008,NA,NA,NA,9.398,3.30200000000001,0,0,0.253999999999991,3.30199999999999,0,0
839.8,"Waihee Pump","USGS","HydroNet-UaNet","OA",64.3128,21.4463997,-157.8584,"USC00519286","WPPH1","195042AC",NA,NA,0,3.30200000000002,0.762000000000057,8.99554128901093,0.761999999999944,1.52400000000011,4.31799999999998,3.30199999999991,1.52400000000011,6.096,2.03199999999993,9.39799999999991,0,5.58800000000008,0,1.524,1.01599999999996,3.55600000000004,7.84790174740317,2.53999999999996,9.40463200357862,0.380351377395182,7.47119232191664,9.90599999999995,3.80999999999995,0,0,2.03199999999993,6.096,0,0
840,"KANEOHE BAY MCAS","USMC","NWS","OA",3,21.44404851,-157.7730876,"USW00022519",NA,NA,NA,NA,0,0.8,0.5,4.6,0,1,0,2.3,0.8,0,0,2.3,0,1.8,0,0,0.3,2,0.8,1.5,1,0,2.3,1.3,0,0,0,0,1,0,0
841.2,"KUAOKALA","S&PF","RAWS","OA",267.0048,21.57027778,-158.26,NA,"KKRH1","48710720",NA,NA,0,0,0,0.254000000000019,0,0,0,7.87400000000002,0,0.507999999999981,0,0.507999999999981,0,NA,0,0,0,0,NA,0.507999999999981,NA,NA,NA,0,0,0,0,0,0.253999999999962,0,0
841.3,"KAENA POINT 841.3","LOCKHEED BALLISTIC","COOP","OA",378,21.56322317,-158.2430755,"USC00512410",NA,NA,NA,NA,0,0,NA,NA,NA,NA,0.5,0,NA,NA,NA,NA,0.5,0.5,1,0,NA,NA,NA,1,1.8,3.3,0,NA,NA,NA,0,1.3,0.5,0,NA
842.1,"MakahaRainGage","USGS","USGS","OA",286.097472,21.50158333,-158.1801667,NA,"MKHH1","DD1423F8",NA,NA,0,0,1.524,4.572,0,0,0,0.253999999999998,0,0.254000000000005,0,1.56960050104238,0.761999999999993,1.77800000000001,0,0,0,2.53999999999999,2.54000000000001,3.048,NA,NA,NA,0,0,0,0,0,0,0,0
842.8,"MAKUA RANGE","RAWS","RAWS","OA",6.096,21.52861111,-158.2261111,"USR0000HMAR","MKRH1","3266B468",NA,NA,0,0,0.761999999999944,0.508000000000038,0,0,0,0.254000000000019,0,0,0,0,0.254000000000019,1.26999999999998,0,0,0,NA,NA,0.507999999999925,NA,NA,NA,0,0,0,0,0,0,0,0
842.9,"MAKUA RIDGE","RAWS","RAWS","OA",533.4,21.54277778,-158.1988889,"USR0000HMRG","MKGH1","3266C2F8",NA,NA,0,0.254000000000019,4.82600000000002,7.61999999999989,0,1.2700000000001,0.254000000000019,0,0,0,0.761999999999944,0.508000000000038,0,4.06399999999996,0,0.254000000000019,0.507999999999925,5.08000000000004,NA,3.81000000000006,NA,NA,NA,0.761999999999944,0.254000000000019,0,0,0,2.03200000000004,0,0
843.7,"DILLIINGHAM","RAWS","RAWS","OA",31.0896,21.57194444,-158.1986111,NA,"DLGH1","3278D278",NA,NA,0,0,0.507999999999981,3.048,0,0,0,1.01600000000002,0,0,0,0.762,0,0.507999999999981,0,0,0,0.254000000000076,NA,1.52400000000006,NA,NA,NA,0,0,0,0,0,0,0,0
858,"SCHOFIELD BARRACKS","RAWS","RAWS","OA",298.704,21.495,-158.0819444,"USR0000HSCO","SCBH1","3266A71E",NA,NA,0,0,3.80999999999995,4.82600000000002,0.253999999999905,0,0.762000000000057,0,0,0,0.253999999999905,1.77800000000002,0.508000000000038,0.508000000000038,0.508000000000038,0.253999999999905,0.762000000000057,2.03199999999993,2.01552673350702,5.58799999999997,NA,NA,NA,1.01600000000008,0.508000000000038,0,0,0,0.508000000000038,0,0
884.4,"PunaluuRainGageatalt","USGS","USGS","OA",73.152,21.55644444,-157.899,NA,"PNSH1","DD989652",NA,NA,0,3.55600000000004,8.38199999999961,18.5420000000004,4.31799999999976,2.28600000000051,10.9219999999996,1.52399999999989,0.762000000000171,7.36599999999999,2.79399999999987,7.62000000000035,1.52399999999989,14.9859999999999,3.30200000000013,1.77799999999979,2.53999999999996,19.8119999999999,11.3528342191323,7.11199999999963,14.7375069608068,0.541592519651812,10.6345701954842,12.7000000000003,6.34999999999991,0,0,3.80999999999949,7.11200000000008,0.508000000000266,0.253999999999905
885.6,"KUALOA RANCH 885.6","COOP","COOP","OA",25,21.53,-157.85028,"USC00514829",NA,NA,NA,NA,0,0,2.29657361746073,5.62509588315234,2.97317910817075,0.3,6.6,2.3,0.297030243725149,0.35678149298049,3.12935143484047,4.50945156329405,0.3,5.8,4.3,0.8,2,5.8,5.1,0.8,6.1,4.6,1.5,3.3,2.49258011030068,0.692495234508161,0.118639497234904,0,2,1.5,0
885.7,"OAHU FOREST NWR","RAWS","RAWS","OA",698.9,21.47747,-157.9369,NA,"OFRH1","8379F6FA",NA,NA,0,5.08000000000001,6.60399999999998,12.7,2.03200000000001,3.048,4.06399999999999,0.50800000000001,0.762,9.14399999999998,5.334,17.0932669172057,3.048,6.858,5.84199999999998,2.53999999999999,2.03200000000001,4.57200000000003,15.815395978493,10.16,18.2070700180303,0.762287444002286,13.5619442665869,3.55599999999998,2.286,0,0,1.524,5.84200000000001,0.253999999999991,0
886.1,"Waikane - Hakipuu Mauka","KUALOA RANCH","HydroNet-UaNet","OA",14,21.5084922,-157.8555853,NA,"HAKH1","16C69380",NA,NA,1.01600000000002,1.52399999999997,0.508000000000038,7.87399999999997,0.508000000000038,4.57199999999997,4.82599999999999,2.03199999999998,0,3.30200000000002,0.508000000000038,9.39799999999997,1.524,2.53999999999996,2.03200000000004,0.507999999999981,1.01600000000002,3.048,NA,2.53999999999996,NA,NA,NA,4.06400000000002,2.03199999999998,0.254000000000019,0.762,0.253999999999962,3.04800000000006,0,0.507999999999981
886.11,"KUALOA RANCH HAKIPUU 886.11, HI US","COOP","COOP","OA",74.04,21.51083,-157.86222,"USC00514828",NA,NA,NA,NA,0,0,3.07767905180523,4.72643568670089,NA,0.8,7.18403834642981,4.8,0.329751326979132,NA,2.7479277248261,11.2115451172905,2,6.4,2.3,1.3,1.8,3.3,8.4,0.3,9.7,3.8,1.48461076341984,5.53695930775683,5.60577255864524,1.42892241690957,0.329751326979132,0,2,1.58436233296797,0
886.4,"KahanaRainGageatalt","USGS","USGS","OA",28.956,21.54041667,-157.8825556,NA,"KNRH1","17B972EE",NA,NA,0.254000000000005,2.286,4.06399999999999,19.304,1.01600000000001,1.77800000000001,6.09599999999999,2.79400000000001,0.507999999999981,8.38200000000001,0.253999999999991,9.39800000000001,0.762,9.14400000000002,0.761999999999972,2.54000000000002,2.53999999999999,14.732,7.48820013943561,2.79399999999998,10.9562310017885,0.43326798436699,7.93991407886308,13.716,7.874,0,0.253999999999991,2.03200000000001,6.85799999999998,0,0.254000000000048
886.8,"Hakipuu Mauka","RILEY W","HydroNet-UaNet","OA",8.5344,21.5067005,-157.8547,"USC00510920","PTRH1","16C69380",NA,NA,1.01600000000002,1.52399999999997,0.508000000000038,7.87399999999997,0.508000000000038,4.57199999999997,4.82599999999999,2.03199999999998,0,3.30200000000002,0.508000000000038,9.39799999999997,1.524,2.53999999999996,2.03200000000004,0.507999999999981,1.01600000000002,3.048,NA,2.53999999999996,NA,NA,NA,4.06400000000002,2.03199999999998,0.254000000000019,0.762,0.253999999999962,3.04800000000006,0,0.507999999999981
886.9,"KUALOA RANCH HEADQUATERTERS 886.9","COOP","COOP","OA",7,21.5213,-157.8374,"USC00514830",NA,NA,NA,NA,0,0,1.56488945911633,3.8329506126595,2.02592967674412,1.5,5.1,2.3,0.613143624958079,0.243111561209295,2.13234578548673,3.0727485346614,0.3,2.77657246279614,6.9,0.3,1.5,2.3,3.3,0.5,4.1,4.3,1,1.8,1.69844864147023,0.471867518084749,0.206922057276025,0.822525198019319,1.5,0.5,0
892.2,"WAIMEA ARBORETUM 892.2","COOP / WB","COOP","OA",8,21.638859,-158.058759,"USC00519603",NA,NA,NA,NA,0,0,7.9,3,6.4,1.81885963104863,3.14348437674559,0.3,0.3,0.8,9.1,6.9,1.3,1.5,7.1,0.5,1.5,4.3,8.6,3,7.9,5.3,1,1.5,4.1,0.8,0,0,3,0.5,0
901.2,"KII KAHUKU 911","NWS","COOP","OA",7.6,21.6793,-157.945,"USC00514500",NA,NA,NA,NA,0,0,2.8,4.8,2,0,0,0,0,2,1,3,1.5,0.8,2,0.8,1.3,0.5,2,0.8,1,4.8,0.5,1,0,0,0,0.5,0.3,0,0
903.2,"LAIE 0.2 WNW","CoCoRaHS","CoCoRaHS","OA",2,21.65,-157.9287,"US1HIHN0002",NA,NA,NA,NA,0,0,2.3,4.3,3,0,2.3,0,0,0.5,1.5,2.8,1,0.3,1.5,0,1.3,0.5,2.3,1.3,0.3,1.8,0.8,2.3,2.3,0.3,0,0,1.5,0,0
903.4,"Laie HI US C5306-CW5306 ","unknown","APRSWXNET","OA",3.96,21.65,-157.929,NA,"C5306",NA,NA,NA,0,2.03200006484986,0.76199996757507,7.11199975485139,0.25399995994567,1.5239999294281,0.76200011335144,NA,0,1.01600003242493,1.01599994564057,NA,NA,NA,NA,NA,NA,NA,NA,NA,NA,NA,NA,NA,NA,NA,NA,NA,NA,NA,NA
904.1,"KAPAKA FARM 904.1","HON. FIRE DEPT","COOP","OA",1,21.60987636,-157.9100271,"USC00513208",NA,NA,NA,NA,0,0,2,6.6,2.5,0,2.5,0.3,0.3,0.3,3.6,0.8,0.3,4.8769345782606,2.8,0.3,0.8,0.3,3,0.8,2.8,3.3,0.5,4.3,0.8,0.3,0,0,0.8,0.3,0
905.22,"Punaluu Pump","NWS","HydroNet-UaNet","OA",3.9624,21.5842991,-157.8916,NA,"PUNH1","19051152",NA,NA,0,2.28599999999997,2.03200000000001,10.414,0.253999999999991,0.507999999999981,0.254000000000019,1.01599999999999,0,3.55600000000001,0.762,NA,NA,6.60399999999998,4.06400000000002,0,3.81,3.30199999999999,NA,4.57199999999997,NA,NA,NA,3.30199999999999,1.524,0,0,0,0.50800000000001,0.253999999999991,0
909,"KAHUKU TRAINING AREA","RAWS","RAWS","OA",181.6608,21.67916667,-157.9894444,"USR0000HKAH","KTAH1","325A861E",NA,NA,0.254000000000019,2.79399999999998,1.52399999999989,10.922,0.508000000000038,0.508000000000038,0.761999999999944,0,1.52400000000011,1.26999999999987,2.03200000000004,4.06399999999996,0,3.30200000000002,0.508000000000038,1.01600000000008,0.253999999999905,1.01599999999996,NA,1.524,NA,NA,NA,1.52399999999989,0.508000000000152,0,0,0,0.761999999999944,0,0
911.1,"KII","RAWS","RAWS","OA",1.524,21.68833333,-157.9525,"USR0000HKII","KFWH1","8375210E",NA,NA,0.508000000000038,1.77799999999996,0.508000000000038,7.87399999999997,0.254000000000019,0,0,0.253999999999962,0,0.507999999999981,0,2.54000000000002,0.507999999999981,4.31800000000004,0,0.253999999999962,0.254000000000019,0.253999999999962,NA,1.01600000000002,NA,NA,NA,1.01599999999996,0.254000000000019,0,0,0,0.253999999999962,0,0
912,"KAUHUKU 912","KUILIMA  GOLF","COOP","OA",4,21.695,-157.9811,"USC00512570","KAHH1","B1404042",NA,NA,0.507999999999811,1.52400000000011,0.253999999999678,6.09600000000023,0.508000000000038,0.507999999999811,0.508000000000266,0.508000000000038,0,1.01599999999962,0.254000000000133,1.52400000000011,0.761999999999944,4.82600000000002,0.761999999999944,0,0,0.508000000000038,NA,1.52400000000011,NA,NA,NA,0,0,0.253999999999678,0,0,0,0,0
926,"PORT ALLEN CAA AIRPORT","FAA","COOP","KA",9,21.89381249,-159.6010997,"USW0022526","PAKH1","B159A272",NA,NA,0,0,0.507999999999981,0,3.04800000000006,NA,0,NA,0,0,0.762000000000057,2.28599999999994,NA,0.253999999999905,1.01600000000008,0,2.79399999999998,1.26999999999992,NA,0.254000000000076,NA,NA,NA,0,0,0,0,0.253999999999905,0,0,0
927,"ELEELE 927","MCBRYDE SUGAR","COOP","KA",50,21.90353436,-159.5772088,"USC00510470",NA,NA,NA,NA,0,0,0,0,4.8,6.6,1,0,0,0,0,3,5.8,2.3,3.3,2.3,0,0,5.6,0.3,3.16574126544531,3.3,1.22161724577071,0,0,0.8,0,0,0,0,0
930,"WAHIAWA 930","MCBRYDE SUGAR","COOP","KA",66,21.89631087,-159.5572079,"USC00518941",NA,NA,NA,NA,0,0,0,0,4.8,6.1,1.8,0.5,0,0,0,4.6,7.6,2.8,4.3,1.3,0,0,9.7,0.8,3.8,6.9,1.3,0,0,3.8,0,0,0.3,0.3,0
931,"WEST LAWAI 931","MCBRYDE SUGAR","COOP","KA",64,21.89019743,-159.5172067,"USC00519955",NA,NA,NA,NA,0,0,0,0,14,7.1,2.01685658512375,1.8,2,0,0,9.1,11.4,1.3,8.05680403389971,3.3,0,0,10.7,2.5,4.6,13,2.3,0,0,1.97259376180498,0,0,1.5,1.11468168544066,0
936,"KOLOA 936","MCBRYDE SUGAR","COOP","KA",73,21.90686471,-159.4622057,"USC00514742",NA,NA,NA,NA,0.3,0.3,0,0,12.8265534016688,18.7153079324046,2.38758984686015,1.5,2.5,0,0,16.8,5.8,1.3,9.53778451644369,1.3,0,0,8.9,2,5.45301970009401,9.7,1,0,0,3.50278612203076,1.5,1.5,1,4.6,0
940.2,"KOLOA 2.1 SSE","CoCoRaHS","CoCoRaHS","KA",12,21.8788,-159.4518,"US1HIKI0020",NA,NA,NA,NA,0,0,4.3,0.98565120260732,4.8,3.5195554090545,4.3,1,2.8,0.5,0.8,4.34173006263746,3.024914783436,0.3,3.3,0,1.2318652456452,2,0.928967911381211,1,1.82306214286644,6.03404797351392,0.5,1.3,3.6,0,0,1.3,0,4.3,1.8
941.1,"MAHAULEPU 941.1","GROVE FARM","COOP","KA",24,21.90102957,-159.422207,"USC00515710",NA,NA,NA,NA,0,0.3,0,0,11.1621027308594,23.6,2.07776183634356,1.8,1.41199372885408,0,0,9.1,4.1,0,8.3001042652264,0,0,0,5.3,1.3,4.6,8.4,3.6,0,0,3.0482435393166,0,2.5,0,8.9,0
946,"WAIMEA HTS","RAWS","RAWS","KA",159.7152,21.96638889,-159.6638889,NA,"WHGH1","487090B8",NA,NA,0,0,0,1.00192762872989,1.01599999999996,2.03200000000004,1.25240953591231,0.508000000000038,NA,0.876686675138642,0.125240953591186,0.254000000000019,0.253999999999962,0.762,0.375722860773728,0,0.125240953591186,0.253999999999962,NA,0,NA,NA,NA,0,0,0,0,1.01600000000008,0,0,0
946.1,"WAIMEA TANK AT WAIMEA","NWS","unknown","KA",70,21.964722,-159.666944,NA,"WMTH1","1900E616",NA,NA,NA,NA,NA,NA,0.762000000000171,1.77800000000002,NA,0.507999999999811,NA,NA,NA,0.508000000000038,NA,1.77800000000002,NA,NA,NA,NA,NA,NA,NA,NA,NA,NA,NA,NA,NA,1.01600000000008,NA,NA,NA
965,"MAKAWELI 965","OLOKELE SUGAR","COOP","KA",43,21.91909048,-159.6272113,"USC00515864",NA,NA,NA,NA,0.399652451635144,0,0,0,5.21560250538346,4.97933910724633,1.23808023321866,0.255878391699366,0,0,0,3.93276952758008,1.3,2.08893383947037,0.8,1.9447564889231,0,0,6.05265839936577,0.3,2.87097394757893,5.40886828591371,1.0911535524256,0,0,1.81636316831471,0.0799304903270288,1,0.124752058501889,0.684265490791091,0
966.4,"Hanapepe","NWS","HydroNet-UaNet","KA",110.6424,21.9365005,-159.5866,NA,"HNPH1","156011EA",NA,NA,0,0,1.524,0.762,NA,2.54,0,0,0,0,0,4.572,0.253999999999998,0.508000000000003,2.032,0,0.253999999999998,0,NA,0,NA,NA,NA,0,0.253999999999998,0,0,0.508000000000003,0,0,0
985,"BRYDESWOOD STA 985","MCBRYDE SUGAR","COOP","KA",220,21.92519845,-159.5338717,"USC00510240",NA,NA,NA,NA,2.5,0,0,0,16,10.3826443177353,3,0.8,0,0,0,8.20039493375114,15.2,4.3,10.3127109502453,5.8,0,0,11.9,5.6,5.89606694050486,11.278274960706,1.8,0,0,2.52492045259605,0.5,0,0.3,3.8,0
986.2,"Kalaheo","KUKUILONO GOLF COU","HydroNet-UaNet","KA",263.0424,21.9183006,-159.5265,NA,"KHEH1","1560740C",NA,NA,0.254000000000133,1.52399999999989,5.33400000000006,0,13.2080000000001,4.31799999999998,2.03199999999993,0.254000000000133,0.254000000000133,4.57199999999989,3.30199999999991,9.90599999999995,13.462,3.67613975561676,6.47211808539279,1.01599999999985,0,6.096,11.0597117479145,2.54000000000019,NA,NA,1.6728975753148,5.07999999999993,3.30200000000013,0,0,0.507999999999811,0.254000000000133,2.53999999999996,0
992.1,"Omao","NWS","HydroNet-UaNet","KA",99.9744,21.9071007,-159.4768,"USC00517116","OMAH1","195001A6",NA,NA,0,2.7940000000001,2.82601240562656,0,7.36599999999999,8.38200000000006,4.57199999999989,2.7940000000001,0.253999999999905,4.06399999999985,4.06400000000008,14.732,4.57200000000012,3.55600000000004,6.85799999999995,0.762000000000171,NA,4.56511015013245,NA,3.048,5.79850146824847,16.3870693667892,2.89925073412424,7.87400000000002,2.79399999999987,0,0,2.54000000000019,0,3.30199999999991,0
994,"KOLOA MAUKA 994","MCBRYDE SUGAR","COOP","KA",195,21.94833,-159.46694,"USC00514750",NA,NA,NA,NA,NA,NA,NA,NA,NA,47.5,NA,NA,NA,NA,NA,44.7,NA,NA,NA,NA,NA,NA,53.3,NA,NA,NA,NA,NA,NA,NA,NA,NA,NA,NA,NA
1006,"HALENANAHO 1006","GROVE FARM","COOP","KA",149,21.96491938,-159.4305374,"USC00511038",NA,NA,NA,NA,0.168925886238066,3,0,0,21.6673690075678,34.5,4.59500366467663,2.68181942841932,2.74089836808886,0,0,11.9,13.5179530939851,0.866511600224505,19.3665689489862,2.9317635452715,0,0,13,2.55017049207698,9.21156185512016,15.2459851475021,4.42563206351008,0,0,9.5064133223189,0.979128857716549,4.74874866074424,0.697585713986439,5.8,0
1013,"PUHI 1013","LIHUE PLANTATION","COOP","KA",101,21.96491954,-159.3972052,"USC00518217",NA,NA,NA,NA,0,1.3,0,0,16.1096367227588,25.9,2.99871710438286,1.5,2.03785134173383,0,0,11.4,10.050565599512,0.3,20.8,2.17975914172391,0,0,6.9,1.3,6.84877407512549,9.7,3.290446790602,0,0,4.39935890619652,0.3,5.1,0.3,7.6448574429357,0
1020.1,"LIHUE WEATHER SERVICE OFFICE AIRPORT 1020.1","LIHUE WEATHER SERVICE OFFICE AIRPORT 1020.1","NWS","KA",45,21.98156999,-159.3422063,"USW00022536","PHLI",NA,NA,NA,0.3,1,1,2.8,NA,3.8,NA,0.5,0,0,1,2.72157619263436,0.3,4.1,NA,0.5,1.8,0.5,0,0,1.8,NA,0.5,2,4.6493593290837,0,0,1.8,0,0.3,0
1020.6,"LIHUE 1.3 NE","CoCoRaHS","CoCoRaHS","KA",25,21.987,-159.338,"US1HIKI0009",NA,NA,NA,NA,0,1,2.8,0.3,5.1,1.3,7.6,1.8,1.3,0,2,4.50572106584146,5.3,0.3,10.9,0.3,1.5,3,0.5,0,1.5,5.6,1.5,2.3,4.3,0.5,0,1.8,0.8,1,0
1022.1,"LIHUE 1.2 NNW","CoCoRaHS","CoCoRaHS","KA",60,21.9923,-159.3586,"US1HIKI0002",NA,NA,NA,NA,0,1.8,5.6,0.8,9.41134284296563,4.92861434770108,5.28744586859874,0.5,2,1.07333178347298,1.40340043046368,6.1,2.91179462957794,0.3,8.4,0.5,1.5,4.30117745341978,0.5,0.5,1.3,8.4,3.6,2.8,5.1,0.5,0,4.3,0,1,0
1029,"MANA","RAWS","RAWS","KA",26.2128,22.02944444,-159.7622222,NA,"MNRH1","4870603C",NA,NA,0,0,0,0,0,0,0,0,1.77800000000002,0,0,NA,5.07999999999998,NA,0.508000000000038,0,0,3.048,NA,0,NA,NA,NA,0,0,0,0,0,0,0,0
1036,"PUU OPAE","RAWS","RAWS","KA",652.8816,22.04083333,-159.6958333,NA,"POPH1","4870734A",NA,NA,0,0,0,2.03200000000004,0.254000000000019,0.254000000000019,2.53999999999996,1.01599999999996,2.92523855288471,1.77800000000002,0.253999999999905,1.52400000000011,0.507999999999925,2.28600000000006,0.762000000000057,0,0.253999999999905,1.524,NA,0,NA,NA,NA,0,0,0,0,0,0,0,0
1042,"WaialaeRainGagenrWaimea","USGS","USGS","KA",1219.2,22.08972222,-159.5925,NA,"WLGH1","DDF7C28E",NA,NA,0,1.27,2.54000000000001,0,6.09600000000002,5.33399999999999,0.762,1.01600000000001,0.254000000000005,0.507999999999996,2.032,3.29495680563654,1.77800000000001,6.54774634063868,6.85799999999998,0,3.83841046518099,3.78509920872018,7.2503308786752,4.06399999999999,NA,NA,NA,0,0.254,0.254,0,0.508,0,1.524,0
1047,"Mt.WaialealeRainGagenrLihue","USGS","USGS","KA",1569.72,22.07088889,-159.4979722,"USC00516565","WLLH1","DD5E818E",NA,NA,5.24737758858805,48.26,NA,NA,37.338,64.7699999999999,30.7340000000002,28.4480000000001,NA,44.1960000000001,33.528,32.2579999999998,29.972,62.2300000000002,68.5799999999997,17.2720000000002,57.1500000000001,50.8,40.894,18.0339999999999,NA,NA,NA,64.2620000000002,32.0039999999997,4.06400000000031,8.12799999999993,14.2239999999999,6.34999999999991,44.9580000000001,4.06400000000008
1051,"NWailuaDitchRainGagenrLihue","LIHUE PLANTATION","USGS","KA",338.328,22.0625,-159.4677222,"USC00516888","WLDH1","1732B3E0",NA,NA,4.06400000000002,7.61999999999995,9.72003893735741,9.62706646022489,26.162,24.13,13.208,11.684,6.49017846759429,16.256,15.24,14.4779999999999,9.39800000000002,26.9240000000001,23.114,5.58799999999997,18.2879999999999,18.0340000000001,17.2719999999999,7.67089037782161,13.6570012575283,9.62706646022489,9.62706646022489,34.0360000000001,10.414,3.81000000000006,2.53999999999996,6.096,2.53999999999996,22.0980000000001,0.507999999999925
1059,"Lihue Variety Stn","NWS","HydroNet-UaNet","KA",117.0432,22.0240002,-159.3868,NA,"LIHH1","1561501A",NA,NA,1.01599999999999,3.55600000000001,2.03200000000001,2.03200000000001,NA,3.80999999999997,6.096,0.762,3.55600000000001,2.79399999999998,6.096,6.35000000000002,0.761999999999972,4.572,NA,0.253999999999991,3.81000000000003,3.048,NA,1.524,NA,NA,NA,4.31799999999998,5.84200000000001,0,2.286,4.31799999999998,0.50800000000001,4.57199999999997,0
1061.5,"Wailua UH Exp Stn","NWS","HydroNet-UaNet","KA",158,22.066,-159.3962,NA,"WUHH1","15C163D6",NA,NA,0.761999999999944,3.81000000000006,5.81230939782269,6.27165980000661,13.8213786019101,10.1901321115853,5.30478051603636,1.524,4.318,5.66205084632548,5.334,6.096,3.302,9.2417931173283,11.1616704454595,1.524,6.34076951967113,4.318,4.08460782135406,3.55458016138389,4.03178130000425,NA,1.11993925000118,14.4142887218684,10.414,0.507999999999981,0.50800000000001,2.03199999999998,3.81,9.14400000000001,0
1063.2,"KAPAA 2.7 SSW, HI US","CoCoRaHs","CoCoRaHs","KA",90.04,22.0593,-159.365,"US1HIKI0023",NA,NA,NA,NA,2.5,0.5,NA,3.6,15.7,8.1,9.9,1.8,2.5,NA,5.3,NA,2.5,1.3,19.6,0.5,4.3,6.1,2.8,NA,11.9,8.6,NA,4.3,8.6,NA,5.1,NA,NA,NA,NA
1063.3,"Kapaa HI US F0098-AH7L ","unknown","APRSWXNET","KA",122,22.071,-159.359,NA,"F0098",NA,NA,NA,0.254000137805942,3.81000012969971,4.06399990177155,NA,9.3979997634888,10.9220000839233,NA,1.01599997282028,NA,2.79399980735779,3.55600032234192,NA,NA,NA,NA,NA,NA,NA,NA,NA,NA,NA,NA,NA,NA,NA,NA,NA,NA,NA,NA
1065.2,"KAPAA 2.3 SW, HI US","CoCoRaHs","CoCoRaHs","KA",105.03,22.0721,-159.3767,"US1HIKI0026",NA,NA,NA,NA,0.3,0,5.8,NA,NA,NA,10.2,NA,1.8,3.8,3.3,6.1,4.3,2.3,23.6,3.6,2.5,NA,5.3,2,10.7,NA,3.8,5.1,NA,2.8,0.3,3,0.5,9.9,0
1065.3,"Kapaa HI US F9608-FW9608 ","unknown","APRSWXNET","KA",106.41,22.072,-159.376,NA,"F9608",NA,NA,NA,0.254000027179722,3.81000012969971,5.84199966049194,NA,NA,14.2239996839294,8.89000003051763,0.50799989700317,2.5399998588562,5.07999996185303,4.82599957466123,5.33400213105467,3.04799962043763,NA,NA,1.2700001001358,NA,3.30200028228759,5.07999978828431,NA,13.9699988351562,NA,5.0799992084503,NA,7.8740053176881,0.25399996948242,0.508000024318695,2.79399980735779,3.04800000810624,6.60399969100952,0
1069,"PUU LUA","RAWS","RAWS","KA",1021.08,22.08916667,-159.6791667,NA,"PLRH1","487083CE",NA,NA,0,0,0.762000000000057,1.524,0.762000000000057,0.76199999999983,0,4.3180000000001,2.53999999999996,0.254000000000019,0,2.03200000000015,0.253999999999905,3.30199999999991,0.508000000000038,0,0,1.26999999999998,NA,0.254000000000133,NA,NA,NA,0,0,0,0,0,0,0,0
1074,"MAKAHA RIDGE","RAWS","RAWS","KA",544.9824,22.13055556,-159.7152778,"USR0000HMAH","MKAH1","3286026C",NA,NA,0,0,0,0,0.254000000000019,0.253999999999905,0,0.508000000000038,1.26999999999998,0,0,0,0.254000000000019,4.31799999999998,0.254000000000019,0,0.508000000000038,1.01599999999996,NA,0,NA,NA,NA,0,0,0,3.30199999999991,0,0,0,0
1076,"Kokee","NWS","HydroNet-UaNet","KA",1279.2456,22.1485996,-159.6448,NA,"KOKH1","1900E616",NA,NA,0,0,0,0,0.762000000000171,1.77800000000002,0,0.507999999999811,0,0,0,0.508000000000038,0,1.77800000000002,0,0,0,0,NA,0,NA,NA,NA,0,0,0,0,1.01600000000008,0,0,0
1084,"KilohanaRainGafenrHanalei","USGS","USGS","KA",1219.2,22.15408333,-159.5946111,"USC00514610","KLOH1","DDCC972A",NA,NA,1.01599999999996,3.56872271506551,5.48095679709204,4.84099265390085,14.2525800052226,13.7813055983401,5.03632202256788,5.13750197989504,1.01600000000002,3.048,6.73175224770316,10.4913576126431,6.09599999999995,20.5448345254224,13.2254768983972,1.52400000000006,15.3940356132725,14.2796348222302,15.120503467996,6.16861867546525,13.7349093901373,9.68198530780169,9.68198530780169,11.4100542568479,3.69398259517486,0.254000000000019,0,0.761999999999944,0.508000000000038,3.55599999999993,0
1094.2,"Kapahi","NWS","HydroNet-UaNet","KA",158.496,22.1021004,-159.3856,"USC00513171","KPIH1","15608488",NA,NA,1.01599999999962,3.04800000000068,6.35000000000036,NA,16.0020000000004,9.39800000000105,4.5719999999983,1.52400000000125,4.82599999999911,3.81000000000131,6.572199875201,13.2080000000024,0.761999999998807,13.3458648693123,11.9379999999983,1.01600000000144,9.06511576028753,6.60399999999936,8.56149821804933,2.28599999999824,NA,NA,NA,16.8711876649797,8.0380780299229,0.761999999998807,1.52399999999943,4.31800000000112,1.01599999999962,6.09599999999955,0
1094.3,"KAPAA 1.4 W","CoCoRaHS","CoCoRaHS","KA",139,22.0936,-159.3758,"US1HIKI0005",NA,NA,NA,NA,0,1,3.8,3.30608783394846,20.3,11.4,4.8,1.5,4.3,3.3,1.8,9.7,2,3.3,16.5,1,2.8,10.9,3.88872053779636,1,6.1,17.3,9.7,7.6,10.6484797475421,1.8,0.5,2,0.8,8.9,0.8
1097.4,"KAPAA 1.9 WSW","CoCoRaHS","CoCoRaHS","KA",157,22.0829,-159.3786,"US1HIKI0019",NA,NA,NA,NA,1,0.5,5.1,5.1,23.1,14.5,8.6,4.1,4.6,3,1.8,9.7,2.8,2.3,16.3,5.3,2.8,7.4,4.8,1.5,7.6,15.7,7.4,3.8,10.5751992971913,6.1,1,3.3,1.5,11.4,0.8
1111.4,"Anahola","HAWN FRUIT PACKERS","HydroNet-UaNet","KA",75.2856,22.1373997,-159.312,NA,"ANHH1","1560029C",NA,NA,0.253999999999905,0,1.77800000000025,NA,4.31799999999976,NA,0.25400000000036,0,0.762000000000171,0,1.52399999999989,2.28600000000006,4.57199999999966,2.54000000000042,NA,0.507999999999811,2.53999999999996,NA,NA,2.28600000000006,NA,NA,NA,1.01600000000008,1.26999999999998,0,0,3.55600000000004,0,3.04800000000023,0
1116.1,"HANALEI 3.0 W, HI US","CoCoRaHs","CoCoRaHs","KA",10.457,22.2103,-159.5492,"US1HIKI0024",NA,NA,NA,NA,0.3,0.3,NA,NA,16.5,8.9,4.1,2.8,NA,0,5.3,5.8,NA,2,NA,NA,1.3,NA,4.6,NA,NA,NA,NA,9.1,NA,NA,0,0,1.3,2.5,0.3
1117,"PRINCEVILLE RANCH 1117","PRINCEVILLE RANCH","COOP","KA",90,22.213196,-159.4722008,"USC00518165",NA,NA,NA,NA,0,0,4.6,4.3,17.1723734751362,10.2,5.8,3.6,4.83404773766295,1.5,2.5,4.3,2.07412265713968,1.3,11.3524221564195,5.8,0.8,7.86578043869641,3.6,2.62953857746819,6.1,4.3,4.3,4.20007991585516,7.46103421300494,3.3,0,0.3,4.3,4.3,2.8
1117.9,"PRINCEVILLE AIRPORT NEAR KILAUEA 4W","NWS","STATE","KA",88.497,22.2114,-159.443,NA,"PRIH1","B15952F6",NA,NA,0,1.7780000000007,1.01599999999962,NA,10.6680000000006,7.8739999999998,NA,2.28600000000006,5.84199999999964,3.30199999999968,2.54000000000087,NA,5.84199999999964,1.52400000000034,6.34999999999991,1.77799999999979,5.33400000000029,5.84199999999964,NA,1.77799999999979,NA,NA,NA,5.33399999999938,8.12800000000061,0,0.253999999999451,3.8100000000004,0.253999999999905,3.55600000000004,0
1134.2,"KILAUEA 0.5 SE","CoCoRaHS","CoCoRaHS","KA",79,22.2057,-159.4048,"US1HIKI0006",NA,NA,NA,NA,0,0.3,2.5,2.8,14.2,6.1,6.6,3.8,6.9,2.3,1.89335984604724,5.1,2.30032537696091,0.8,5.8,4.3,2.5,7.9,5.1,5.8,2,11.0704352602603,6.43432614982089,2.8,10.4,4.3,0,1,4.8,4.8,0.5
1144.1,"ANAHOLA 2.8 N","CoCoRaHS","CoCoRaHS","KA",74,22.1869,-159.3236,"US1HIKI0021",NA,NA,NA,NA,0,0.3,2.3,1,11.5905436630414,5.3,2.3,1.93425789926953,0.5,0,0,0.8,1.8,0.3,6.1,2.5,1.3,4.3,0.8,1.3,2,9.61740848473926,4.1,0.8,3.8,1.5,0.5,1.3,1.8,1.8,0.8
1146,"Moloaa Dairy","RAWS","RAWS","KA",85.344,22.18333333,-159.3375,"USR0000HMOL","MLDH1","AAB6D15A",NA,NA,0,0,0,0,0,0,0,0,0,0,0,0,0,0,0,0,0,0,NA,0,NA,NA,NA,0,0,0,0,0,0,0,0
