"SKN","Station.Name","Observer","Network","Island","ELEV.m.","LAT","LON","NCEI.id","NWS.id","NESDIS.id","SCAN.id","SMART_NODE_RF.id","X2022.02.01","X2022.02.02","X2022.02.03","X2022.02.04","X2022.02.05","X2022.02.06","X2022.02.07","X2022.02.08","X2022.02.09","X2022.02.10","X2022.02.11","X2022.02.12","X2022.02.13","X2022.02.14","X2022.02.15","X2022.02.16","X2022.02.17","X2022.02.18","X2022.02.19","X2022.02.20","X2022.02.21","X2022.02.22","X2022.02.23","X2022.02.24","X2022.02.25","X2022.02.26","X2022.02.27","X2022.02.28"
3.9,"LOWER KAHUKU CS","LOWER KAHUKU CS","RAWS","BI",953.7192,19.10083333,-155.6697222,NA,"LKHH1","32D620C2",NA,NA,4.82600000000002,9.39799999999991,0.762000000000171,4.31799999999998,13.2080000000001,14.4779999999998,10.1600000000001,3.80999999999995,0.253999999999905,1.27000000000021,1.52399999999989,6.096,0.253999999999905,0.254000000000133,40.386,9.65200000000004,20.066,3.80999999999995,1.52400000000011,0.253999999999905,7.11200000000008,0.507999999999811,0,0,0,2.032,0.254,0
4.15,"SOUTH POINT NEAR NAALEHU 12SSW","NWS","STATE","BI",295.78,18.9928,-155.668,NA,"SOPH1","B1507246",NA,NA,0,0,0,0,0,0,0,0,0,0,1.27,0,4.318,0,13.462,4.064,0.254,0,0,0,0.254,0.508,0,0,0,0,0,NA
9.2,"Nene Cabin","Nene Cabin","RAWS","BI",1991.7737,19.2564,-155.6144,NA,"NENH1","32D64524",NA,NA,17.526,1.77800000000002,0,1.52400000000011,5.07999999999993,1.26999999999998,1.01600000000008,1.52399999999989,0,0,0,1.016,0.761999999999944,0,24.8920000000003,5.588,6.85799999999995,17.7800000000002,2.032,4.06400000000008,9.65199999999982,0,0,0,0,0,0,0
21,"Pahala","KAU SUGAR","HydroNet-UaNet","BI",346.8624,19.2042999,-155.4872,"USC00517421","PPLH1","B16084B2",NA,NA,0,2.79399999999987,0,4.31799999999998,0.254000000000133,0,0,0,0.253999999999905,7.62000000000012,0.507999999999811,13.2080000000001,38.6079999999999,0.508000000000038,2.28599999999983,22.8600000000001,1.26999999999998,0,0,2.28600000000006,0,0,0,0,0,0,0,1.01600000000008
23,"KAHUKU","RAWS","RAWS","BI",1796.4912,19.23222222,-155.78,NA,"KRCH1","32639544",NA,NA,5.588,1.016,0.253999999999998,1.27,0,12.954,0.762,0.507999999999999,1.524,0,0,1.27,0.253999999999991,0.762,3.04800000000001,0,0,5.08,0,0,1.778,0.253999999999998,0,0,0,0,0,0
27.6,"Honaunau No. 2","NWS","HydroNet-UaNet","BI",398.0688,19.4629002,-155.8824,NA,"HAUH1","15D12742",NA,NA,0.254000000000815,0.507999999999811,0,0,1.01599999999962,1.01599999999962,1.01599999999962,18.7960000000003,2.54000000000087,0.253999999998996,0,0,0,0,0,0,0,0.254000000000815,0,0,0,0,0,0,0,0,0,0
29.12,"Kealakekua","NWS","HydroNet-UaNet","BI",537.972,19.5181007,-155.9159,NA,"KLEH1","81708572",NA,NA,0.50800000000072,0,0,0,0.253999999999905,0,0,1.52399999999943,1.01600000000053,0.253999999998996,0,0,0,0,0,0,1.01600000000053,1.01600000000053,0,0,0,3.30199999999968,0,0,0,0.254000000000815,0,0
34,"Kapapala Ranch","NWS","HydroNet-UaNet","BI",638.556,19.2754993,-155.4514,"USC00513300","KAYH1","B16097C4",NA,NA,0,2.04241964319994,0,4.38296844035216,0.185674513018283,0.153312714880381,0,0,0.185674513018116,6.33679896494754,0.371349026036232,2.54,17.78,18.542,3.81,12.192,0.762,0.254000000000005,0.253999999999991,5.08000000000001,0.253999999999998,0,0,0,0,0,0.254000000000005,3.55599999999999
36.3,"KAPAPALA RANCH","KAPAPALA RANCH","RAWS","BI",1081,19.25811,-155.441781,NA,"KPRH1","AA10E258",NA,NA,0,0,0,2.032,0,0.254000000000005,0,0,0,1.27,0,0,12.446,0.762,1.524,23.876,0,0,0,4.06400000000001,0,0,0,0,0,0,0,2.08807634032848
38.9,"KAELAKOMO","KAELAKOMO","RAWS","BI",29.5656,19.29277778,-155.1075,NA,"KMOH1","32807432",NA,NA,1.77800000000002,0,0,4.06399999999999,8.88999999999999,0.507999999999981,0,0,0,0,0,0,4.06400000000002,0,0,1.524,4.82599999999999,0,0,0,0,0,0,0,0,0,0,NA
39,"Mauna Loa Observatory","NWS","ESRL/GMD","BI",3397,19.5362,-155.5763,"USC00516198","MOBH1",NA,NA,NA,0,0,0,0,2.794,0.254,0,0,0,0,0,0,0,0,2.032,0.254,0,0,0,0,0,0,0,0,0,0,0,0
43.3,"PUHE CS","PUHE CS","RAWS","BI",34.126,20.025,-155.8211111,NA,"PHRH1","32D61558",NA,NA,0,0,0,0,0,0,0,0,4.82600000000002,0,0,0,0,0,0,0,0,0,0,0,0,0,0,0,0,0,0,0
47,"KEMOKU LAVA FLOW","RAWS","RAWS","BI",1706.88,19.47555556,-155.3627778,"USR0000HKEA","KKUH1","FA4447E8",NA,NA,0,0,0,NA,NA,NA,NA,NA,0.507999999999925,0,0,3.04800000000012,2.79399999999998,4.31799999999998,0.254000000000019,1.524,1.26999999999998,0.508000000000038,9.90599999999984,4.06400000000008,0,0,0,0,0,0,0,NA
48,"PALI 2","RAWS","RAWS","BI",847.344,19.3175,-155.2922222,"USR0000HPAL","PLIH1","FA900222",NA,NA,0,0,0,9.144,1.27,0,0,0,1.27,0.254,0.254,0,34.036,0,0.254000000000005,7.36600000000001,0,0,0,1.26999999999998,0,0,0,0,0,0,0,0.762
54.2,"Glenwood","HELBUSH XL","HydroNet-UaNet","BI",802.2336,19.5076008,-155.1707,"USC00510744","GLNH1",NA,NA,NA,12.446,0.508,0.762,4.318,10.922,25.908,14.224,8.128,5.334,2.794,2.286,2.794,6.604,3.81,7.874,5.334,12.192,1.524,11.2722976441624,0.508,3.556,2.54723868152602,0.508,2.032,1.27,0.508,0,0
63,"KALOKO-HONOKOHAU","RAWS","RAWS","BI",7.62,19.67277778,-156.0202778,NA,"KHOH1","FA667668",NA,NA,2.032,0,0,0,0,0,0,0,0,0,0,0,0,0,0,0,0,0,0,0,0,0,0,0,0,0,0,0
68.21,"KAILUA KONA KE AHOLE AIRPORT","KAILUA KONA KE AHOLE AIRPORT","NWS","BI",27,19.73556,-156.04889,"USW00021510","PHKO",NA,NA,NA,0,0,0,0,0,0,0,0,0,0,0,0,0,0,0,0,0,0,0,0,0,1.016,0,0,0,0,0,0
70.16,"Waiaha Stream","NWS","HydroNet-UaNet","BI",460.5528,19.6331997,-155.9486,NA,"WIHH1","9321011E",NA,NA,0,4.06399999999999,0,0,2.286,0,0,0,20.066,0,0,0,0,0,0,0,0,0.507999999999996,0,0,0,2.28600000000002,0,0,0,0,0,0
75.1,"PTA KIPUKA ALALA","RAWS","RAWS","BI",1641.348,19.66694444,-155.7077778,"USR0000HPTK","PKAH1","32666200",NA,NA,0,0,0,0,0,0,0,0,0,0,0,0,0,0,0,0,0,0,0.254000000000001,0,0,0.253999999999998,0,0,0,0,0,NA
79.6,"Kulani NWR","NWS","HydroNet-UaNet","BI",1623.3648,19.5543995,-155.3089,NA,"KNWH1",NA,NA,NA,1.524,0.254,0.508,5.588,10.922,7.874,1.27,0.762,1.524,0.762,0,1.016,7.112,4.318,5.334,1.41163777539844,7.62,2.032,13.208,0.762,1.27,1.13259805051476,0,0,0,0,0,0
83,"QuarryRainGageatSaddleRd","USGS","USGS","BI",1286.256,19.68586111,-155.2942222,NA,"SDQH1","DDF6B6E4",NA,NA,3.30200000000002,0.254000000000019,1.01599999999996,4.82600000000002,17.7800000000001,11.684,6.60399999999993,1.26999999999998,1.77800000000002,1.01600000000008,0.254000000000019,2.03199999999993,0.254000000000019,2.53999999999996,4.3180000000001,0.76199999999983,10.1600000000001,9.90600000000006,6.09599999999989,1.2700000000001,10.6679999999999,0.762000000000057,0,0,0,0.762000000000057,1.52399999999989,0
85.2,"Waiakea Uka","NWS","HydroNet-UaNet","BI",303.8856,19.6585999,-155.1277,"USC00519084","WKAH1",NA,NA,NA,6.096,0.254,0,3.048,23.368,14.732,5.842,12.7,1.524,2.286,0,4.318,10.668,5.842,16.256,8.79088830994958,27.94,2.032,10.16,3.81,3.556,3.302,0,1.778,0.508,0,0,0
87,"HILO INTERNATIONAL AIRPORT 87","NWS","HydroNet-UaNet","BI",11.6,19.7191,-155.053,"USW00021504","PHTO",NA,NA,NA,3.81,0.508,0,8.636,11.43,16.002,1.27,9.652,1.016,0,0.254,6.604,19.05,11.43,0,5.842,30.734,12.7,0,0,2.794,2.54,0.508,1.524,0.254,0,0.254,0.508
88.8,"Waiakea Exp Farm","UNIV HAWAII","STATE","BI",183,19.644743,-155.0805636,NA,"WEXH1","CD07410A",NA,NA,3.556,1.016,0,10.668,33.02,16.002,14.732,19.05,2.54,0.508,0.254,1.016,16.002,6.35,0,21.59,20.828,4.572,0,0,2.032,2.54,0.762,1.27,0,0,0,NA
89.11,"Piihonua","NWS","HydroNet-UaNet","BI",296.8752,19.7098007,-155.1395,"USC00518053","PIIH1",NA,NA,NA,1.016,0.254,0,7.112,21.844,18.034,7.112,12.954,2.54,1.524,0.254,11.43,17.526,10.16,0,13.462,21.59,2.54,3.302,1.778,4.064,2.09627200637315,0,0,1.778,0.254,0,0
89.15,"HONOLII STREAM NEAR PAPAIKOU NEAR HILO 3N ","USGS","USGS","BI",522.23157,19.7667,-155.1544,NA,"NLIH1","D114953C",NA,NA,2.794,0.254000000000001,0,8.382,45.212,34.036,25.4,27.686,6.34999999999999,6.34999999999999,0.254000000000019,11.938,32.258,12.192,0.762000000000029,16.256,22.86,3.30200000000002,2.54000000000002,2.79399999999998,8.63599999999997,3.81,0,0.508000000000038,7.11200000000002,0.253999999999962,0,0
91.15,"Mountain View","Mountain View","HydroNet-UaNet","BI",346.5576,19.5674992,-155.0841,NA,"MTVH1",NA,NA,NA,6.096,0.508,0,3.048,21.082,23.368,10.922,30.48,5.588,0,0.254,5.334,23.368,4.572,0,NA,NA,0,NA,0,0,NA,NA,NA,NA,0.508,0,0
91.9,"Pahoa Beacon","NWS","HydroNet-UaNet","BI",187.1472,19.5149994,-154.9644,NA,"PHAH1",NA,NA,NA,4.318,1.524,0,5.36154172772194,21.844,18.542,4.572,10.668,1.778,0,0.254,16.002,3.81,5.588,1.524,0.254,40.894,13.462,3.302,12.954,3.048,1.72009963911075,5.842,1.778,1.524,0,0.508,0.508
92.5,"KiholoRainGage","USGS","USGS","BI",283.96692,19.82580556,-155.8925833,NA,"KIRH1","DD60236E",NA,NA,0.254000000000005,0,0,0,0,0,0,0,0,0,0,0,0,0,0,0,3.048,0.254000000000005,0,0,0,0,0,0,0,0,0,0
93.12,"PUUANAHULU","RAWS","RAWS","BI",830.58,19.83277778,-155.7697222,NA,"PULH1","48703040",NA,NA,2.286,9.906,0,0,0,0,0,0,0,0.508000000000003,0,0,0,0,6.096,0,0.507999999999996,0,0,0,9.398,0.254000000000005,0,0,0,0,0,NA
94,"KAUPULEHU LAVA FLOW","RAWS","RAWS","BI",372.1608,19.80333333,-155.9180556,NA,"KPLH1","4870E628",NA,NA,1.27,0,0,0,0,0,0,0,0,0,0,0,0,0,0,0,0,0,0,0,0,0,0,0,0,0,0,0
94.5,"PUU WAAWAA","RAWS","RAWS","BI",708.9648,19.795,-155.8452778,"USR0000HPUW","PWWH1","487046D0",NA,NA,1.01600000000001,0,0,0,0,0,0,0,0,1.01599999999999,0.254000000000019,0,0,0,0,0,0,0,0,0,0.761999999999986,0,0,0,0,0,0,NA
95.6,"WAIKOLOA","RAWS","RAWS","BI",297.7896,19.92416667,-155.7936111,NA,"WKVH1","4870C0C4",NA,NA,1.77799999999999,0,0,0,0,0,0,0,0,0,0,0,0,0,0,0,0,0,0,0,0,0,0,0,0,0,0,NA
98.2,"PUHO CS","PUHO CS","RAWS","BI",29.5656,19.42194444,-155.9075,NA,"PERH1","32D6803A",NA,NA,0,0,0,0,0,0,0,0,0,0,0,0,0,0,0,0,0,0,0,0,0,0,0,0,0,0,0,0
99,"PTA WEST","RAWS","RAWS","BI",1307.592,19.77166667,-155.7022222,"USR0000HPTW","PKWH1","32667176",NA,NA,0.508000000000001,1.778,0,0,0,0,0,0,0,0.254,0,0,NA,0,0.508000000000003,0,0,0.253999999999994,0.254000000000001,0,NA,0,0,0,NA,0,0,NA
100.3,"Waikii","Waikii","HydroNet-UaNet","BI",1417.0152,19.8614006,-155.6506,NA,"WHIH1","932127F2",NA,NA,1.016,1.524,0,0,0,0,0.254,0,0,0,0.254,0,5.588,0.254,NA,NA,NA,NA,NA,NA,NA,NA,0,0.254,0.254,0,0,0
102.8,"AUHMOA","RAWS","RAWS","BI",2001.9264,19.83638889,-155.6130556,NA,"AHMH1","4870D3B2",NA,NA,2.794,0,0,0,0,0,0.254,0,0,0,0,0,0,0,1.27,1.524,0,9.398,0.253999999999998,0.508000000000003,13.716,0,0,0,0,0,0,NA
107.4,"PTA EAST","RAWS","RAWS","BI",1959.864,19.68277778,-155.5452778,"USR0000HPTA","PTAH1","3266D18E",NA,NA,0,0,0,0,0.508000000000003,0,0,0,0,0,0,0,0,0,10.16,0,6.60400000000001,0,1.016,2.032,0,0.254000000000005,0,0,0,0,0,NA
109,"PTA RANGE 17","RAWS","RAWS","BI",1734.312,19.74583333,-155.6261111,NA,"PTRH1","3279630C",NA,NA,0.254000000000001,0.254,0,0,0,0,0,0,0,0,NA,0.254000000000001,5.842,0.254,3.302,0,1.016,1.016,0,0,0,0,0,0,0,0,0,NA
113.2,"PUU MALI","RAWS","RAWS","BI",2165,19.92666,-155.44,NA,"PMLH1","3181742E",NA,NA,0,0,0.508000000000003,0,0,0,0,0.507999999999996,0.762,0,0,0,0.254000000000001,0,4.572,0.254000000000001,0,13.97,2.54,0,0,0,0,0,0,0,0,0
129,"HAKALAU","RAWS","RAWS","BI",1950.72,19.82111111,-155.3305556,"USR0000HHAK","HKUH1","8374D370",NA,NA,0.508000000000003,0,0,1.016,4.318,4.318,0.507999999999996,0,0,0,0,0,0.254000000000005,0.253999999999998,1.524,0,6.858,1.52399999999999,0.762,0.253999999999998,1.524,0.254000000000005,0,0.319222366624055,0,0,0,0
133.3,"Laupahoehoe","NWS","HydroNet-UaNet","BI",499.872,19.9792,-155.2372,NA,"LPHH1","B159741A",NA,NA,0.762000000001535,0,0,1.77799999999934,1.77800000000025,19.5579999999991,11.4300000000012,5.33399999999983,4.06400000000031,0,0,10.4139999999989,7.44962638872972,1.26999999999953,1.01600000000053,20.0659999999998,3.30200000000059,7.36599999999908,0,0,8.63600000000042,0.253999999999905,0,0,1.52400000000034,0,0,0
140.6,"Papaikou Well","NWS","HydroNet-UaNet","BI",345.6432,19.7884998,-155.1313,NA,"PPWH1",NA,NA,NA,0.762,0,0,12.446,32.766,26.162,16.002,16.51,5.588,1.27,0,6.35,20.32,0.508,1.27,14.986,6.096,6.604,0,1.778,9.398,5.334,0.508,0.508,1.27,0,0,0
147.2,"KOHALA RANCH","KOHALA RANCH","RAWS","BI",328.8792,20.08305556,-155.8325,NA,"KHRH1","4870B654",NA,NA,0,0,0,0,0,0,0,0,0,0,0,0,0,0,0,0,0,0,0,0,0,0,0,0,0,0,0,NA
160.3,"Upolu Airport","NWS","HydroNet-UaNet","BI",34,20.265,-155.8582,NA,"UPLH1","B15017A0",NA,NA,0,0.254000000000019,0,0,0,2.03200000000004,0.761999999999944,0,0,0,0,0,0.254000000000019,0,0,0,0,0.507999999999925,0,0,0,1.52400000000011,0.507999999999925,0.508000000000038,0,0.254000000000019,0,NA
176.3,"Kahua Ranch HQ","KAHUA RANCH","HydroNet-UaNet","BI",987.552,20.1249008,-155.7884,NA,"KASH1","15D293C2",NA,NA,0,0,0,0,0.253999999999905,1.01600000000008,0.508000000000038,0.253999999999905,0,0,0,0.762000000000171,0.253999999999905,1.01600000000008,0,0,0,0.254000000000133,0.507999999999811,0,2.53999999999996,0.762000000000171,0,0.508000000000038,1.52399999999989,0,0,0.253999999999905
185.7,"KawainuiRainGagenearKamuela","USGS","USGS","BI",1237.488,20.08533333,-155.6811667,NA,"KWSH1","DDF6A592",NA,NA,7.11199999999996,1.016,0,6.604,3.048,27.432,12.446,3.30199999999999,8.382,0.50800000000001,0.254000000000005,5.33399999999999,23.876,9.90600000000001,2.032,0.761999999999986,2.28600000000002,18.034,0.253999999999991,0.762000000000029,29.718,7.62,6.34999999999999,0.762,17.526,3.81,0,1.27000000000001
192.7,"Kamuela Upper","NWS","HydroNet-UaNet","BI",948.5376,20.0319996,-155.6667,"USC00513080","KUUH1","817075F6",NA,NA,3.556,0,0,0.761999999999997,0.254000000000001,6.858,3.302,0,0.761999999999993,0,0,2.794,1.524,4.318,3.04800000000001,0,0.253999999999998,3.04799999999999,0,0,9.652,3.556,1.01599999999999,0,1.524,1.016,1.01600000000001,0
201.3,"Kamuela 1","NWS","HydroNet-UaNet","BI",877.824,20.0394993,-155.6084,NA,"KMUH1","81706680",NA,NA,2.53999999999996,0,0,0,0,0.507999999999811,0.761999999999716,0.253999999999905,0.50800000000072,0,0,2.03199999999924,13.4620000000004,9.39800000000014,0,0,0,0,0,0,7.8739999999998,0.761999999999716,1.27000000000044,0.253999999999905,0.761999999999716,0.762000000000626,0.507999999998901,0
215.5,"Honokaa","NWS","HydroNet-UaNet","BI",591.9216,20.0656,-155.49,NA,"HNKH1","B15047DC",NA,NA,0,0,2.03200000000015,0,0,4.82600000000002,1.77799999999934,4.06400000000122,2.53999999999905,0,0,7.61999999999989,29.7180000000008,14.7319999999991,1.77800000000116,24.1299999999992,0,0.761999999999716,0,0.253999999999905,14.2240000000002,0,0.254000000000815,0.253999999999905,3.04799999999977,1.26999999999953,0.254000000000815,NA
250.2,"Ulupalakua Ranch","NWS","HydroNet-UaNet","MA",581.5584,20.6487999,-156.3981,NA,"ULUH1","8170531A",NA,NA,0,0,0,0,0,0,0,0,0,0,0,0,0,0,3.55600000000004,0.253999999999905,0.761999999999944,24.384,0.254000000000133,13.2080000000001,0.761999999999716,0,0,0,0,0,0,0
255,"KepuniGulchRainGage","USGS","USGS","MA",225.552,20.6195,-156.2518889,NA,"KPNH1","F000D4EA",NA,NA,0,0,0,0,0,0,0,0,0,0,11.938,0,0,0,0,0,0,0,2.54,0,0,0,0,0,0,0,0,0
267.8,"KULA 1","KULA 1","RAWS","MA",1998.5736,20.68305556,-156.3216667,NA,"KLFH1","AA10F12E",NA,NA,0,0,0,1.27,0.508000000000001,0,0,0,0,0,0,0,0,3.556,1.016,0.507999999999996,0.254000000000001,0,0.254000000000001,0.253999999999998,0,0.762,0.254000000000001,0,0,0,0,NA
302,"MAALAEA BAY","NWS","STATE","MA",302,20.7903,-156.514,NA,"P36","15DF05C6",NA,NA,0,0,0,0,0,0,0,0,0,0,0,0,0,0,0,0,0,0,0,0,0,0,0,0,0,0,0,0
311.2,"Kealia Pond NWR","Kealia Pond NWR","RAWS","MA",3.6576,20.7975,-156.4772222,NA,"KPDH1","32B2C438",NA,NA,0,0,0,0,0,0,0,0,0,0,0,0,0,0,0,0,0,0,0,0,0,0,0,0,0,0,0,NA
311.5,"Kihei 2","NWS","HydroNet-UaNet","MA",54.5592,20.7061005,-156.437,NA,"KHIH1","93202508",NA,NA,0,0,0,0,0,0,0,0,0,0,0,0,0,0,0,0.254000000000019,0,0,0,0,0,0,0,0,0,0,0,0
324.7,"Kula Branch Stn","NWS","HydroNet-UaNet","MA",944.88,20.7577991,-156.3217,"USC00515000","KBSH1","93220610",NA,NA,0,0,0,2.28600000000006,0,0,0,0,0,0,0,0,0,0,3.55600000000004,0,16.5099999999998,0.25400000000036,0,0,1.77799999999979,0,0,0,0,0,2.03200000000015,0
348.5,"WestWailuaikiRainGagenrKeanae","USGS","USGS","MA",472.44,20.81436111,-156.1429722,NA,"WWKH1","DD5E710A",NA,NA,4.82600000000002,0.253999999999905,0,1.01600000000008,4.82600000000002,12.7,6.34999999999991,2.7940000000001,4.06399999999985,0.254000000000133,0.253999999999905,0,8.63599999999997,2.28600000000006,0.762000000000171,6.85799999999972,6.35000000000014,21.8439999999998,1.77800000000002,42.9226980569538,1.77800000000025,5.58799999999997,2.28600000000006,1.01599999999985,1.52399999999989,0.254000000000133,0,0
353,"Hana AP","NWS","HydroNet-UaNet","MA",19,20.7946,-156.0157,"USC00511125","HNAH1","B150314C",NA,NA,0.254000000000815,0,0,0,1.52399999999943,2.28600000000006,0.761999999999716,0,1.01600000000053,1.01599999999962,2.79399999999987,0,22.098,5.58799999999974,0,0.254000000000815,0.761999999999716,1.52399999999943,6.85800000000017,2.53999999999996,0.254000000000815,4.3179999999993,0,0,2.28600000000006,0,0,NA
361.1,"Lahainaluna","NWS","HydroNet-UaNet","MA",238.0488,20.8909,-156.6556,NA,"LAHH1","81700366",NA,NA,0,0,0,0,0,0,0,0,0,0,0,0,0,0,0.762000000000171,0,0,1.01599999999985,0,0,0,0,0,0,0,0,0,0
380,"PuuKukuiRainGageatalt","BALDWIN PKRS","USGS","MA",1759,20.89083333,-156.6008333,"USC00514887","PKKH1","DD73556E",NA,NA,0.507999999999811,0.253999999998996,0,6.60399999999936,1.52400000000125,4.3179999999993,11.1759999999995,0.50800000000163,0,0,0.253999999998996,0,8.38199999999961,0.507999999999811,15.2400000000016,1.52399999999943,7.36599999999999,27.1779999999999,1.01599999999962,0.50800000000163,1.77799999999843,12.4460000000017,0,0.761999999998807,0,0.253999999998996,0,0.507999999999811
386.6,"Wailuku","NWS","HydroNet-UaNet","MA",146.9136,20.8831005,-156.5124,NA,"WUKH1","9321D776",NA,NA,0,0,0,0,0,0,0,0,0,0,0,0,7.8739999999998,0,0,0,0,0,0,7.36599999999999,1.01599999999962,0,0,0,0,0,0,1.52400000000034
390.4,"Waikapu Country Club","NWS","HydroNet-UaNet","MA",145.9992,20.8346996,-156.5135,NA,"WCCH1","9320E016",NA,NA,0,0,0,0,0,0,0,0,0,0,0,0,1.77800000000025,0,0,0,0,0,0,0.507999999999811,0,0,0,0,0,0,0,NA
398,"KAHULUI AIRPORT","NOAA-NWS","NWS","MA",12,20.8887,-156.436,"USW00022516","PHOG",NA,NA,NA,0,0,0,0,0,0,0,0,0,0,0,0,2.794,0,0,0,0,0,0,0,0,0,0,0,0,0,0,0
426.6,"Pukalani","NWS","HydroNet-UaNet","MA",495.9096,20.8355007,-156.3307,NA,"PUKH1","15D2B52E",NA,NA,0,0,0,2.28600000000006,0.253999999999905,0,0,0,0,0,0,0,0,0,0,0,0,0,0,2.53999999999996,0,0,0,0,0,0,0,0
465.1,"Mahinahina","NWS","HydroNet-UaNet","MA",223.1136,20.9552002,-156.6562,NA,"MABH1","190524C8",NA,NA,0,0,0,0,0,0,0.254,0.254,0,0,0,0,1.016,0,1.778,0,0,1.778,8.89,0,0.254,0.508,0,0,0,0,0,NA
482.5,"Kahakuloa","Kahakuloa","HydroNet-UaNet","MA",335.28,20.9540997,-156.5342,NA,"KHKH1","781001B6",NA,NA,NA,NA,NA,NA,NA,NA,NA,NA,NA,0,0,0,0.508,0,0,1.524,0,0.762,0.254,13.716,5.334,1.016,0,0,0,0,0,1.524
489,"Haiku","NWS","HydroNet-UaNet","MA",99.3648,20.9288998,-156.3225,"USC00510822","AIKH1","50A30568",NA,NA,0,0,0,0.253999999999905,0,1.26999999999998,0.254000000000133,0,0,0,0,0,2.28599999999983,0,1.27000000000021,0,0,9.90599999999972,0,0,4.06400000000008,0.762000000000171,0,0.253999999999905,0,0,0,0
499.9,"KANELOA","RAWS","RAWS","KO",248.412,20.52222222,-156.5658333,"USR0000HKAN","KAOH1","32793370",NA,NA,0.253999999999991,0,0,1.524,0,0,0,0,0,0,0,0.50800000000001,0,0,0.253999999999991,0,0,0,0,0,0,0,0,0,0,0.253999999999991,0,NA
524,"MOLOKAI KAUNAKAKAI MOLOKAI AIRPORT","ALOHA AIRLINES","NWS","MO",141,21.15514996,-157.0924625,"USW00022534","PHMK",NA,NA,NA,0,0,0,0,0,0,0,0,0,0,0,0,0,0,0,0,0,0,0,4.318,11.684,0,0,0,0,0,0,0
536.5,"Kaunakakai Mauka","MOLOKAI GEN HOSP","HydroNet-UaNet","MO",28.3464,21.0946007,-157.0174,NA,"KACH1","50A0F2E2",NA,NA,0,0,0,0,0.507999999999981,0,0,0,0,0,0,0,0,0,1.27000000000001,2.53999999999999,0,0,0.254000000000019,5.07999999999998,1.52400000000003,0,0,0,0,0,0,0
538,"MOLOKAI 1","RAWS","RAWS","MO",833.0184,21.115,-156.9475,"USR0000HMLK","MLKH1","487016AC",NA,NA,0,0,0,0,0,0,0,0,0,0,0,0,2.794,0,0.508000000000003,0,0,0.253999999999998,1.524,4.572,14.732,0,0,0,0,0,0,NA
541.2,"Puu ALII WEST","Puu ALII WEST","RAWS","MO",1159.764,21.14083333,-156.9022222,NA,"PAFH1","32D6062E",NA,NA,0.50800000000001,0.253999999999991,0,0,2.03199999999998,0.508000000000038,2.286,0.507999999999981,1.27000000000004,0,0,5.33399999999997,11.4299999999999,9.39800000000002,5.84200000000004,0.253999999999962,0,0.254000000000019,1.524,55.118,93.218,0.253999999999962,1.01600000000002,0.253999999999962,1.27000000000004,0.762,1.01600000000002,0
553,"MAKAPULAPAI","RAWS","RAWS","MO",22.86,21.20333333,-156.9661111,"USR0000HMAK","MKPH1","FA9024CE",NA,NA,0,0,0,0,0,NA,NA,NA,NA,NA,0,0,3.81,0,1.524,0,0,2.794,8.636,6.858,2.032,1.524,0.507999999999996,0.253999999999998,0.253999999999998,0,0,0
656,"LANAI AIRPORT 656","HAWN AIRLINES","NWS","LA",396.2,20.7882389,-156.946639,"USC00515275","PHNY",NA,NA,NA,NA,NA,NA,NA,NA,NA,NA,NA,NA,NA,NA,0,0,0,0,0,0,0,0,0,0,0,0,0,0,0,0,0
679,"LANAI 1","RAWS","RAWS","LA",387.096,20.87333333,-157.0063889,"USR0000HLAN","LNIH1","48702336",NA,NA,0,0,0,0,0,0,0,0,0,0,0,0,0.254000000000005,0,0,0,0,2.03199999999999,0,0,0,0,0,0,0.254000000000005,0,0,NA
702.7,"Kapolei-Kalaeloa AP","NWS","NWS","OA",15,21.31667,-158.06667,"USW00022551","PHJR",NA,NA,NA,0,0,0,0,0,0,0,0,0,0,0,0,0,0,0,0.254,0,0,0,0,0,0,0,0,0,0,0,0
702.8,"PTWC","NWS","HydroNet-UaNet","OA",1.524,21.3150005,-157.9992,NA,"PTWH1",NA,NA,NA,0,0,0,0,0,0,0,0,0,0,0.254,0,0,0,0,0,0,0,0,0,0,0,0,0,0,0,0,0
703,"HONOLULU INTERNATIONAL AIRPORT","USWB","NWS","OA",2.1,21.324,-157.9294,"USW00022521","PHNL",NA,NA,NA,0,0,0,0,0,0,0,0,0,0,0,0,0,0,1.016,0,0,0,0,0,0.254,0,0,0,0,0,0,0
705.12,"Aloha Tower","NWS","HydroNet-UaNet","OA",38.1,21.3034,-157.8627,NA,"ALOH1",NA,NA,NA,0,0,0,0,0,0,0,0,0,0,0,0,0,0,4.85508214168678,0.482647987759736,0.137899425074299,1.6547931008906,0,0,0.213999703633615,0,0,0,0,0,0.762,0.508
721.4,"Palolo Fire Stn","NWS","HydroNet-UaNet","OA",59.436,21.2996006,-157.7944,"USC00517662","PFSH1","19014414",NA,NA,0,0,0,0,0,1.77799999999979,0,0,0,1.01600000000053,0,0,3.55599999999959,0,15.7480000000005,1.77799999999979,0.508000000000266,6.09599999999955,0,0,0.25400000000036,0,0,0,0,0,0.253999999999905,0
723.8,"Niu Valley","NWS","HydroNet-UaNet","OA",19.812,21.2896996,-157.7332,"USC00516865","NIUH1","1900D38C",NA,NA,0,0,0,0,0,0,0,0,0,0,0,0,1.01600000000008,0,3.048,10.922,1.52400000000011,3.80999999999995,0,1.26999999999998,2.28600000000006,0.253999999999905,0,0,0,0.253999999999905,0,0
724.21,"Kamehame","NWS","HydroNet-UaNet","OA",242.316,21.3085995,-157.6791,NA,"KMHH1","190046EE",NA,NA,0,0,0,0,0,0,0,0,0,0,0,0,0.776047668970483,0,2.32814300691127,8.34251244143204,0,0,0.762,0.508,2.286,0.254,0,0,0,0,1.27,0
724.22,"Hawaii Kai Golf Course","NWS","HydroNet-UaNet","OA",8.8392,21.2991009,-157.6644,NA,"HAJH1","183024DA",NA,NA,0,0,0,0,0,0,0,0,0,0,0,0,0,0,NA,NA,NA,NA,NA,NA,NA,NA,0,0,0,0,0.254,0
728.2,"PALEHUA","RAWS","RAWS","OA",722.376,21.385,-158.1041667,NA,"PLHH1","4870F55E",NA,NA,0,0,0.253999999999991,0,0,0,0,0,0.254000000000019,0,0,0,0.253999999999991,4.82599999999999,0.254000000000019,1.524,0.253999999999991,0,0,0,0,0,0,0,0,0.254000000000019,0.253999999999991,0.133959434787507
742.4,"HONOULIULI PHB","FWS","RAWS","OA",1.524,21.35666667,-158.0205556,NA,"HOFH1","327BF39A",NA,NA,0,0,0,0,0,0,0,0,0,0,0,0,0,0,0,0.253999999999905,0,0,0,0,0,0,0,0,0,0,0,0.0787241997775347
752.6,"WAIAWA PHB","FWS","RAWS","OA",1.524,21.38694444,-157.9811111,NA,"WWFH1","3274C092",NA,NA,0,0,0,0,0,0,0,0,0,0,0,0,0,0.254000000000019,0,0.761999999999944,0,0,1.27000000000004,0,0,0,0,0,0,0,0,0.254
772.3,"MoanaluaRGNo.1atalt1000","USGS","USGS","OA",304.8,21.39338889,-157.8401111,NA,"MOGH1","1689664A",NA,NA,0,3.81,0,0,2.032,2.032,0,0,3.048,1.27,0,0.254,1.016,0.508,3.98420960341722,5.65739422042661,4.96093261067652,4.8344532156168,8.92411409857021,2.16807791321856,16.5921776451058,5.44865263774593,0,0,1.27,0.762,2.032,2.032
772.5,"Moanalua Stream","USGS","HydroNet-UaNet","OA",72.2376,21.3736,-157.8801,"USC00516400","MOAH1","1900B66A",NA,NA,0,1.01599999999996,0,0,0.254000000000048,1.52399999999997,0,0,0.507999999999981,0,0.254000000000048,0,6.60399999999998,0.507999999999981,1.27000000000004,8.38200000000001,1.77799999999996,1.524,0.253999999999991,0.253999999999991,2.03200000000001,0.762000000000029,0.253999999999991,0,2.03200000000001,1.52399999999997,0,0.50800000000001
781.12,"Luluku","NWS","HydroNet-UaNet","OA",84.1248,21.3875008,-157.8099,NA,"LULH1","93215162",NA,NA,0,0.254,0,0,1.27,1.27,0,0,5.588,5.842,0,0,0.254,0,NA,NA,NA,NA,NA,NA,NA,NA,0,0,0.508,0.508,1.016,1.524
785.11,"WAIHI STREAM NEAR HONOLULU 3NE","USGS","USGS","OA",108,21.3283,-157.801,NA,"WISH1","16EA459A",NA,NA,0,0,0,0,0,0,0,0,0,0,0,0,0,0,0,NA,0,0,0,0,NA,0,0,0,0,0,0,0
785.4,"Manoa Lyon Arbo","NWS","HydroNet-UaNet","OA",151.7904,21.3330002,-157.8024,"USC00516128","MNLH1",NA,NA,NA,1.016,0.762,0,0,4.318,2.032,0,1.27,1.524,3.302,0.254,1.524,3.048,1.27,4.572,NA,5.334,10.668,1.016,4.572,12.192,NA,0.254,0,6.096,2.794,0.762,0.254
787.2,"Maunawili","NWS","HydroNet-UaNet","OA",127.1016,21.3509998,-157.7668,NA,"MAUH1","19007374",NA,NA,0.762,0.508000000000038,0,0,3.55599999999998,1.01600000000002,0,0,0.507999999999981,2.54000000000002,0.253999999999962,0.762000000000057,2.03199999999998,0.507999999999981,1.26999999999998,10.922,6.858,2.53999999999996,9.39800000000002,0.254000000000019,23.114,2.03199999999998,0,0,1.01600000000002,1.524,0.762,1.27000000000004
788.2,"St Stephens Seminary","NWS","HydroNet-UaNet","OA",142.9512,21.3666992,-157.7786,NA,"STVH1","19005598",NA,NA,0,0,0,0,1.77799999999996,0,0,0,1.27000000000004,0.253999999999962,0,0.507999999999981,1.52400000000006,0,2.03199999999998,6.096,2.286,10.16,4.82600000000002,0.253999999999962,16.764,1.01600000000002,0,0,0,0.508000000000038,1.26999999999992,0.762000000000057
790.11,"Olomana Fire Stn","NWS","HydroNet-UaNet","OA",45.1104,21.3777008,-157.7507,"USC00517052","OFSH1","19011468",NA,NA,0,0,0,0,1.77800000000002,0,0,0,0,0,0,1.26999999999998,0.254000000000133,0,1.01599999999985,3.55600000000004,1.52399999999989,2.54000000000019,1.26999999999998,0,4.82600000000002,1.26999999999998,0,0,0,0,1.26999999999998,0.253999999999905
793.2,"BELLOWS AFS AT WAIMANALO","NWS","STATE","OA",6.66,21.3667,-157.717,NA,"BELH1","B14036D2",NA,NA,0,0,0,0,2.286,0,0,0,0,0,0,0,0,0,0,1.27000000000004,3.55599999999998,0,1.01600000000002,0,1.01599999999996,0,0,0,0,0,1.77800000000002,0
795.3,"Waimanalo Nonokio","NWS","HydroNet-UaNet","OA",20.1168,21.3356991,-157.7116,NA,"WMLH1","224185AC",NA,NA,0,0,0,0,0,1.26999999999998,0,0,0,0,0,0,0,0,4.06399999999996,0.762000000000057,0.508,1.27,0.254,0.508,0.508,0.508,0,0,0,0.254,0.762,0
801.1,"Waianae Kawiwi","MT VIEW DAIRY","HydroNet-UaNet","OA",19.812,21.4566994,-158.18,NA,"WAIH1","1562920A",NA,NA,0,0,0,0,0,0,0,0,2.032,0,0,0,0,0.254,NA,NA,NA,NA,NA,NA,NA,NA,0,0,0,0,0,0
801.2,"WAIANAE BOAT HARBOR","NWS","STATE","OA",4.25,21.4503,-158.184,NA,"WBHH1","15D13434",NA,NA,0,0,0,0,0,0,0,0,0.507999999998901,0.253999999999905,0,0,0,0,2.79400000000078,0,0,0,0,0,0,0,0,0,0,0,0,0
803.2,"WAIANAE VALLEY","RAWS","RAWS","OA",291.6936,21.48055556,-158.1552778,"USR0000HWVA","WNVH1","487005DA",NA,NA,0,0,0,0,0,0,0,0,1.01599999999999,0,0,0,0.253999999999991,1.27000000000001,4.06399999999999,5.07999999999998,0,0,0,0.254000000000019,0,0,0,0,0,0.254000000000019,0,0
804,"Lualualei","US VY","HydroNet-UaNet","OA",35.9664,21.4211006,-158.1352,"USC00515647","LUAH1","8170406C",NA,NA,0,0,0,0,0,0,0.254000000000019,0.253999999999962,0,0,0,0,1.01600000000002,0,1.77799999999996,0,0,4.06400000000002,8.88999999999999,1.524,0.254000000000019,0.508000000000038,0,0,0,0,0,0
810.1,"WHEELER ARMY AIR FIELD 810.1","COOP","NWS","OA",255,21.48722,-158.02806,"USW00022508","WAFH1","B14101B2",NA,NA,0,0,0,0,0,1.52400000000034,0,0.253999999999905,1.52399999999989,0,0,0,0.253999999999905,0,0,0,0,0,0,0,0.508000000000266,1.77799999999979,0,0,0.25400000000036,1.01599999999962,0,0
820.6,"Mililani","NWS","HydroNet-UaNet","OA",226.7712,21.4638004,-157.9991,"USC00516261","MITH1",NA,NA,NA,0,0,0,0,0,1.016,0.254,0.254,0,0,0,0,0.254,0,0,0,0.254,0,1.778,0,0.254,0.932359374977031,0,0,0.508,1.016,0,0
824.2,"Waipio","NWS","HydroNet-UaNet","OA",124.968,21.4199009,-158.0058,NA,"PECH1",NA,NA,NA,0,0,0,0,0,0,0,0,0,0,0,0,0,0,0,0.254,0,0,20.32,0.254,0.254,0.0704242596064787,0,0,0,0.254,0,0
828,"SCHOFIELD EAST","RAWS","RAWS","OA",381,21.49944444,-157.9933333,"USR0000HSCH","SCEH1","325AB384",NA,NA,0,0,0,0,0,4.57199999999921,2.54000000000042,1.52400000000034,1.01599999999962,0.507999999999811,0.25400000000036,0,2.0319999999997,0.25400000000036,0.762000000000171,0.253999999999451,0.762000000000171,0.508000000000266,3.04799999999932,0.25400000000036,1.26999999999998,3.04799999999977,0,0,3.04800000000023,2.03200000000015,0,0.102133741394545
834.13,"Waiawa CF","NWS","HydroNet-UaNet","OA",235.6104,21.4440994,-157.9669,"USC00519257","WAWH1",NA,NA,NA,0,0.254,0,0,0.254,3.302,0.508,0,0,0,0,0,0.508,0,0.254,1.524,0.254,0,2.032,0.254,1.27,0.508,0,0,1.778,1.524,0,0
835.2,"Palisades","NWS","HydroNet-UaNet","OA",261.8232,21.4298,-157.9452,NA,"PACH1",NA,NA,NA,0,0,0,0,0,6.35,0.762,0.254,0,0,0,0,2.794,0.254,2.286,4.318,2.54,0,0.508,0.254,1.27,1.30688804141765,0.0995297227397405,0,3.302,1.524,0,0.254
837.12,"WAIAHOLE STREAM NEAR KAHALUU 2N","USGS","USGS","OA",4,21.48194,-157.8458,NA,"WHSH1","162B784C",NA,NA,0,0,0,0,2.28599999999994,1.26999999999998,0.254000000000019,0,4.318,3.556,0,0,1.778,0.254000000000001,0,0.254,3.81,5.588,8.89,0.254000000000001,10.16,1.016,0,0,1.016,0,1.016,2.54
839.15,"Ahuimanu Loop ","NWS","HydroNet-UaNet","OA",74.0664,21.4319992,-157.8373,NA,"AHUH1","15CE7632",NA,NA,NA,NA,NA,NA,NA,NA,NA,NA,NA,NA,NA,NA,NA,NA,NA,NA,2.032,5.08,25.908,0,28.956,4.82599999999999,0,0,0,0.762000000000015,1.26999999999998,1.27
839.8,"Waihee Pump","USGS","HydroNet-UaNet","OA",64.3128,21.4463997,-157.8584,"USC00519286","WPPH1","195042AC",NA,NA,0.0703374722965131,1.57184483763449,2.11012416889621,0,1.83238185023043,1.12904546556411,0,0,2.2863852232034,1.20052229773548,0.0703374722965394,0.234065674930489,1.10709322909904,0.106417685649679,1.95799242265706,3.60742345093025,2.20485048685466,2.286,16.3602336306085,0.356023601687283,18.0596163702611,3.25906995717776,0,0,0.899081464793051,0.551495777469808,1.65152501812476,1.25965576912953
841.2,"KUAOKALA","S&PF","RAWS","OA",267.0048,21.57027778,-158.26,NA,"KKRH1","48710720",NA,NA,0,0,0,0,0,0,0,0,0,0,0,0,0,0,0,0,0,0,0,0,7.11199999999999,4.82599999999999,0,0,0,0,0,NA
842.1,"MakahaRainGage","USGS","USGS","OA",286.097472,21.50158333,-158.1801667,NA,"MKHH1","DD1423F8",NA,NA,0,0,0,0,1.01600000000002,0,0,0,1.01600000000002,0.253999999999962,0,0,0,1.52400000000006,6.34999999999997,11.684,1.52399999999994,0,2.79400000000004,1.26999999999998,0.508000000000038,0,0,0,0.254000000000019,0.507999999999981,0,0
842.8,"MAKUA RANGE","RAWS","RAWS","OA",6.096,21.52861111,-158.2261111,"USR0000HMAR","MKRH1","3266B468",NA,NA,0,0,0,0,0,0,0,0,0,0,0,0,0,0,0,1.52399999999999,0,0,0,0,0,0.254000000000019,0,0,0,0,0,NA
842.9,"MAKUA RIDGE","RAWS","RAWS","OA",533.4,21.54277778,-158.1988889,"USR0000HMRG","MKGH1","3266C2F8",NA,NA,0,0,0,0,0,0,0,0,0,0,0,0,0,0,0.34395539681636,0,0,0,0.34395539681636,0,1.7197769840818,NA,0,0,0,0.68791079363272,0.34395539681636,0
843.7,"DILLIINGHAM","RAWS","RAWS","OA",31.0896,21.57194444,-158.1986111,NA,"DLGH1","3278D278",NA,NA,0,0,0,0,0,0,0,0,0,0,0,0,0,0,0,0,0,0,0,0,8.88999999999999,1.27000000000001,0,0,0,0,0,0
855.3,"Poamoho Exp Farm","NWS","HydroNet-UaNet","OA",220.0656,21.5382004,-158.0893,NA,"POAH1",NA,NA,NA,0,0,0,0,0,0,0,0,0,0,0,0,1.524,0,0.254,0,0,0,0.254,0,1.27,0.634412993339984,0,0,0,0.508,0.254,0
858,"SCHOFIELD BARRACKS","RAWS","RAWS","OA",298.704,21.495,-158.0819444,"USR0000HSCO","SCBH1","3266A71E",NA,NA,0,0,0.254000000000001,0,0.762,0.253999999999994,0,0,0,0,0,0,1.016,0.508000000000003,4.064,0.253999999999998,0,0,0,0,0.508000000000003,1.016,0,0,0,0.507999999999992,0,0
884.4,"PunaluuRainGageatalt","USGS","USGS","OA",73.152,21.55644444,-157.899,NA,"PNSH1","DD989652",NA,NA,0.253999999999905,4.82600000000002,3.00466235520767,0,0.25400000000036,2.28600000000006,1.26999999999953,0.254000000000815,1.52399999999989,0.761999999999261,0,0,2.54000000000042,0.507999999999811,2.54000000000042,4.06399999999985,3.30200000000013,0.507999999999356,10.1600000000003,1.26999999999998,11.1759999999999,10.4140000000002,0.253999999999905,0,3.30200000000059,1.01599999999962,6.85799999999972,0.761999999999716
885.7,"OAHU FOREST NWR","RAWS","RAWS","OA",698.9,21.47747,-157.9369,NA,"OFRH1","8379F6FA",NA,NA,0,0.50800000000001,0,0,0.50800000000001,8.12799999999999,0,0.50800000000001,0.762,0.253999999999991,0,0,3.048,0.253999999999991,5.334,12.192,0.762,0.50800000000001,0.762,0,5.84199999999998,1.27000000000001,0.253999999999991,0,3.30199999999999,2.28600000000003,0.507999999999981,0
886.4,"KahanaRainGageatalt","USGS","USGS","OA",28.956,21.54041667,-157.8825556,NA,"KNRH1","17B972EE",NA,NA,0.253999999999905,2.79399999999987,7.62000000000012,0,2.794,2.54,0,0,4.318,3.048,0.254,0,1.27,0,3.556,2.032,4.572,1.27,10.922,0.508000000000003,19.304,2.79399999999999,0,0,2.286,0.762000000000008,2.794,2.032
886.8,"Hakipuu Mauka","RILEY W","HydroNet-UaNet","OA",8.5344,21.5067005,-157.8547,"USC00510920","HAKH1","16C69380",NA,NA,0.253999999999905,0.508000000000038,0,0,0,2.53999999999996,0,0,3.048,9.65200000000004,0.254000000000133,0,1.01599999999985,0,0.508000000000038,1.77800000000002,0.254000000000133,6.60399999999981,23.6220000000001,0.253999999999905,13.7159999999999,4.31800000000021,0,0,0.253999999999905,0.508000000000038,1.52400000000011,0.253999999999905
897.11,"KamananuiRainGageatalt","USGS","USGS","OA",219.456,21.62238889,-158.0143056,NA,"KMRH1","DD34C1E4",NA,NA,0,0.254,0,0,1.27,2.54,0.762,1.016,0.254,0,0,0,3.556,1.524,2.0944308841932,7.33965012565131,1.80931346340855,1.01139468581858,2.51654619014794,0.418661206999853,4.50426999341062,2.92636270421338,0.254,0.254,1.016,0.762,5.842,0.762
897.9,"PupukeaRdRainGageatalt","USGS","USGS","OA",353.568,21.59902778,-158.0169167,NA,"PPRH1","1713D512",NA,NA,0,0,0,0,0,3.81,1.016,0,0.508,0,0,0,3.81,1.778,2.23059927088211,7.18188770558312,2.77415988378596,0.906675736906609,2.55965508381091,0.520839438516574,4.04798337749952,2.87585113416657,0,0.254,1.016,1.016,1.524,0.254
905.22,"Punaluu Pump","NWS","HydroNet-UaNet","OA",3.9624,21.5842991,-157.8916,NA,"PUNH1","19051152",NA,NA,1.01599999999996,0.254000000000133,0,0,0,0.762000000000057,0,0,2.03199999999993,1.26999999999998,0,0,2.54000000000008,0,4.06399999999985,1.2700000000001,2.28599999999994,0,0.508000000000038,0,4.82600000000002,2.03200000000015,0,0,1.01599999999985,0,1.52399999999989,1.01600000000008
909,"KAHUKU TRAINING AREA","RAWS","RAWS","OA",181.6608,21.67916667,-157.9894444,"USR0000HKAH","KTAH1","325A861E",NA,NA,0,0.254000000000005,0,0,0,0.507999999999996,2.032,0,0.254000000000005,0,0,0,0.762,0,0.762,0,2.286,1.01600000000001,0.253999999999991,0,1.27000000000001,3.55599999999998,0,0,0.50800000000001,0,3.556,0.231963985578902
911.1,"KII","RAWS","RAWS","OA",1.524,21.68833333,-157.9525,"USR0000HKII","KFWH1","8375210E",NA,NA,0,0.254000000000005,0,0,0,0,1.27,0,0,0,0,0,1.77799999999999,0,0,0.254000000000005,3.55600000000001,3.30199999999999,0.253999999999991,0,0.50800000000001,1.01600000000001,0,0,0,0,1.77799999999999,0.285845978688119
912,"KAUHUKU 912","KUILIMA  GOLF","COOP","OA",4,21.695,-157.9811,"USC00512570","KAHH1","B1404042",NA,NA,0,0,0,0,0,0,1.01599999999962,0,0,0,0,0,0,0,3.30200000000013,0,1.26999999999998,5.33399999999983,0.507999999999811,0,0.508000000000266,1.77799999999979,0,0,0,0,2.03200000000015,0
926,"PORT ALLEN CAA AIRPORT","FAA","COOP","KA",9,21.89381249,-159.6010997,"USW0022526","PAKH1","B159A272",NA,NA,0,0,0,0,0,0,0,0,0,0,0,0,0,0,NA,NA,NA,NA,NA,NA,NA,NA,NA,NA,NA,NA,NA,NA
940.3,"POIPU","NWS","STATE","KA",14.8,21.8828,-159.429,NA,"POIH1","B15997E8",NA,NA,0.253999999999991,0,0,0,0,0,0,0,0,0,0,0,0,0,0,0.50800000000001,0,1.01600000000002,0,0,0,0,0,0,0,0.761999999999972,0,0.50800000000001
946,"WAIMEA HTS","RAWS","RAWS","KA",159.7152,21.96638889,-159.6638889,NA,"WHGH1","487090B8",NA,NA,0,0,0,0,0,0,0,0,0,0,0,0,0,0.50800000000001,0,0,0,0,0,0,0,0,0,0,0,0,0,2.2543371646422
946.1,"WAIMEA TANK AT WAIMEA","NWS","unknown","KA",70,21.964722,-159.666944,NA,"WMTH1","1900E616",NA,NA,0,0,0,0,0,0,0,0,0,0,0,0,0,0.254000000000133,0,0,0,0,0,0,0,0,0,0,0,0,0,0
966.4,"Hanapepe","NWS","HydroNet-UaNet","KA",110.6424,21.9365005,-159.5866,NA,"HNPH1","156011EA",NA,NA,NA,0,0,0,0,0,0,0,0,0,0,1.016,0.254,0,0.254,0,0.762,0,0,0,0,0,0,0,0,0,0,0.508
986.2,"Kalaheo","KUKUILONO GOLF COU","HydroNet-UaNet","KA",263.0424,21.9183006,-159.5265,NA,"KHEH1","1560740C",NA,NA,0.253999999999451,0,0,0,0,0.25400000000036,1.26999999999998,1.01600000000008,0,0,0,0,0.507999999999811,9.14400000000023,0,2.79399999999987,1.52399999999989,7.36600000000044,0,0,0,0,0,0,0,2.0319999999997,0,1.01600000000008
992.1,"Omao","NWS","HydroNet-UaNet","KA",99.9744,21.9071007,-159.4768,"USC00517116","OMAH1","195001A6",NA,NA,0,0,0,0,0,0.253999999999905,0.25400000000036,0.507999999999811,0,0,0,0,1.01600000000008,0.507999999999811,0,0.507999999999811,0,0,0,0,0,0,0,0,0,1.52400000000034,0,2.0319999999997
1020.1,"LIHUE WEATHER SERVICE OFFICE AIRPORT 1020.1","LIHUE WEATHER SERVICE OFFICE AIRPORT 1020.1","NWS","KA",45,21.98156999,-159.3422063,"USW00022536","PHLI",NA,NA,NA,0,0,0,0,0,0.508,0,1.778,0,0,0,1.016,0,1.016,0,3.048,0,0,0,0,0,0.508,0,0,0.254,1.016,0,2.54
1029,"MANA","RAWS","RAWS","KA",26.2128,22.02944444,-159.7622222,NA,"MNRH1","4870603C",NA,NA,0,0,0,0,0,0,0,0,0,0,0,0,0,0,0,0,0,0,0,0,0,0,0,0,0,0,0,1.27
1036,"PUU OPAE","RAWS","RAWS","KA",652.8816,22.04083333,-159.6958333,NA,"POPH1","4870734A",NA,NA,0,0,0,0,0,0,0,0,0,0,0,0,0,0,0,0.253999999999998,0,0,0,0,0,0,0,0,0,0,0,4.572
1042,"WaialaeRainGagenrWaimea","USGS","USGS","KA",1219.2,22.08972222,-159.5925,NA,"WLGH1","DDF7C28E",NA,NA,0.254000000000001,0,0.253999999999998,0,0.254000000000001,0.254000000000001,2.032,1.778,0.254000000000001,0.254000000000001,0,0.253999999999998,0.508000000000003,3.04799999999999,0.508000000000003,0.253999999999998,0.508000000000003,4.064,1.01599999999999,0.254000000000005,0,0.253999999999998,0,0,0.253999999999998,0,0.254000000000005,1.016
1047,"Mt.WaialealeRainGagenrLihue","USGS","USGS","KA",1569.72,22.07088889,-159.4979722,"USC00516565","WLLH1","DD5E818E",NA,NA,1.27,0.762000000000015,0,0,0,21.336,16.51,12.7,3.55599999999998,0.253999999999991,0,1.52400000000003,8.636,5.84199999999998,0.254000000000019,12.954,1.524,6.60400000000001,0.507999999999981,0.261176945258697,0,3.048,2.53999999999999,1.01599999999999,4.572,12.7,1.01600000000005,9.90599999999995
1051,"NWailuaDitchRainGagenrLihue","LIHUE PLANTATION","USGS","KA",338.328,22.0625,-159.4677222,"USC00516888","WLDH1","1732B3E0",NA,NA,0.254000000000005,0,0,0,0,9.398,4.82600000000001,3.04799999999999,1.524,0.254000000000005,0,0.50800000000001,1.524,3.55599999999998,1.01600000000001,4.318,0.254000000000005,2.032,1.27,0,0,1.27,1.27000000000001,0.163746070516848,1.016,4.572,0.254,4.572
1059,"Lihue Variety Stn","NWS","HydroNet-UaNet","KA",117.0432,22.0240002,-159.3868,NA,"LIHH1","1561501A",NA,NA,0,0,0,0,0.50800000000001,3.55599999999998,1.01600000000002,1.01599999999999,0,0,0,0.253999999999991,1.01600000000002,0,0,0.50800000000001,1.26999999999998,0.253999999999991,0,0,0,0,0,0,0.762,3.556,0,5.334
1060,"Wailua UH Exp Stn","NWS","HydroNet-UaNet","KA",158.1912,22.0660992,-159.396,"USC00519475","WUHH1",NA,NA,NA,0.254,0,0,0,1.27,2.794,1.27,1.778,0.448956221228061,0,0,0.110658316910647,4.826,1.524,0.254,2.54,0.278571679916177,0,0,0.074414173820018,0,0,0,0,1.27,1.524,0.508,4.50536296707781
1061.5,"Wailua UH Exp Stn","NWS","HydroNet-UaNet","KA",158,22.066,-159.3962,NA,"WUHH1","15C163D6",NA,NA,0.253999999999905,0,0,0,1.26999999999998,2.7940000000001,1.26999999999998,1.77800000000002,0.254000000000133,0,0,0,4.82599999999979,1.52400000000011,0.253999999999905,2.53999999999996,0.302429638516744,0,0,0,0,0,0,0,1.26999999999998,1.52399999999989,0.508000000000038,7.62000000000012
1069,"PUU LUA","RAWS","RAWS","KA",1021.08,22.08916667,-159.6791667,NA,"PLRH1","487083CE",NA,NA,0.253999999999991,0,0,0,0,0,0,0.254000000000019,0,0.253999999999991,0,0,0,0.762,0.253999999999991,1.27000000000001,1.26999999999998,0,0,0,0,0,0,0,0,0,0,2.2410447505335
1074,"MAKAHA RIDGE","RAWS","RAWS","KA",544.9824,22.13055556,-159.7152778,"USR0000HMAH","MKAH1","3286026C",NA,NA,0,0,0,0,0,0,0,0,0,0,0,0,0,2.032,0,0,1.27,0,1.524,0,0,0,0,0,0,0,0,NA
1076,"Kokee","NWS","HydroNet-UaNet","KA",1279.2456,22.1485996,-159.6448,NA,"KOKH1","1900E616",NA,NA,0,0,0,0,0,0,0,0,0,0,0,0,0,0.254000000000133,0,0,0,0,0,0,0,0,0,0,0,0,0,0
1082,"WaiakoaliRainGagenrWaimea","USGS","USGS","KA",1042.416,22.1245,-159.6220833,"519130","WKRH1","17B79574",NA,NA,0.508,0,0.508,0,0,0,0.254,0.762,0,0.254,0,0,1.016,5.588,0.205940270544973,1.00970229315119,1.13045149034287,2.50091713648091,1.90532174230193,0.12074919719168,0.177790619191904,0,0,0.508,0.254,0,0,1.016
1083,"MoCrsgRainGagenrWaimea","USGS","USGS","KA",1042.416,22.11708333,-159.6009722,"USC00516433","MCRH1","D109224A",NA,NA,0.508,0,0,0,0,0.254,0.508,0.762,0,0,0,0,1.016,5.588,0.203871134719911,0.999557549814312,1.11909354820278,2.47578976712808,1.88617847583523,0.119535998388476,0.176004310285168,0.119535998388469,0.254,0,0.254,0,0.254,0.508
1084,"KilohanaRainGafenrHanalei","USGS","USGS","KA",1219.2,22.15408333,-159.5946111,"USC00514610","KLOH1","DDCC972A",NA,NA,0,0,0,0,0,0.762,1.01600000000001,2.286,0.253999999999991,0,0,0.50800000000001,5.33399999999999,12.192,0.254000000000005,6.604,6.85799999999999,8.12800000000001,11.176,0.254000000000019,1.27,0.253999999999991,0.253999999999991,0.253999999999991,0,1.01600000000001,2.032,8.12800000000001
1094.2,"Kapahi","NWS","HydroNet-UaNet","KA",158.496,22.1021004,-159.3856,"USC00513171","KPIH1","15608488",NA,NA,0,0,0,0,0.254000000000815,7.61999999999898,0.253999999998996,2.03200000000106,0.761999999998807,0,0,2.54000000000087,0.254000000000815,5.84200000000055,0.761999999998807,3.80999999999949,0.507999999999811,1.27000000000044,0.254000000000815,0.253999999998996,0,0,0,0,3.30199999999968,1.52400000000125,0.762000000000626,6.60399999999936
1111.4,"Anahola","HAWN FRUIT PACKERS","HydroNet-UaNet","KA",75.2856,22.1373997,-159.312,NA,"ANHH1","1560029C",NA,NA,0,0,0,0,0,3.302,0,0.254,0,0,NA,NA,0,2.54,0,0.762,0.762,0,0,0,0,1.016,0,0,0.762,0,1.778,9.652
1117.8,"Hanalei","NWS","HydroNet-UaNet","KA",4.8768,22.1982002,-159.4951,"USC00513386","HNIH1","B159849E",NA,NA,0.254,0,0,0,0,1.27,0.254,2.032,0,0,0,0.508,2.54,0.508,0.201179254705507,3.04138882528282,1.80216057848075,2.05919255645454,2.83138976512498,0.0428998449261393,0.21449922463068,0.0643497673892019,0.0643497673892019,0.0643497673892019,0.684147436581755,1.07837599345488,0.78845711374636,6.16407717594519
1117.9,"PRINCEVILLE AIRPORT NEAR KILAUEA 4W","NWS","STATE","KA",88.497,22.2114,-159.443,NA,"PRIH1","15D696F8",NA,NA,0,0,0,0,0,0.254,0.254,1.016,0.254,0,0,0,0,2.286,0.254,0,1.778,0.762,0.254,0,0,0.762,0,0,0.254,2.286,0.254,NA
1146,"Moloaa Dairy","RAWS","RAWS","KA",85.344,22.18333333,-159.3375,"USR0000HMOL","MLDH1","AAB6D15A",NA,NA,0,0,0,0,0,0,0,0,0,0,0,0,0,0,0,0,0,0,0,0,0,0,0,0,0,0,0,NA
54.8,"Nahuku 0201","HiMesonet","HavoNet","BI",1202,19.415215,-155.238394,NA,"004HI",NA,NA,NA,3.53650759171154,0.221423814783719,0.487770314063183,3.36082986745338,8.63393480566203,9.60624177708793,4.43970960337061,2.07635100036296,1.83204090796509,0.965227704870831,0.503498019262793,1.22871782655527,3.39076894691986,2.46767806265795,3.90179402555139,4.34879906678671,6.51287978818982,2.74618704622579,7.1174588464951,0.557287809789585,3.07748613002015,0.968155604315006,0.10127087937156,0.40508351748624,0.2531771984289,0.244608065643879,0.286674372544597,0
87.9,"IPIF","HiMesonet","HIPPNET","BI",112,19.69748,-155.0954,NA,"005HI",NA,NA,NA,3.70596316457133,0.358195604050174,0,6.634909883841,19.0804044761812,16.7997551585559,4.72830948727455,12.0376199566582,1.72427553164081,1.23605971687255,0.182072262969216,7.72778719837973,16.5006050366649,9.60394664682503,5.12156239165013,8.30888588043205,27.7383891466433,6.30487507710541,4.31862984013262,1.80217952534754,3.5530033371238,2.20916911272087,0.192197857422849,1.13676445885528,0.857961093255032,0.0859733342577916,0.0960989287114246,0.192197857422849
93.13,"Mamalahoa","HiMesonet","HIPPNET","BI",603,19.80258,-155.850629,NA,"009HI",NA,NA,NA,1.10950417244078,0,0,0,0,0,0,0,0,1.10950417244076,0.277376043110213,0,0,0,0,0,0,0,0,0,0.832128129330563,0,0,0,0,0,0,NA
127.5,"Laupahoehoe","HiMesonet","HIPPNET","BI",1152,19.93217,-155.29129,NA,"007HI",NA,NA,NA,3.03237301259342,0.092827154336844,0,2.87065468023447,12.6463344145508,19.82824594943,9.14236672765594,7.74276815154188,2.91994230484012,0.835444389031596,0,7.63319628194909,10.9309587799049,3.0541869431179,7.61607074720224,11.8858751603735,17.0106538345699,6.10990538374262,4.25528018594336,1.57313865254252,7.40529936564537,1.53517055504497,0,0.868454557813256,1.07177157573097,0,0,0.364440795758917
132.2,"Spencer","HiMesonet","HIPPNET","BI",469,19.96358,-155.25014,NA,"006HI",NA,NA,NA,4.77355116377963,0.38941908749698,0,4.09582367273161,10.5855423097353,24.9506089636136,12.5143666181391,8.80424599197584,5.39506667836824,0.994084708629479,0.073843737613041,9.28398751398651,17.8625986514885,5.79103295483568,7.20806430049044,17.3965706362205,12.954540006779,10.3343082750836,3.83560921940591,1.63219326851146,15.0434970634496,3.58750831715312,1.84609344032599,0.879840172152872,6.18104061246538,1.10765606419559,0,0.369218688065201
279,"POHAKAU PALAHA HN-161","HiMesonet","HaleNet","MA",2460,20.730574,-156.141316,NA,"043HI",NA,NA,NA,0.999609435262879,0.0733123503719206,0,1.54060756845411,2.8259583483413,4.37220956324006,2.74706050143895,0.479541613107188,0.591852288644929,0.0369907680403288,0.0733123503719206,0,2.56836916923557,0.517630915943046,2.96269227752775,1.21668023107884,5.0040077393811,7.74004039446625,0.740434222359417,12.613988693161,1.18561148610481,2.70562527006045,0.332916912362794,0.314205582702796,0.221944608241841,0.0733123503719538,0,0.07264316466351
324.6,"KULA AG HN-119","HiMesonet","HaleNet","MA",964,20.757889,-156.320028,NA,"001HI",NA,NA,NA,0,0,0,2.42285582503074,0,0,0,0,0,0,0,0,0,0,3.76888683893665,0,17.4984031807769,0.269206202781568,0,0,1.88444341946808,0,0,0,0,0,2.15364962224965,0
740.5,"Kunia","NWS","HydroNet-UaNet","OA",85.0392,21.3869991,-158.0358,NA,"KUNH1",NA,NA,NA,0,0,0.0482420746786661,0,0,0,0,0,0.0482420746786714,0,0,0,0.0482420746786661,0.992927935315138,0.0482420746786714,0.585764890530387,0.0482420746786661,0,5.76779403786718,0.0673268931970617,0.0673268931970617,0,0,0,0,0.115568967875733,0.0482420746786661,0.0763285164204451
771.11,"N.HalawaValleyRGattunnel","USGS","USGS","OA",335.28,21.40488889,-157.8504444,NA,"TNLH1","DD75A524",NA,NA,0.468696466972768,3.68345701309006,3.73327686847017,0,2.40317267011433,2.42688388367209,0.525989397193316,0.559571113856671,2.30609384841663,1.96765516883635,0.0908746468835262,0.639386105508099,2.51902745381728,0.853045441708841,4.42991831024339,4.01805985391681,5.5159061383393,5.37527764641382,9.92244394322282,2.41061816566165,18.4483244791697,8.52297186313887,0.196072526322189,0,4.01925507894271,1.70282730609427,3.86607247915096,1.15957407885505
782.3,"Nuuanu Upper","NWS","HydroNet-UaNet","OA",248.412,21.3502007,-157.8184,"USC00516938","NUUH1","156097FE",NA,NA,0.260122644694048,1.93216830736744,0,0,1.82609626520116,2.14905125934658,0,0.325153305867561,1.5618695993889,1.18222911794941,0.246676850114962,0.457550071579824,5.77263326471395,0.823177892827881,2.99469227827446,13.1130787985987,3.66756531873329,8.40071206515669,2.6170537356903,1.46668676912013,12.1308940655241,1.50433992456952,0.246676850114922,0,3.35073590238938,2.00731272017336,0.734020819830545,0.96725187536636
883.12,"PoamohoRainGageNo1,nrWaawa","USGS","USGS","OA",755.904,21.53386111,-157.9213889,NA,"PMHH1","DD9836AA",NA,NA,0.128371744548454,1.73000753554785,3.85115233645512,0,2.38074653928938,5.39430246810316,0.488054252806093,0.805972598320492,2.57785480012844,1.61807773187154,0.128371744548502,0,3.8508468033118,1.0537253029017,4.51235141691518,6.48889102653455,3.95429431894463,1.0141311673525,10.0936124080788,0.79934061417507,16.316293624032,6.24946960212139,0.240301548224877,0.162684750935364,2.81510306944168,1.57172066205725,5.30907205612592,1.51502820919411
