"SKN","Station.Name","Observer","Network","Island","ELEV.m.","LAT","LON","NCEI.id","NWS.id","NESDIS.id","SCAN.id","SMART_NODE_RF.id","X2021.08.01","X2021.08.02","X2021.08.03","X2021.08.04","X2021.08.05","X2021.08.06","X2021.08.07","X2021.08.08","X2021.08.09","X2021.08.10","X2021.08.11","X2021.08.12","X2021.08.13","X2021.08.14","X2021.08.15","X2021.08.16","X2021.08.17","X2021.08.18","X2021.08.19","X2021.08.20","X2021.08.21","X2021.08.22","X2021.08.23","X2021.08.24","X2021.08.25","X2021.08.26","X2021.08.27","X2021.08.28","X2021.08.29","X2021.08.30","X2021.08.31"
2.32,"SOUTH KONA 2 2.32","COOP","COOP","BI",647,19.10778,-155.78944,"USC00518652",NA,NA,NA,NA,0,1,0,NA,NA,0,0,0,0.5,1,NA,NA,NA,0.5,6.9,0.5,NA,NA,0,0.5,0.5,0,0,NA,NA,1.8,NA,NA,NA,13.2,0.5
2.34,"MILOLII 2.34","COOP","COOP","BI",280,19.186302,-155.886763,"USC00516304",NA,NA,NA,NA,3.8,0,0,NA,1.8,0,0,0.8,0.5,0,NA,3.3,26.2,NA,NA,1.8,NA,4.8,NA,1.8,5.8,NA,NA,2.8,0.8,NA,1,3,5.1,6.1,7.4
2.36,"KAPUA 2.36","COOP","COOP","BI",533,19.14472,-155.84944,"USC00513376",NA,NA,NA,NA,0,0,0,NA,0,0,0,0,0,0,NA,10.7,39.6,0,0,NA,7.1,NA,0,0,0,10.2,0,0.8,NA,NA,NA,2.3,2,8.1,NA
3.22,"HAWAIIAN OCEAN VIEW 4.7 NNE","HAWAIIAN OCEAN VIEW 4.7 NNE","CoCoRaHS","BI",1273,19.135,-155.747,"US1HIHI0035",NA,NA,NA,NA,0,NA,0,NA,0.5,0.3,0.3,0,NA,0.5,1,2.3,13,0.5,0.3,NA,0.5,1.8,1,0.3,0.5,0.5,0,5.3,1.5,0.3,2.5,10.7,5.3,19.1,4.3
3.9,"LOWER KAHUKU CS","LOWER KAHUKU CS","RAWS","BI",953.7192,19.10083333,-155.6697222,NA,"LKHH1","32D620C2",NA,NA,0,2.54000000000008,0.508000000000038,5.84199999999998,2.03199999999993,0.254000000000019,0.762000000000057,0.508000000000038,0,7.36599999999987,7.11200000000008,3.55600000000004,11.1759999999999,0.254000000000019,1.77800000000002,0,0,2.03199999999993,1.01599999999996,3.81000000000006,0.254000000000019,0,9.90599999999995,13.97,4.82600000000002,6.85800000000006,2.53999999999985,1.2700000000001,4.06399999999996,7.62,0
4.14,"NAALEHU 4.7 WSW, HI US","CoCoRaHs","CoCoRaHs","BI",393.18,19.0421,-155.6371,"US1HIHI0057",NA,NA,NA,NA,0,0,0,3.3,0,0,0,0,0,2.3,7.1,NA,0.5,0.8,0,1.5,0,0,NA,0,2.3,0.5,0,24.9,NA,NA,2.8,2,1.8,6.4,0
4.15,"SOUTH POINT NEAR NAALEHU 12SSW","NWS","STATE","BI",295.78,18.9928,-155.668,NA,"SOPH1","B1507246",NA,NA,0,0,0,1.27,0,0,0,0,0,7.366,4.318,NA,0,0,0,0,0,0.508,0.254,0,0.254,0,NA,NA,NA,0,1.524,NA,3.556,NA,0
6.2,"NAALEHU 5.7 W","NAALEHU 5.7 W","CoCoRaHS","BI",679,19.0732,-155.6632,"US1HIHI0012",NA,NA,NA,NA,1.3,0.5,0.3,4.6,7.6,0,0,0,1.8,1.77464915513798,3.1397638898595,8.9,0.8,8.6,1.5,1.8,4.1,1.3,4.3,0.8,7.1,1,0,18,7.6,5.1,5.8,3.8,1.3,6.1,3.3
9.2,"Nene Cabin","Nene Cabin","RAWS","BI",1991.7737,19.2564,-155.6144,NA,"NENH1","32D64524",NA,NA,0,1.26999999999992,1.77800000000002,1.77799999999996,0,0,0,0,0,0,0.507999999999981,0.762023937890625,1.52399999999994,0,1.77800000000002,2.286,0.254000000000019,1.01600000000002,NA,0,0,0,4.82600000000002,0.50799560546875,2.286,6.60400000000004,4.31799999999993,1.27000000000004,1.01599999999996,NA,0.508000000000038
12.15,"SEA MOUNTAIN 12.15","SEA MOUNTAIN","COOP","BI",21,19.13310292,-155.5152744,"USC00518600",NA,NA,NA,NA,0,0,0,0,0,0,0,0,0,0.5,2.5,0.5,0,0,0,0,0,0,0,0,0,0,0,3,0,0,NA,0.863669750078572,NA,8.37759657576215,0
14,"NAALEHU 14","KAU SUGAR","COOP","BI",206,19.06032754,-155.5855501,"USC00516588",NA,NA,NA,NA,0,0,0,1.3,0,0,0,0,0,1.3,2.3,3,0,0,0,0.5,0,0,0,0,2.60051401520048,0,0,24.4,2.78364880500333,1.86797485598908,4.24872712342614,1,0.952300906974824,9.7,0
21,"Pahala","KAU SUGAR","HydroNet-UaNet","BI",346.8624,19.2042999,-155.4872,"USC00517421","PPLH1","B16084B2",NA,NA,0,0,0,0,0,0,0,0,0,3.81,2.03199999999998,0.254000000000019,0,0,3.55600000000004,0.253999999999962,0,2.79399999999998,0,0,0,0,11.938,0.253999999999962,0,0,10.16,4.82599999999996,5.84199999999998,8.38200000000006,5.58799999999997
21.3,"PAHALA MAUKA 21.3","COOP","COOP","BI",332,19.20667,-155.48861,"USC00517437",NA,NA,NA,NA,0,0,0,0.499999499660067,0,0,0,0,0,2.50316303531841,2.94753083136283,1.49520825355174,0,0,1.66180028132217,0.311007519963679,0,1.30570022103883,0,0,0,0,8.368351416658,10.8392854191646,0,0,14.2440024113328,3.95987307229927,8.19030138651631,11.4717992408702,3.91710066311649
23,"KAHUKU","RAWS","RAWS","BI",1796.4912,19.23222222,-155.78,NA,"KRCH1","32639544",NA,NA,0.507999999999925,0.254000000000019,0.254000000000019,9.39800000000002,1.01599999999996,0,0,0,0,0,NA,NA,NA,2.79399999999998,NA,NA,5.33400000000006,0,4.06399999999985,0.762000000000057,1.26999999999998,0.254000000000133,NA,10.4139999999999,7.61999999999989,9.39800000000014,11.1759999999999,7.11200000000008,7.11199999999997,7.11200000000008,0.253999999999905
26.2,"KEALAKEKUA 26.2","GREENWELL ESTATE","COOP","BI",442,19.48975723,-155.9122125,"USC00513977",NA,NA,NA,NA,2.344865315217,0,0,NA,0.468973063042392,0.8,3.08565081770927,2.57935184673862,1.64140572065215,0,0,3.75178450434838,0.8,1,15.2416245489109,4.92421716195561,0.390810885869641,4.24378441671862,2.19723113159491,5.1,6.4,0,1.40691918913053,7.73805554021585,6.63098356852383,1.40691918912969,1.8,4.44471301495195,NA,0.234486531521616,0.655380736810815
27,"HONAUNAU 27","TANAKA S","COOP","BI",332,19.4403158,-155.8788789,"USC00511665",NA,NA,NA,NA,NA,NA,0,NA,NA,3,0.5,NA,NA,0,0,NA,0,0.919751871942037,NA,NA,0,10.2,2.02090744637374,1.3,0.5,NA,NA,NA,8.1,NA,3.8,3,NA,NA,1
27.6,"Honaunau No. 2","NWS","HydroNet-UaNet","BI",398.0688,19.4629002,-155.8824,NA,"HAUH1","15D12742",NA,NA,2.03199999999924,0,0,NA,0.762000000000626,0,7.36599999999908,2.79400000000078,0,0,NA,2.03200000000106,7.11199999999917,NA,16.6180131453425,5.36889655464888,1.27830870348831,1.78963218488327,NA,NA,2.30095566627822,0,1.53397044418578,8.43683744301954,4.85757307325392,1.53397044418487,NA,6.13588177674131,NA,0.255661740697478,0
29.12,"Kealakekua","NWS","HydroNet-UaNet","BI",537.972,19.5181007,-155.9159,NA,"KLEH1","81708572",NA,NA,2.53999999999996,0,0,NA,0.507999999998901,0,6.09600000000046,2.79399999999987,1.77800000000025,0,0.789035791414142,4.06400000000122,1.01599999999962,1.083217864803,16.5100000000002,5.33399999999983,1.27000000000044,1.77800000000025,2.38008001484491,6.70738451231826,2.28600000000006,0,1.52400000000034,8.38199999999961,4.82600000000002,1.52399999999943,1.9497921566454,6.09599999999955,NA,0.253999999999905,0
34,"Kapapala Ranch","NWS","HydroNet-UaNet","BI",638.556,19.2754993,-155.4514,"USC00513300","KAYH1","B16097C4",NA,NA,0,0,0,0,0,0,0,0,0,4.82600000000002,1.27000000000044,0,0,0,6.09599999999955,10.6679999999997,0.254000000000815,2.28599999999915,0,0,0,0,12.1920000000009,0,0,0,6.34999999999945,0,8.38199999999961,10.1600000000008,10.1599999999999
36.3,"KAPAPALA RANCH","KAPAPALA RANCH","RAWS","BI",1081,19.25811,-155.441781,NA,"KPRH1","AA10E258",NA,NA,0,0,0,0,0,0,0,0,0,1.01599999999996,0.762000000000057,0,0,0,1.26999999999998,2.03200000000015,0.253999999999905,3.30199999999991,0,0,0,0,8.63600000000008,0,0,0,1.77800000000002,0,3.80999999999995,9.65200000000004,4.82599999999991
38.9,"KAELAKOMO","KAELAKOMO","RAWS","BI",29.5656,19.29277778,-155.1075,NA,"KMOH1","32807432",NA,NA,0.761999999999944,0.254000000000133,0,NA,0,0,0,0,0,0.253999999999905,2.54000000000019,0,0,0,0,0,0,9.906,0,0,0,0,6.858,0,0,0.508000000000003,8.128,0,0,0,0.254000000000001
39,"Mauna Loa Observatory","NWS","ESRL/GMD","BI",3397,19.5362,-155.5763,"USC00516198","MOBH1",NA,NA,NA,NA,NA,0,0,0,0,NA,NA,NA,0,NA,2.3,NA,NA,NA,NA,1.5,0,0,NA,NA,NA,NA,NA,0.3,0,0,NA,NA,NA,0
39.2,"MAUNA LOA 5 NNE","MAUNA LOA 5 NNE","USCRN","BI",3398,19.5354,-155.576,"USW00021514","MLBH1","CD07379A",NA,NA,0,0,0,0,0,0,2,1.4,0,NA,3.6,0,0,0,0.2,1.1,0,0,0,0,0,0,NA,0,0,0,0,0,0,0,0
43.3,"PUHE CS","PUHE CS","RAWS","BI",34.126,20.025,-155.8211111,NA,"PHRH1","32D61558",NA,NA,1.01599999999999,0,0,NA,0,0,0,2.79399999999998,0,0,5.08000000000001,0,0.762,9.14400000000001,3.81,0.253999999999962,2.03200000000004,0,0,0,0,0,NA,0,NA,0,0,0.254000000000019,1.77799999999996,1.01600000000002,0
47,"KEMOKU LAVA FLOW","RAWS","RAWS","BI",1706.88,19.47555556,-155.3627778,"USR0000HKEA","KKUH1","FA4447E8",NA,NA,0,0,0,0.254000000000133,0,0,0,0,0,0,4.06400000000008,0,0,0,0.508000000000038,8.12799999999975,10.668,2.794,0,0,0,9.144,4.064,0.508000000000003,0.253999999999998,0,0,0,1.01599999999999,1.524,7.62
48,"PALI 2","RAWS","RAWS","BI",847.344,19.3175,-155.2922222,"USR0000HPAL","PLIH1","FA900222",NA,NA,NA,0,0.25408935546875,NA,0,0,0,NA,0,NA,4.06396484375,NA,0,NA,2.2860107421875,NA,NA,3.04797409765625,NA,NA,NA,NA,NA,NA,NA,0,NA,NA,NA,NA,2.28601078828125
55.6,"VOLCANO 4.0","COOP","COOP","BI",1194.8,19.441359,-155.2487445,"US1HIHI0071",NA,NA,NA,NA,NA,NA,NA,NA,NA,NA,NA,NA,0.8,0.8,4.8,11.2,0.5,0.3,1.3,3,5.8,0.8,6.9,0.3,0.3,0.3,6.4,NA,1.8,6.1,1,4.8,5.8,0.3,0
63,"KALOKO-HONOKOHAU","RAWS","RAWS","BI",7.62,19.67277778,-156.0202778,NA,"KHOH1","FA667668",NA,NA,0,0,0,7.36599999999993,3.81000000000006,2.03199999999998,0,2.03199999999998,0,0,0.254000000000019,7.87400000000002,0,0,9.65199999999993,5.08000000000004,NA,0.762,2.53999999999996,0,0,0,0,NA,5.33400000000006,0,3.81,9.14399999999995,NA,0,0
65.4,"PAHOA 2.1 E","PAHOA 2.1 E","CoCoRaHS","BI",137,19.5043,-154.9165,"US1HIHI0003",NA,NA,NA,NA,9.4,5.6,8.4,35.3,15.7,6.9,1.3,0.3,0.5,25.5248352413207,29.5,7.4,4.3,10.2,3.6,5.3,0.5,8.4,8.17764869542643,1.73331287581271,1.70781763965093,3.6,0.5,7.1,8.4,10.7,25.043510432002,9.7,4.6,0.3,0.3
65.6,"KURTISTOWN 6.6 SSE, HI US","CoCoRaHs","CoCoRaHs","BI",339.63,19.5021,-155.029,"US1HIHI0055",NA,NA,NA,NA,10.4,13.7,15,28.7,13,11.7,7.83282752876153,1.3,0.8,15,36.1,8.61739697831843,11.9,7.1,5.1,0.5,0,6.1,9.97262190914632,3.6,2.5,10.2,1,30.248597185885,2.5,17.5,18.8,14.7,10.4,0.8,0
67.7,"PAHOA 2.7 SSE","PAHOA 2.7 SSE","CoCoRaHS","BI",259,19.4654,-154.927,"US1HIHI0051",NA,NA,NA,NA,11.9,8.4,7.4,19.3,10.9,7.6,6.1,0.5,0.8,21.1,27.9,15,9.9,5.6,3.3,3.8,0.3,6.6,9.7,2.3,3.8,3.6,0.8,9.4,8.6,8.4,17.3,7.6,5.1,0.3,0
68.14,"HONOKOHAU HARBOR 68.14","COOP","COOP","BI",9,19.67944,-156.02333,"USC00511880",NA,NA,NA,NA,0,0,0,0,9.9,2.3,0,1.3,0,0,0,6.9,0,0.5,7.9,NA,5.8,0,10.2,0,1.5,0,5.1,2.5,2.5,0,NA,2,7.9,0,0
68.21,"KAILUA KONA KE AHOLE AIRPORT","KAILUA KONA KE AHOLE AIRPORT","NWS","BI",27,19.73556,-156.04889,"USW00021510","PHKO",NA,NA,NA,0,NA,0,1.3,0.3,0,NA,0,0,0.3,1,0,NA,0,6.1,NA,NA,0.3,0,0,0,0,0,0,2,0,3.3,0,0,0,NA
69.25,"Palamanui","Hilo Forest Service","HIPPNET","BI",297,19.73756,-155.99582,NA,NA,NA,NA,NA,0.254,0,0,0.762,0.254,0.762,0,0,0,1.27,0,0,0.254,0.254,9.906,NA,0,0.508,0,2.54,0,2.54,0,0.508,3.302,0.254,9.398,2.54,2.032,0,0
69.27,"KALAOA 1.7","KALAOA 1.7","CoCoRaHS","BI",304.5,19.7238,-155.9926,"US1HIHI0006","","",NA,NA,0.3,0,0,1,2.5,1,0,0,0,0,1.5,0,0,1.3,NA,NA,NA,0.5,0.8,7.9,0,0,0.8,1,6.4,0.5,NA,4.8,1.3,8.9,0
69.28,"Kailua-Kona HI US G0154-W6SPO-13 ","unknown","APRSWXNET","BI",0,19.707,-155.978,NA,"G0154",NA,NA,NA,1.26999998092651,NA,3.0479998588562,2.03200006484985,0.761999951362613,NA,NA,NA,0.76199996471405,NA,0.254000008106232,2.28600001335144,1.77799999713898,3.81000018119812,NA,NA,10.4139995574951,5.07999992370606,0.508000016212463,11.1759996414185,0.76199996471405,2.53999996185303,2.28600001335144,5.58799982070923,11.1759996414185,NA,NA,NA,NA,NA,NA
69.51,"Kailua Kona HI US E6648-EW6648 ","unknown","APRSWXNET","BI",164.05,19.61,-155.96,NA,"E6648",NA,NA,NA,NA,NA,NA,NA,3.0480003356934,NA,6.34999990463257,6.60400006771088,NA,0,NA,1.523998260498,0.254000012820282,9.65199918365478,36.575997826172,1.26999917984008,NA,1.5240002264252,12.9540016945434,0.253999729431101,NA,0.254000008106232,NA,NA,6.34999990463262,NA,NA,NA,1.77799859046929,2.5399999051094,10.9219999694824
70.16,"Waiaha Stream","NWS","HydroNet-UaNet","BI",460.5528,19.6331997,-155.9486,NA,"WIHH1","9321011E",NA,NA,3.55600000000004,0,0,NA,0.762000000000171,0,6.86831200684536,7.87400000000002,0.253999999999905,0,1.77800000000002,1.52400000000011,1.52399999999989,NA,30.7340000000002,3.55600000000004,1.43089833475984,1.26999999999998,NA,8.88999999999987,2.57561700256688,0.508000000000038,5.84199999999987,28.4479999999999,5.43741367208552,3.048,NA,8.63599999999997,NA,0.761999999999944,0
70.7,"Puuwaawaa","Hilo Forest Service","HIPPNET","BI",1659,19.72544,-155.87389,NA,NA,NA,NA,NA,NA,0,NA,0.254,1.27,NA,0,NA,0,2.286,2.032,NA,0.254,2.286,21.59,NA,7.112,4.064,NA,0.508,0.254,6.35,NA,NA,2.794,6.096,7.112,5.334,7.112,0,0.254
74.8,"KEALAKEKUA 4 74.8","COOP","COOP","BI",433,19.5106,-155.9217,"USC00513987",NA,NA,NA,NA,2.6679775303326,0,0,NA,0.533595506065374,1.54048020368979,3.51084004470377,2.93477528336577,1.86758427123311,0,0,4.26876404853351,0.659142507849921,1.13779563927138,17.3418539471624,5.60275281369837,0,0,2.5,3.70547310173334,3.43386862841499,0,1.60078651819994,8.80432585009731,7.54470418834657,1.60078651819899,3.37444533845734,5.05717508622506,NA,0.266797753033164,1
75.1,"PTA KIPUKA ALALA","RAWS","RAWS","BI",1641.348,19.66694444,-155.7077778,"USR0000HPTK","PKAH1","32666200",NA,NA,0,0,0,0,0,0,0,0,0,0,0.254000000000048,0,0,0,1.26999999999995,8.12800000000001,0.253999999999991,2.79399999999998,0.254000000000048,0,0,1.52399999999997,NA,0.254000000000019,0.253999999999962,0,0,0,0,0,0
83,"QuarryRainGageatSaddleRd","USGS","USGS","BI",1286.256,19.68586111,-155.2942222,NA,"SDQH1","DDF6B6E4",NA,NA,0,12.954,10.16,25.146,4.06399999999996,10.1600000000001,1.26999999999998,1.01600000000002,0.253999999999962,34.1276899038676,33.2739999999999,0.507999999999981,0.762000000000057,0,8.88999999999993,7.87400000000008,2.286,4.826,6.096,0,0,0.254000000000001,10.6992979092886,12.192,6.858,8.88999999999999,11.938,2.032,1.27,1.524,2.794
87,"HILO INTERNATIONAL AIRPORT 87","NWS","HydroNet-UaNet","BI",11.6,19.7191,-155.053,"USW00021504","PHTO",NA,NA,NA,1.3,13.7,13.5,23.6,3.8,14.2,0,0.3,7.4,22.4,17.3,3.6,4.6,3,1.3,0,0,1.5,1,0.3,2.3,7.4,6.1,4.1,3.6,8.6,17.8,4.1,0,0,0
87.5,"HILO 5 S","HILO 5 S","USCRN","BI",189,19.645,-155.0827,"USW00021515",NA,NA,NA,NA,2.8,9.6,18.1,21.4,7.1,12.7,1.7,0,7.6,17.9,35.3,4.3,6.4,4.6,1.2,0,0,4.8,1.3,0.7,0.7,1,2.67044711061133,3.7,3.8,18.5,16.7,2.8,3,0,0.7
87.9,"IPIF","Hilo Forest Service","HIPPNET","BI",111,19.69748,-155.0954,NA,NA,NA,NA,NA,6.858,15.24,20.32,23.368,7.62,13.97,1.778,1.524,10.668,21.59,26.162,11.684,4.826,10.414,0.762,0,0,3.048,0.762,2.794,0.508,2.54,4.07611040281121,6.35,6.096,14.986,25.4,6.096,1.27,0,4.572
89.13,"KAIWIKI HOMESTEAD 89.11, HI US","COOP","COOP","BI",379.67,19.7509,-155.1362,"USC00512802",NA,NA,NA,NA,4.1,20.3,23.9,27.2,10.4,13.5,10.9,1.8,1.5,58.7,42.4,5.3,6.4,8.6,1.3,0.5,1.5,1.3,11.2,3,1.8,4.1,4.3,35.500949718782,3,15.2,51.8,3.3,6.9,0.5,0
91.11,"PUNA MACADAMIA O 91.11","COOP","COOP","BI",244,19.61861,-155.08667,"USC00518315",NA,NA,NA,NA,1.04705040756349,17.8,13.7,29,6.66216376014595,11.017579585026,0.981534618031226,1.71684238548999,10.2,17.8,44.5,0,14,5.05158375451277,0.884449804570515,8.9,8.1,3.3,0,1.18906136446674,1.42008958829514,5.33253055692496,0,18.8461902930468,0,18.3,18.6331627492059,2.88655993164642,1.99933714753453,0,0
92,"KEAAU 92","PU SUGAR","COOP","BI",87,19.62918887,-155.0333418,"USC00513872",NA,NA,NA,NA,0.984977905908371,12.0648818199352,5.8,29.7,5.3,8.4,0.792585847872804,1.61506247017255,0.5,18,36.601955749113,2.86602167415628,5.98244420619179,6.40489837293967,0.832016787438296,0.3,2.53993535243559,1.48915401540462,7.6,1.11856999845347,1.33590212923575,5.75844815127027,0.3,17.728927771866,3,8.6,17.5285291831089,2.71543541381955,1.8808100379484,0.5,0
92.5,"KiholoRainGage","USGS","USGS","BI",283.96692,19.82580556,-155.8925833,NA,"KIRH1","DD60236E",NA,NA,0,0,0,0,0,0,0,0,0,0.254000000000005,0.253999999999998,0,1.77800000000001,0.253999999999998,4.572,0.508000000000003,0,1.778,0,0,0,0,2.54,0.253999999999998,0,4.064,7.62,0.507999999999999,0.508000000000001,0,0
93.12,"PUUANAHULU","RAWS","RAWS","BI",830.58,19.83277778,-155.7697222,NA,"PULH1","48703040",NA,NA,0,0,0,0,0,0,0,0,0,1.77800000000002,0,0,0,0,1.01600000000002,3.55599999999998,0,4.06399999999996,0,0,0,3.55600000000004,NA,0,0,0,0,0,0.508000000000038,0,0
93.13,"Mamalahoa","Hilo Forest Service","HIPPNET","BI",636,19.80256,-155.85062,NA,NA,NA,NA,NA,0,0,0,0,0.254,0,0,0,0,0.254,0.254,0,0,0.508,14.986,0.254,0,3.048,0,0,0,2.794,2.54,0.508,0,0,2.286,9.98553755196695,0,0,0
93.61,"PAHOA 4.7 NE, HI US","CoCoRaHs","CoCoRaHs","BI",53.95,19.5473,-154.8988,"US1HIHI0065",NA,NA,NA,NA,3.6,6.9,4.1,19.8,9.7,6.1,4.1,0.3,0.3,8.1,24.1,6.1,3.8,4.3,5.1,5.8,0,2.8,5.3,0.8,6.6,3,0,2.3,4.3,13.5,10.7,5.8,2.5,0,0
93.62,"PAHOA 5.7 NE","COOP","COOP","BI",27.4,19.5565,-154.8865,"US1HIHI0070",NA,NA,NA,NA,3,4.8,1.3,NA,NA,NA,NA,0,0,6.1,20.8,2.8,2.3,3.6,4.1,7.1,0,8.4,4.8,0,NA,NA,NA,1.5,1.8,17,7.6,3.6,6.9,0,0
93.63,"HAWAIIAN PARADISE PARK 2.4 E","COOP","COOP","BI",10.1,19.594568,-154.936038,"US1HIHI0072",NA,NA,NA,NA,2,10.9,NA,21.1,6.1,6.1,0,0,3.8,11.9,40.6,0,2.8,2.5,1.3,NA,NA,NA,NA,NA,NA,NA,NA,2.5,NA,15,25.7,2.5,2.8,0,0
93.64,"KEAAU 5.5","COOP","COOP","BI",18,19.613803,-154.955684,"US1HIHI0068",NA,NA,NA,NA,2.5,12.7,4.3,22.6,7.9,5.3,0.5,3,1.3,10.2,15,NA,1.5,10.2,3.3,9.4,0,4.8,4.6,2.8,1.8,2.5,0,5.1,1.8,10.7,15.7,7.4,5.6,0.3,0
93.8,"KONA VILLAGE 93.8","KO VILLAGE RES","COOP","BI",12,19.8314012,-155.9858256,"USC00514765",NA,NA,NA,NA,0,0,0,0,1.3,0,0,0,0,0,0,0,0,0,0,0,0,0,0,0,0,2,0,0,0,0,0,0.3,0,0,0
94,"KAUPULEHU LAVA FLOW","RAWS","RAWS","BI",372.1608,19.80333333,-155.9180556,NA,"KPLH1","4870E628",NA,NA,0,0,0,0,0,0,0,0,0,2.286,0,0,0.762,0,1.77800000000002,6.096,0,0,0,0,0,0,1.01599999999999,0,0,1.01600000000002,5.58799999999997,0,6.096,0,0
94.5,"PUU WAAWAA","RAWS","RAWS","BI",708.9648,19.795,-155.8452778,"USR0000HPUW","PWWH1","487046D0",NA,NA,0,0,0.254000000000076,0,0,0,0,0,0,0.762,0.253999999999962,0,0.507999999999981,0.254000000000019,13.208,0,0.507999999999981,5.07999999999998,0.254000000000019,0,0,3.81,4.31800000000004,0.253999999999905,0,0.508000000000095,1.01599999999996,9.14400000000001,0.254000000000019,0,0
95.11,"WAIKOLOA VILLAGE 2.7 ENE","WAIKOLOA VILLAGE 2.7 ENE","CoCoRaHS","BI",265,19.9465,-155.7883,"US1HIHI0047",NA,NA,NA,NA,0,NA,0,0,0,0,0,0,0,0,0.5,0,0,0,NA,1.8,0.5,0,0,0,0,NA,NA,10.2,0,0,0,NA,0,0,0
95.6,"WAIKOLOA","RAWS","RAWS","BI",297.7896,19.92416667,-155.7936111,NA,"WKVH1","4870C0C4",NA,NA,0,0,0,0,0,0,0,0,0,0,0,0,0,0,1.01599999999999,3.81000000000001,0,6.858,0,0,0,2.032,NA,0,0,0,0,0,0,0,0
95.8,"WAIKOLOA 95.8","BOISE CASCADE","COOP","BI",268,19.93389178,-155.7877744,"USC00519142",NA,NA,NA,NA,0,NA,0,0,0,0,0,0,0,0,1.3,0,0,0,NA,1.29982657540724,3.6,0,4.1,0,0,NA,NA,7.36568392730769,0,0,0,NA,0,0,0
95.9,"WAIKOLOA BEACH RT 95.9","COOP","COOP","BI",24,19.91278,-155.87778,"USC00519144",NA,NA,NA,NA,0,0,0,0,0,0,0,0,0,0,0.8,0,0,0,0,0.8,0,0,4.8,0,0,0,NA,5.6,0,0,0,0.5,0,0,0
98.2,"PUHO CS","PUHO CS","RAWS","BI",29.5656,19.42194444,-155.9075,NA,"PERH1","32D6803A",NA,NA,NA,0,0,NA,NA,0,0,NA,0,0,2.54000000000001,NA,0,NA,NA,1.77799999999999,1.524,NA,NA,NA,0,0.254000000000005,NA,NA,NA,NA,NA,NA,NA,0,NA
98.91,"HOLUALOA 0.95","COOP","COOP","BI",527.3,19.6225861,-155.927558,"US1HIHI0067",NA,NA,NA,NA,6.6,1.8,NA,0.5,NA,0.5,NA,8.6,6.4,0,NA,5.8,NA,5.6,NA,NA,NA,NA,9.9,NA,NA,7.1,1.5,42.4,NA,NA,NA,NA,9.9,NA,0.5
99,"PTA WEST","RAWS","RAWS","BI",1307.592,19.77166667,-155.7022222,"USR0000HPTW","PKWH1","32667176",NA,NA,0,0,0,0,0,0,0,0,NA,0.507999999999981,0,0,0,0,0.762000000000029,NA,1.27000000000001,7.11199999999999,0.253999999999991,NA,0,1.27000000000001,NA,0,0,0,0,0,0,0,0
102.8,"AUHMOA","RAWS","RAWS","BI",2001.9264,19.83638889,-155.6130556,NA,"AHMH1","4870D3B2",NA,NA,0,0,0.254000000000019,0,0,0,0,0,0,4.06399999999999,0,0,0,0,0.762,NA,0.762,3.30200000000002,0,0,0,5.84199999999998,NA,0.50800000000001,0,1.01599999999996,0,0,0,0,0
107.4,"PTA EAST","RAWS","RAWS","BI",1959.864,19.68277778,-155.5452778,"USR0000HPTA","PTAH1","3266D18E",NA,NA,0,0,0,0.253999999999962,0,0,0,0,0.508000000000038,NA,6.096,0,0,0,2.53999999999996,4.82600000000002,1.524,1.26999999999998,0.253999999999962,0,0,0.762000000000057,NA,0.254000000000076,0,0,0.253999999999962,0,0,0,0
109,"PTA RANGE 17","RAWS","RAWS","BI",1734.312,19.74583333,-155.6261111,NA,NA,"3279630C",NA,NA,0,0,0,NA,0,0,0,0,0,0,0,0,0,0,0,4.06399999999999,0.253999999999991,0.50800000000001,0,0,0,1.77799999999999,NA,0,0,NA,0,0,0,0,0
111,"HALEPOHAKU 111","STATE DIV FTRY","COOP","BI",2811,19.76029046,-155.4555569,"USC00511065",NA,NA,NA,NA,NA,NA,0,NA,NA,0,0.3,0.3,0.3,NA,NA,NA,NA,NA,1.5,NA,10.2,NA,NA,0.3,NA,NA,6.1,2,7.1,1.3,2.5,0,NA,0,0.3
113.2,"PUU MALI","RAWS","RAWS","BI",2165,19.92666,-155.44,NA,"PMLH1","3181742E",NA,NA,0,NA,NA,NA,NA,NA,NA,0,0,NA,NA,NA,0,NA,0.762000000000057,4.572,5.84199999999998,3.04799999999994,0,0,0,NA,NA,NA,NA,NA,2.03199999999993,0,0,0,3.55600000000004
127.5,"Laupahoehoe","Hilo Forest Service","HIPPNET","BI",1145,19.93217,-155.29129,NA,NA,NA,NA,NA,0.254,19.558,35.56,39.116,2.286,11.684,1.778,2.54,2.794,80.8491728640214,23.876,1.27,2.794,4.064,8.128,3.556,0,2.54,5.842,2.032,5.842,11.684,5.842,14.732,8.05909894664384,12.446,8.636,0.508,0.508,0,4.064
129,"HAKALAU","RAWS","RAWS","BI",1950.72,19.82111111,-155.3305556,"USR0000HHAK","HKUH1","8374D370",NA,NA,0,7.73488472538334,10.7396998553482,14.0685582991054,1.52400000000011,5.86109898756327,0,0,0,8.51614444997227,13.3997056863006,0,0,0,1.26999999999998,4.06399999999985,5.58800000000019,2.28599999999983,0.508000000000038,0,0,2.32226592786342,11.4300000000001,4.57199999999989,6.60400000000004,3.30200000000013,6.85799999999972,1.77800000000002,1.27000000000021,2.28599999999983,4.57200000000012
132.2,"Spencer","Hilo Forest Service","HIPPNET","BI",454,19.96358,-155.25014,NA,NA,NA,NA,NA,10.922,26.162,36.83,20.066,7.34791821347194,19.304,1.016,1.524,11.43,101.854,37.592,1.778,7.366,10.16,0.254,0,0,7.112,6.604,2.286,8.89,10.16,12.954,19.812,4.826,12.1662542701659,13.716,1.524,2.032,0,0
132.6,"Laupahoehoe, HI US F9660-FW9660","unknown","APRSWXNET","BI",334,19.9672,-155.2367,NA,"F9660",NA,NA,NA,8.12800025939941,13.2079994888304,13.9699964523315,15.4939979019164,NA,17.2719967651368,2.2860012054442,1.5240000486374,NA,88.1379804611206,34.5440101623536,1.77800170326236,8.88999927330016,8.88999938964846,0,0,0,7.62000036239624,3.80999902670902,NA,9.65199926744232,9.1439998855591,15.7480000853539,16.5100012435913,2.28599977493295,NA,NA,5.58799982070923,0.762000179290769,0,0
133.3,"Laupahoehoe","NWS","HydroNet-UaNet","BI",499.872,19.9792,-155.2372,NA,"LPHH1","B159741A",NA,NA,7.11200000000008,13.7160000000003,9.39800000000014,12.192,6.09600000000046,17.5259999999998,1.52399999999943,0.762000000000626,9.14399999999932,67.0560000000005,29.4639999999999,2.53999999999996,2.9930903109559,6.34999999999945,0,0,0,7.8739999999998,3.55600000000049,1.26999999999953,12.4460000000008,10.4139999999998,8.38200000000052,12.9539999999997,3.04799999999977,8.1279999999997,11.9380000000001,4.57200000000012,0.253999999999905,0,0
138.2,"KAHUNA FALLS 138.2","COOP","COOP","BI",424,19.86139,-155.16361,"USC00512595",NA,NA,NA,NA,2.5,19.1,18.0055275602388,37.6929559728135,12.7,18.8,4.35557573939099,2.8,1.00763090443101,49.990219449917,78.7,10.2,3.6,9.29475458429159,0.3,0.3,0.3,2.5,8.77155779653228,3.6,2.3,10.0334024774763,0.3,31.8,4.05299643049902,18.9513740422204,40.7748583484581,3.8,4.1,0.8,0.3
140.1,"PAPAIKOU MAUKA NO 2 140","MAU KEA SUGAR","COOP","BI",427,19.78695738,-155.1388973,"USC00517724",NA,NA,NA,NA,0.5,12.2,15.2,24.1,10.7,16.8,3.20644696064713,4.1,0.5,45,33.8,4.1,3.8,10.7,1.5,0.3,0,0,6.45736327862921,1.5,0.8,9.9,0.3,43.2,2.8,19.6,31.2,3,4.6,0.3,0
144.1,"PAPAIKOU 144.1","MAU KEA SUGAR","COOP","BI",61,19.78362447,-155.0922318,"USC00517711",NA,NA,NA,NA,0.936095655529632,11.4661287206277,21.1,16.5,5.3,9.85005908931797,0.808304703785476,1.53491053217403,3.31541541619445,21.5650972582288,34.7854825525598,2.72378742887359,5.68554888111927,6.08703759247102,0.790725655242427,2.8177180937424,0,1.41525063239789,2.70527508907556,1.06305787132599,1.26960429456242,5.47266924939349,0.165425751357875,16.8490807406864,1.60733182845292,12.7767074267233,19.2801058279786,2.5806744278224,1.78746964255643,0.228783900470627,0
147.1,"MIDDLE PEN 147.1","KAHUA RANCH","COOP","BI",421,20.10027112,-155.8322151,"USC00516270",NA,NA,NA,NA,NA,NA,NA,NA,0,NA,NA,NA,NA,NA,NA,NA,0,0,NA,NA,10.2,NA,NA,0,0,NA,NA,NA,NA,0,0,NA,NA,NA,NA
147.2,"KOHALA RANCH","KOHALA RANCH","RAWS","BI",328.8792,20.08305556,-155.8325,NA,"KHRH1","4870B654",NA,NA,0,0,NA,0,0,0,NA,0,NA,0,0.507999999999981,NA,0,0,0.254000000000019,9.14399999999995,NA,5.33400000000006,0,NA,0,0.253999999999962,NA,0,NA,0,0,NA,0,0,NA
160.3,"Upolu Airport","NWS","HydroNet-UaNet","BI",34,20.265,-155.8582,NA,"UPLH1","B15017A0",NA,NA,0,3.04800000000006,5.07999999999998,1.01600000000002,1.52399999999994,6.858,0,0,5.07999999999998,NA,5.07999999999998,0,1.01600000000002,0.253999999999962,0.507999999999981,NA,0,0,0.508000000000038,1.26999999999998,0.507999999999981,2.54000000000008,1.77799999999996,1.27000000000004,1.01599999999996,4.06400000000002,2.53999999999996,0,0,0,0
176.3,"Kahua Ranch HQ","KAHUA RANCH","HydroNet-UaNet","BI",987.552,20.1249008,-155.7884,NA,"KASH1","15D293C2",NA,NA,5.58799999999997,NA,NA,7.36599999999999,7.62000000000012,3.04799999999989,0,0,0,0.254000000000133,1.77799999999991,0.761999999999944,2.54000000000008,2.28600000000006,0.507999999999925,NA,0.254000000000019,0.508000000000038,0.762000000000057,0.253999999999905,1.77800000000002,7.89112692665877,6.90473606082657,0.508000000000152,0,1.01599999999996,1.77800000000002,0,0,0,0
178.12,"PONOHOLO RCH 178.11","PONOHOLO RCH 178.11","COOP","BI",762,20.12554592,-155.7774941,"USC00518101",NA,NA,NA,NA,NA,10.7,NA,NA,NA,NA,0,0,0,2.3,3,NA,3.3,3,0,NA,7.6,NA,1.3,NA,1.3,5.8,NA,NA,0,NA,3,0,0,0,0
185.7,"KawainuiRainGagenearKamuela","USGS","USGS","BI",1237.488,20.08533333,-155.6811667,NA,"KWSH1","DDF6A592",NA,NA,NA,NA,NA,NA,NA,NA,3.55599999999981,3.55600000000004,NA,NA,NA,3.55600000000004,11.429931640625,NA,NA,NA,NA,NA,7.36599999999999,10.6680000000001,NA,NA,NA,NA,4.82600000000008,10.922,9.906,0.762,0.254000000000001,0,0
192.7,"Kamuela Upper","NWS","HydroNet-UaNet","BI",948.5376,20.0319996,-155.6667,"USC00513080","KUUH1","817075F6",NA,NA,1.77800000000002,8.7455983202133,33.10833649795,11.1760000000002,8.12799999999993,5.78032770106633,1.77800000000002,0,0,3.80999999999995,6.60400000000027,2.28599999999983,10.6680000000001,11.4300000000001,6.09599999999978,4.18826424120626,0.163515301679025,2.79399999999987,0,6.096,5.58800000000019,10.1599999999999,8.8900000000001,7.8739999999998,1.77800000000025,2.79399999999987,1.26999999999998,0,0,0,0
192.9,"PUUKAPU HMSTD 192.9","COOP","COOP","BI",916,20.0375,-155.6347,"USC00518386",NA,NA,NA,NA,0,8.15453903066335,26.3911455205154,12.2100374354191,2.8,5.6,8.4,0.3,0,4.3,14.2,4.8,0.3,5.8,4.3,4.8,0,0.8,1.3,1.5,3.6,13.2,7.0702679703838,6.1,4.1,0.8,2,0.8,0,0,0
201.3,"Kamuela 1","NWS","HydroNet-UaNet","BI",877.824,20.0394993,-155.6084,NA,"KMUH1","81706680",NA,NA,0.253999999999905,7.11200000000008,26.924,6.35000000000036,3.04799999999977,7.11200000000008,3.5718282991008,0.253999999999905,2.03200000000015,9.65200000000004,5.33399999999983,0.253999999999905,2.03200000000015,5.33399999999983,2.53999999999996,3.55600000000049,0,1.27000000000044,0,2.53999999999905,7.11200000000008,21.3360000000002,7.22942875776386,1.52399999999943,1.52400000000034,0.507999999999811,0.50800000000072,0,0,0,0
215.5,"Honokaa","NWS","HydroNet-UaNet","BI",591.9216,20.0656,-155.49,NA,"HNKH1","B15047DC",NA,NA,9.14399999999932,3.86280162679703,29.9719999999998,19.0500000000002,6.09600000000046,9.14399999999932,0.253999999999905,1.77800000000116,0,53.5940000000001,27.1779999999999,0.762000000000626,7.8739999999998,8.63600000000042,2.79399999999896,0.564641951106688,0,0.50800000000072,0,4.3179999999993,4.27951032458259,26.924,4.2912499316064,4.82600000000002,1.77800000000025,3.80999999999949,1.01600000000053,0,0,0,0
216.6,"HONOKAA 2.5 SSW","HONOKAA 2.5 SSW","CoCoRaHS","BI",757,20.0417,-155.4777,"US1HIHI0033",NA,NA,NA,NA,0.3,2.3,23.4,38.6970957548715,3.3,4.1,4.6,1.5,0.8,56.304372542388,32,7.9,0.948214074708656,7.1,10.4,6.9,0.3,0.3,1.5,1.3,2.5,21.8,11.7,2,5.3,2,2.3,0.3,0.3,0.3,0.3
216.8,"KALOPA 216.8","COOP","COOP","BI",396,20.06111,-155.43528,"USC00512982",NA,NA,NA,NA,1.3,9.7,21.8,23.1,4.1,5.8,5.1,2.3,0,41.9,34.8,1,3.8,13.5,1.1309285277054,1.3,0,0.0767862638976755,0,1.3,1.5,13.5,5.8,2.3,0.5,7.4,3.6,0,0,0,0
216.9,"HONOKAA 2.7 ESE","HONOKAA 2.7 ESE","CoCoRaHS","BI",333,20.0606,-155.43,"US1HIHI0034",NA,NA,NA,NA,1,7.6,16,23.6,2.8,6.6,5.8,2.8,0.3,38.6,38.1,2,1.5,15.7,4.0590908935234,1.3,0,0,0.851484541583873,1.8,1.5,13,7.9,1,2.3,8.6,4.6,0,0,0,0
217.2,"PAAUHAU MAUKA 217.2","COOP","COOP","BI",341,20.07306,-155.44722,"USC00517209",NA,NA,NA,NA,1.8,6.4,22.4,11.4,1,9.4,5.3,1.3,0,43.7,45.7,1,0.5,15.7,0.3,0.8,0,0,0,1.3,2,14,9.7,2.3,0,3.8,3.3,0,0,0,0
221,"PAAUILO 221","HAMAKUA MILL","COOP","BI",244,20.03860487,-155.3688913,"USC00517312",NA,NA,NA,NA,6.02434873938415,1.3,16,23.1,2.8,10.7,6.9,2.55214204666195,0,30,27.4,3,1,17.3,2.3,0.5,0,0,0,2.5,1.83054918852115,13,3,2.5,3.8,0.8,3.3,0,0,0,0
221.7,"PAAUILO 2.4 SW","PAAUILO 2.4 SW","CoCoRaHS","BI",613,20.019,-155.3988,"US1HIHI0050",NA,NA,NA,NA,0.3,3.6,30.5,72.9,2.5,2.8,4.1,0.5,0.363926270510103,56.1990473589842,39.1,10.2,0.5,5.1,1,3,0.0998129360498165,0.3,1,1,2,19.6367526761612,11.2,1.5,4.1,4.3,2.5,0.3,0,0,0
249.1,"MAKENA GOLF CRS 249.1","MAKE GC","COOP","MA",30,20.6420893,-156.4388486,"USC00515842",NA,NA,NA,NA,NA,NA,0,NA,NA,0,NA,NA,NA,0,NA,0,0,NA,NA,NA,NA,NA,2.5,NA,NA,NA,NA,0.5,0,0,0,NA,NA,NA,0
250,"ULUPALAKUA RANCH 250","ULUPALAKUA RANCH","COOP","MA",579,20.648174,-156.398497,"USC00518760",NA,NA,NA,NA,NA,NA,0,0,0,0,NA,NA,NA,0,0,0,0,NA,NA,NA,5.8,6.4,NA,NA,NA,NA,NA,7.4,NA,NA,NA,NA,NA,NA,0
250.2,"Ulupalakua Ranch","NWS","HydroNet-UaNet","MA",581.5584,20.6487999,-156.3981,NA,"ULUH1","8170531A",NA,NA,0,0,0,0,0,0,0,0,0,0,0,0.254000000000019,0,1.01599999999996,NA,5.58799999999997,6.09600000000012,8.63600000000008,0,0,0,0,6.85799999999983,NA,0,0,0,3.04800000000012,2.28599999999994,0,0.508000000000038
255,"KepuniGulchRainGage","USGS","USGS","MA",225.552,20.6195,-156.2518889,NA,"KPNH1","F000D4EA",NA,NA,0,0,0,0,0,0,0,0,0,0,0,0,0,0,0,0,0,0,0,0,0,0,1.016,0,0,0,0,0,0,0,0
267,"KULA HOSPITAL 267","KULA SATORIUM","COOP","MA",916,20.70013977,-156.3555187,"USC00515004",NA,NA,NA,NA,0,0,0,0,0,0,0,0,0,0,0.3,0,0,0,0,1.3,NA,1,NA,0,0,0,NA,NA,0.5,0,0,0,0,0,0
267.8,"KULA 1","KULA 1","RAWS","MA",1998.5736,20.68305556,-156.3216667,NA,"KLFH1","AA10F12E",NA,NA,0,0,0.507999999999925,0.254000000000133,0.253999999999905,0,0,0,0,0,0,0,0,2.03200000000004,0.253999999999905,6.09600000000012,3.048,NA,0.254000000000019,0,0,0.253999999999905,3.30200000000013,0.253999999999905,0.508000000000038,0.508000000000038,1.524,0.253999999999905,0,0.508000000000038,0
279,"POHAKAU PALAHA HN-161","HaleNet","HaleNet","MA",2460,20.73061111,-156.1413056,NA,NA,NA,NA,NA,0,0.254,4.318,1.27,8.382,2.54,0,0,0,0,0.254,0,3.048,0,0.762,0,0.762,3.556,2.286,0,0,NA,NA,NA,NA,NA,NA,NA,NA,NA,NA
302,"MAALAEA BAY","NWS","STATE","MA",302,20.7903,-156.514,NA,"P36","15DF05C6",NA,NA,0,0,0,0,NA,0,0,0,0,NA,NA,0,0,0,0,0,0,0,0,NA,0,9.14399999999995,4.06400000000002,0,0,0,0,0,0,0,0
311.2,"Kealia Pond NWR","Kealia Pond NWR","RAWS","MA",3.6576,20.7975,-156.4772222,NA,"KPDH1","32B2C438",NA,NA,0,0,NA,NA,NA,NA,0,0,NA,0,NA,NA,NA,0,0,0,NA,NA,NA,NA,0,NA,7.11199999999999,0,0,0,0,0,0,0,0
311.5,"Kihei 2","NWS","HydroNet-UaNet","MA",54.5592,20.7061005,-156.437,NA,"KHIH1","93202508",NA,NA,0,0,NA,0,0,NA,0,0,0,NA,0,NA,NA,0,0,0.762000000000057,0,0.253999999999905,0,0,0,0,1.524,NA,NA,NA,NA,0,0,0,NA
324.7,"Kula Branch Stn","NWS","HydroNet-UaNet","MA",944.88,20.7577991,-156.3217,"USC00515000","KBSH1","93220610",NA,NA,NA,0,0,0,0,0,0,0,NA,NA,0,0,0,0,0,NA,0.508000000000038,1.77800000000002,0,NA,0,0,1.77800000000002,0.507999999999811,0,0,0,0,0,0,NA
329,"LOWER KAHUKU CS","BD OF A&F","STATE","MA",1149,20.80179746,-156.2805211,NA,"LKHH1",NA,NA,NA,3.12500025856366e-10,NA,0.2540283828125,NA,NA,0.2540283421875,0.76202392609375,0.50793459609375,2.96875000138641e-08,7.36602783203125,NA,1.26995849375,NA,0.253906640625001,1.778076171875,NA,NA,2.031982421875,1.0159912328125,3.80999755859375,0.2539673265625,NA,9.90606689453125,NA,2.28594970703125,NA,NA,NA,NA,NA,0
337,"south rim","south rim","CraterNet","MA",2898,20.703948,-156.241101,NA,NA,NA,NA,NA,0,0,0,0,0,0,0,0,0,0,0,0,0.2,0,0,0,1.2,0.2,0,0,0,11,1.8,0,0,0,0,0,0,0.2,0
337.1,"Sliding Sands","Sliding Sands","CraterNet","MA",2697,20.714563,-156.2394,NA,NA,NA,NA,NA,0,0,0,0,0,0,0,0,0,0,0,0,0.2,0,0,0,0.4,0.2,0,0,0,4,0.4,0.2,0,0,0,0,0,0,0
337.12,"Puu Alaea","Puu Alaea","CraterNet","MA",2282,20.73782363,-156.1453106,NA,NA,NA,NA,NA,0.4,1.6,NA,6,7.6,0.4,0,0,0,0.4,2.8,0.6,NA,0.6,2.4,0,1.8,1,1,0,0,51,17.2,2.4,5.6,7,6.8,1,0.6,0.2,0.4
337.13,"Paliku","Paliku","CraterNet","MA",1927,20.71236611,-156.1437572,NA,NA,NA,NA,NA,0,1.2,11.6,5,NA,2.8,0,0,0,0,0,0,1.4,0,0,0,1.2,5.8,3.8,0,0,NA,41,6,3.8,3.6,5.8,0.8,1.6,0.2,0
337.2,"Puu o Pele","Puu o Pele","CraterNet","MA",2424,20.709651,-156.224485,NA,NA,NA,NA,NA,0,0,0,0,0,0,0,0,0,0,0,0,0,0,0,0,0,0,0,0,0,6.6,2,0.2,0,0,0.2,0,0,0,0
337.3,"Lava lake","Lava lake","CraterNet","MA",2270,20.718443,-156.212261,NA,NA,NA,NA,NA,0,0,0,0,0,0,0,0,0,0,0,0,0,0,0,0,0.4,0,0,0,0,9.2,3,0.4,0,0,0,0.2,0,0,0
337.4,"Silversword loop","Silversword loop","CraterNet","MA",2186,20.731704,-156.205387,NA,NA,NA,NA,NA,0,0,0,0.2,0,0,0,0,0,0.2,0,0,1,0,0,0,0.6,0,0.2,0,0,19.4,1,0.2,0,0,0.2,0,0,0,0
337.5,"Leleiwi","Leleiwi","CraterNet","MA",2722,20.74337371,-156.2288651,NA,NA,NA,NA,NA,0,0,1.2,0.2,0.8,NA,0,0,0,3.2,NA,0,3.6,0,0,0,4.8,1.8,NA,0,0,17,1.4,1,0.2,1,2.8,0,0,0,0.2
337.6,"Puu Nole","Puu Nole","CraterNet","MA",2261,20.717807,-156.188007,NA,NA,NA,NA,NA,0,0,0.2,0,0.2,0.2,0,0,0,0,0,0,0.8,0,0,0,1,0.2,0.2,0,0,6.96781722528244,2.6,0.2,0,0,0.4,0,0,0,0
337.7,"Hanakauhi","Hanakauhi","CraterNet","MA",2645,20.73567887,-156.1754875,NA,NA,NA,NA,NA,0,0,2.8,0.6,0.4,0,0,0,0,2.8,0.4,0,3.6,0,0,0,3.4,2.2,NA,0,0,29.6,10.8,0.4,0.2,1.4,2.6,0.2,0,0,0
337.8,"Aloha Park","Aloha Park","CraterNet","MA",2455,20.73555054,-156.1587809,NA,NA,NA,NA,NA,0,0.2,NA,2.6,3.4,0,0,0,0,1.6,0.6,0,6.4,0,0.6,0,1,1.4,0.6,0,0,43.2,12.8,1.2,2.4,3.4,4.2,0.6,0.2,0.4,2.6
337.9,"Laie","Laie","CraterNet","MA",2051,20.7229056,-156.1544823,NA,NA,NA,NA,NA,NA,NA,NA,NA,NA,NA,NA,NA,NA,NA,NA,NA,NA,NA,NA,NA,NA,NA,NA,NA,NA,NA,17.4,0.4,NA,0.8,1.8,0,0,0,0
338,"HALEAKALA RANGER STATION 338","HAWAII T PARK","COOP","MA",2143,20.75846738,-156.2455233,"USC00511004",NA,NA,NA,NA,0,0,0,0.3,0,0,0,0,0,NA,3,0,2.5,1.3,0,0,NA,NA,2,0,0,NA,NA,NA,0,0,1.8,0.3,0,0,0
339.4,"PARK HQ HN-151","HaleNet","HaleNet","MA",2120,20.75980556,-156.2481667,NA,NA,NA,NA,NA,0,0,0,0.254,0,0,0,0,0,1.016,0,0,2.794,0,0,0,2.62723925279982,2.032,0.254,0,0,14.224,1.63984539168641,0.254,0,0.254,1.016,0,0,0,0
339.5,"NENE NEST HN-152","HaleNet","HaleNet","MA",2590,20.73819444,-156.2458333,NA,NA,NA,NA,NA,0,0,0,0,0,0,0,0,0,0,0,0,1.27,0,0,1.016,4.572,0.508,0,0,0,7.112,1.27,0,0,0,0,0,0,0,0
339.6,"SUMMIT HN-153","HaleNet","HaleNet","MA",2990,20.71036111,-156.25675,NA,NA,NA,NA,NA,0,0,0,0,0,0,0,0,0,0,0,0,0,0,0,0.508,2.25292056960321,0,0,0,0,7.98558330043601,0.254,0,0,0,0,0,0,0,0
348.5,"WestWailuaikiRainGagenrKeanae","USGS","USGS","MA",472.44,20.81436111,-156.1429722,NA,"WWKH1","DD5E710A",NA,NA,0.762000000000057,3.80999999999995,38.354,5.77975035417357,52.578,5.46331598364317,0.254000000000019,1.26999999999998,0,59.4124735015039,2.84714970413949,1.52400000000011,16.51,4.57199999999989,6.60400000000004,0,0,5.08000000000004,4.06399999999996,4.572,3.07285915132006,68.0719999999999,22.6060000000001,14.3876841974628,3.53831067831904,22.86,24.8920000000001,4.82600000000002,1.524,0,0
353,"Hana AP","NWS","HydroNet-UaNet","MA",19,20.7946,-156.0157,"USC00511125","HNAH1","B150314C",NA,NA,0,0,2.28600000000006,NA,4.31799999999976,NA,0,0.761999999999716,1.27000000000044,1.52399999999989,4.06400000000031,5.07999999999947,0.508000000000266,0.253999999999905,5.58799999999974,0,0,NA,0.762000000000171,1.77799999999979,0,19.8119999999999,11.1759999999999,4.06400000000076,6.09599999999955,1.77799999999979,5.58800000000065,2.0319999999997,3.04800000000023,0.253999999999451,0
361.1,"Lahainaluna","NWS","HydroNet-UaNet","MA",238.0488,20.8909,-156.6556,NA,"LAHH1","81700366",NA,NA,NA,NA,1.52399999999989,0,0,0,0,0,0,0,0,0,NA,0,0,0,3.81000000000006,0,0,0,0,0,NA,0,0,0,0,0,0.253999999999905,0,NA
380,"PuuKukuiRainGageatalt","BALDWIN PKRS","USGS","MA",1759,20.89083333,-156.6008333,"USC00514887","PKKH1","DD73556E",NA,NA,1.52400000000034,1.27000000000044,23.4516933908646,5.88623597753157,36.5426893819762,5.56397164737783,0.219742693699622,0.253999999998996,0.254000000000815,0,2.8996053453801,1.05142389089919,10.776890723684,5.5575621143815,4.25095786463179,0,1.9272427569353,4.88812610336058,1.01600000000053,2.03200000000015,1.77800000000025,69.3261526725268,33.7820000000002,8.0109681389482,1.20164522084216,23.2811706736098,15.879691288989,1.77799999999934,5.33400000000074,0.253999999999905,0
386.6,"Wailuku","NWS","HydroNet-UaNet","MA",146.9136,20.8831005,-156.5124,NA,"WUKH1","9321D776",NA,NA,0,0,0.762000000000171,0,0,0,0,0,3.55600000000004,3.80999999999995,5.07999999999993,0,NA,0,0,0,NA,0,0,NA,0,11.9380000000001,6.35000000000036,0,0,0,0,0,0.761999999999261,0.25400000000036,0
387.6,"Maui HI US AR427-AH6GR ","unknown","APRSWXNET","MA",233.76,20.875,-156.516,NA,"AR427",NA,NA,NA,NA,0,0.254000008106232,8.10623201896732e-09,NA,NA,NA,NA,3.0479998588562,NA,NA,NA,0.254000008106232,NA,NA,NA,NA,NA,NA,NA,NA,8.12800025939941,5.58799864959708,NA,NA,NA,NA,NA,NA,NA,NA
390,"WAIKAPU 390","WAILUKU SUGAR","COOP","MA",130,20.8491,-156.5092,"USC00519376",NA,NA,NA,NA,NA,NA,0.720952734520069,NA,NA,NA,NA,NA,NA,2.3,3.8,NA,1.35178637722513,NA,NA,NA,NA,NA,NA,0.270357275445026,NA,NA,NA,NA,NA,NA,1.17154819359511,NA,NA,NA,0.450595459075043
390.4,"Waikapu Country Club","NWS","HydroNet-UaNet","MA",145.9992,20.8346996,-156.5135,NA,"WCCH1","9320E016",NA,NA,0,NA,NA,NA,0,NA,0,0,0.508000000000266,NA,0.253999999999905,NA,NA,0,0,0,0.508000000000266,NA,NA,NA,NA,11.1759999999999,NA,0,NA,NA,NA,0,0,0,NA
398,"KAHULUI AIRPORT","NOAA-NWS","NWS","MA",12,20.8887,-156.41,"USW00022516","PHOG",NA,NA,NA,0,0,1.8,0.8,0,0,0,0,0,0,0,0,0.3,0.3,0,0,3.3,0,0,0,0,3.8,6.6,0,0,0,0,0,0,0,NA
426.6,"Pukalani","NWS","HydroNet-UaNet","MA",495.9096,20.8355007,-156.3307,NA,"PUKH1","15D2B52E",NA,NA,NA,0,0.761999999999944,0.254000000000019,0,0,NA,NA,0,0,0,NA,1.26999999999987,0,0,0,NA,0,NA,0,NA,NA,22.606,NA,0,0,0,NA,NA,NA,NA
457.1,"PUUKOLII 457.1","COOP","COOP","MA",128,20.93194,-156.67611,"USC00518407",NA,NA,NA,NA,0.0944402797644752,0.849639196647646,0.699592314253552,1.8,0.755522238115802,2.41767116197057,2.41767116197057,2.41767116197057,NA,0.377761119057901,NA,0,2.5,0.755522238115802,0.3,1.35994002860844,NA,0.0944402797644752,0.566641678586852,0,0.491089454775271,1.05773113336212,12.7,2.3,0.491089454775271,0.679970014304222,0.944402797644752,NA,NA,0.698534749024486,0
462.4,"KAPALUA W.MAUI AIRPORT 462.4","KAPALUA W.MAUI AIRPORT 462.4","NWS","MA",73,20.9625,-156.6753,"USC00513317",NA,NA,NA,NA,0,2,1.3,1.3,1.08158146630629,3.46106069218013,1.73053034609007,1.73053034609007,NA,1.6125214591005,2.80111615794227,0,2.92852334282956,0.916995326552496,1.32335620434008,1.16904970824332,NA,0,0.811186099729719,0.121347530851615,0.501995813909285,2.78861183077089,10.2,1.84192959911801,0.622381283797077,0.862916253237181,1.20182771679843,0,0,1,0
466,"MAHINAHINA 466","PIONEER MILL","COOP","MA",257,20.94678808,-156.6555055,"USC00515715",NA,NA,NA,NA,0.5,0.8,1.3,3.6,2,6.4,6.4,6.4,NA,1,4.67481173892029,0,6.4,2,4.1,3.6,NA,0.5,1.5,0,1.3,2.8,25.9,3.40599327281077,1.3,1.8,2.5,0,0,0.924572055968285,0
482.5,"Kahakuloa","Kahakuloa","HydroNet-UaNet","MA",335.28,20.9540997,-156.5342,NA,"KHKH1","781001B6",NA,NA,0,0,3.55600000000004,0.253999999999905,0,0,0,0,5.58800000000019,NA,4.31799999999976,0,4.31800000000021,4.57200000000012,1.52400000000034,0,NA,0,0,0,1.77799999999979,NA,NA,0,NA,NA,NA,NA,NA,NA,NA
484,"WAIEHU CAMP 484","WAILUKU SUGAR","COOP","MA",98,20.91623388,-156.5088444,"USC00519275",NA,NA,NA,NA,0,2.22199049959001,0.8,1.60695482332021,NA,NA,0,0,NA,3.6,3.8,0,1.5,0.930067362951237,NA,0.483635028734644,NA,0.948668710210262,NA,0.3,0.372026945180495,5.02236375993668,12.4054492847548,0.483635028734644,0.669648501324891,0.930067362951237,1.3,0,0,0.61805954743085,0.5
486.7,"HAIKU 3.2 SE","HAIKU 3.2 SE","CoCoRaHS","MA",416,20.92011989,-156.3071849,"US1HIMI0001",NA,NA,NA,NA,0,5.3,NA,NA,3.59372760621162,11.4999283398772,0,0,NA,4.6,8.4,0,5.8,2.5,7.36714159273382,1.3,NA,5.1,2.69529570465872,0.403196601598911,1,13.5,32.8,1.3,1.8,2.5,3.99326502747754,0,0,0,0
489,"Haiku","NWS","HydroNet-UaNet","MA",99.3648,20.9288998,-156.3225,"USC00510822","AIKH1","50A30568",NA,NA,0,0.613124336467061,5.58799999999999,2.03199999999998,4.31799999999998,2.54000000000008,0,0,5.58799999999997,NA,4.82600000000002,0.507999999999981,3.55600000000004,3.80999999999995,3.55600000000004,0,0.766405420583757,1.26999999999998,0.254000000000019,2.286,1.4561702991091,9.14400000000001,16.256,0.254000000000019,1.01599999999996,3.04800000000006,3.04799999999994,0,0,1.01600000000002,0
499.9,"KANELOA","RAWS","RAWS","KO",248.412,20.52222222,-156.5658333,"USR0000HKAN","KAOH1","32793370",NA,NA,0,0,0,0,0,0,0,0,0,0.253999999999991,0.50800000000001,0,0,0,0.254000000000019,0,0,0,0,0,0.507999999999981,0,0,0,0,0,0,0,0,0,0
524,"MOLOKAI KAUNAKAKAI MOLOKAI AIRPORT","ALOHA AIRLINES","NWS","MO",141,21.15514996,-157.0924625,"USW00022534","PHMK",NA,NA,NA,0,0,0,0,0,0,0,0,0,0,0,0,1.3,1,1,0,0,0,0,0,0,0.8,16.3,0,0,0,0,0,0,0,0
536.5,"Kaunakakai Mauka","MOLOKAI GEN HOSP","HydroNet-UaNet","MO",28.3464,21.0946007,-157.0174,NA,"KACH1","50A0F2E2",NA,NA,0,NA,NA,NA,NA,NA,NA,NA,NA,0,0,NA,NA,0,0,0,NA,NA,NA,NA,NA,0,15.748,0,NA,NA,NA,0,0.253999999999962,0,NA
536.6,"KAUNAKAKAI 3.5 ESE","KAUNAKAKAI 3.5 ESE","CoCoRaHS","MO",13,21.068,-156.963,"US1HIMI0002",NA,NA,NA,NA,NA,0,NA,NA,0,0,0,0,NA,NA,NA,0,NA,NA,NA,NA,NA,NA,NA,0,0,NA,NA,NA,NA,NA,0,NA,NA,NA,NA
538,"MOLOKAI 1","RAWS","RAWS","MO",833.0184,21.115,-156.9475,"USR0000HMLK","MLKH1","487016AC",NA,NA,0,0,1.77800000000002,0.254000000000019,0,0,0,0,0,0,0,0.253999999999905,NA,0.508000000000038,3.55600000000004,0,0.507999999999925,0,0,0,0.762000000000057,7.11199999999997,33.274,0,0,NA,0.254000000000019,0,0,0,0
541.2,"Puu ALII WEST","Puu ALII WEST","RAWS","MO",1159.764,21.14083333,-156.9022222,NA,"PAFH1","32D6062E",NA,NA,NA,2.03200000000015,13.4619999999998,5.58800000000019,NA,3.30199999999991,0.254000000000133,0.253999999999905,0,NA,3.30199999999991,1.0160000000003,5.33399999999983,7.62000000000012,NA,NA,2.53999999999996,0.761999999999944,2.28600000000006,2.03200000000015,4.82599999999979,NA,117.348,5.07999999999993,0.761999999999944,NA,4.06399999999985,0.762000000000171,1.01599999999985,NA,2.53999999999996
550.3,"MAUNALOA 3.2 NNW","MAUNALOA 3.2 NNW","CoCoRaHS","MO",93,21.1804,-157.2319,"US1HIMI0006",NA,NA,NA,NA,0,0,0,0,0,0,0,0,0,0,0,0,0.5,0,1.8,0,0,0,0,0,2.5,0,NA,NA,0,0,0,0,0.3,0,0
553,"MAKAPULAPAI","RAWS","RAWS","MO",22.86,21.20333333,-156.9661111,"USR0000HMAK","MKPH1","FA9024CE",NA,NA,NA,0,4.572021484375,NA,0.76202395859375,NA,0,0,0,0.2540283203125,NA,NA,2.53997802734375,NA,NA,NA,NA,NA,NA,1.01605224609375,0.25396728515625,1.77801513671875,33.0199585328125,0.254029824218698,NA,NA,NA,NA,NA,NA,NA
563,"KALAUPAPA 563","CIVIL AIR PATROL","COOP","MO",9,21.19014673,-156.9824624,"USC00512896",NA,NA,NA,NA,NA,NA,NA,1.8,1.3,1.8,NA,NA,NA,NA,NA,NA,5.8,NA,NA,NA,NA,1,NA,NA,NA,NA,NA,NA,0.3,NA,2.5,NA,NA,NA,NA
679,"LANAI 1","RAWS","RAWS","LA",387.096,20.87333333,-157.0063889,"USR0000HLAN","LNIH1","48702336",NA,NA,0,0,0,0,0,0,0,0,0,0.761999999999972,0.762000000000029,0,0,0,0.761999999999972,0,4.06400000000002,0,0,0,0,0.253999999999991,NA,0.254000000000048,0,0,0,0,0,0,1.26999999999998
702.7,"Kapolei-Kalaeloa AP","NWS","NWS","OA",15,21.31667,-158.06667,"USW00022551","PHJR",NA,NA,NA,0,0,0,0,0,0,0,0,0,0,0,0,0,0,0,2.5,8.9,0,0.3,0,0,0,2.8,0,0,0,0,0,0,3.8,8.4
703,"HONOLULU INTERNATIONAL AIRPORT","USWB","NWS","OA",2.1,21.324,-157.9294,"USW00022521","PHNL",NA,NA,NA,0,0.3,0,0,NA,0,0,0,0,0,0,0,0,0.3,0,3.3,1.5,0,1.5,0,0,0.3,0.3,NA,NA,0,0,0,0,0,0
703.1,"HONOLULU FIRE STATION 703.1, HI US","COOP","COOP","OA",1,21.3287,-157.9298,"USC00511925",NA,NA,NA,NA,0,0.630497869495186,0.41339289297072,0.729903594569727,0.936179452104615,1.87320008211017,0,0,0,0,0,0,0.771905206815285,0.3,0,0,0.427113037752258,1.34126675978859,0.183408949565658,0.568520375072357,0,0.169688804784119,0.3,1.3,0.3,0.588496257249628,1.61614334123117,0,0,0.169688804784119,0
705,"BERETANIA PUMP STN 705","BWS","COOP","OA",6,21.305169,-157.8522571,"USC00510211",NA,NA,NA,NA,0,0.5,0.5,1,1.5,0.5,0,0,0,0,0,0,1,0,0.8,0,7.6,0,1.8,0,0,0.3,NA,8.17989305655294,1,1,0,0.3,0.3,0,0
707.2,"EWA KALAELOA AIRPORT","LYDECKER RC","STATE","OA",14,21.30489073,-157.8305905,"USW00022551",NA,NA,NA,NA,0,0,0,0,0,0,0,0,0,0,0,0,0,0,0,2.5,8.9,0,0.3,0,0,0,1.94201272331487,0,0,0,0,0,0,3.8,8.4
707.5,"HONOLULU 2.0 SW","CoCoRaHS","CoCoRaHS","OA",12,21.3004,-157.8293,"US1HIHN0023",NA,NA,NA,NA,0,1.3,0.3,2,1.8,4.3,0,0,0,0,0,0,1.8,0.5,0.5,0,0,3,0.3,0.5,0.3,0.3,4.25275499359301,14.1630544032086,0.5,1.5,1.3,0,0,0.3,0
712.1,"MANOA 712.1","BEAUMONT MRS J","COOP","OA",61,21.31044568,-157.8147571,"USC00516122",NA,NA,NA,NA,0,2.3,2,1.5,3.8,4.93491741391472,0,0,0,0,0.5,0,7.9,2,2.5,0,0,5.6,3,2,2.5,2.5,25.2992407700528,30.5920624375243,3.3,2.5,8.1,0,3.3,1.8,0
713,"UNIV OF HAWAII 713","UH MET DEPT","COOP","OA",24,21.29933514,-157.8167017,"USC00518815",NA,NA,NA,NA,0,1,0.8,3,1.3,3.6,0,0,0,0,0,0,2,0.3,0.8,0,0,1.3,0,0.3,0.8,0.3,13.910672383897,15.4110810406677,0.5,1,2.5,0.5,0,0.5,0
715,"WAIALAE KAHALA","TINKER SPENCER","COOP","OA",15,21.27433592,-157.7880917,"USC00519185",NA,NA,NA,NA,0,0.5,1.8,1.5,0,0.3,0,0,0,0,0,0,1.8,0.5,0.3,0,0,0,0.3,0.3,0,0,NA,11.2,0,0,0,0,0,0,0
718,"PALOLO VALLEY 718","BWS","COOP","OA",302,21.32183297,-157.7717015,"USC00517664",NA,NA,NA,NA,0,2.94980368696538,3.67034369969168,0.293882145917175,10.0131935402321,3.96571203711077,0,0,0,6.4,0,0,5.98576472291206,2.3,1.5,0,24.0257227393699,0,6.6,1.5,3,7.16631886147183,93.7,64.983031003592,2,6.1,3.6,1.5,5.8,0,2.8
720.6,"HONOLULU 2.7 SSE","CoCoRaHS","CoCoRaHS","OA",113,21.285,-157.7816,"US1HIHN0010",NA,NA,NA,NA,0,0.8,1,0,0,3.6,0,0,0,0,0,0,4.1,0.3,0.8,0,0.8,0.3,0.5,0.5,0.5,1.3,5.04014998432566,12.2,0.5,0.5,0.5,0,0,0,0
721,"WILHELMINA RISE 721","BWS","COOP","OA",335,21.29766804,-157.7853133,"USC00519980",NA,NA,NA,NA,0,0,2,1.5,4.1,2.3,0,0,0,0,0,0,3,1.3,2,0,5.3,0,3.8,0.5,1,4.3,36.6,NA,1,6.6,0.3,0.5,1.8,0,0
721.4,"Palolo Fire Stn","NWS","HydroNet-UaNet","OA",59.436,21.2996006,-157.7944,"USC00517662","PFSH1","19014414",NA,NA,0,1.52400000000034,1.01599999999962,2.54000000000042,5.33399999999983,0.761999999999716,0,0,0,0.507999999999811,0,0,3.04800000000023,0.507999999999811,1.26999999999998,0,1.77800000000025,0,2.7939453125,0,1.26999999999998,3.55600000000004,34.7980000000002,NA,0.507999999999811,4.57200000000012,0.508000000000266,0,1.77799999999979,0.761999999999716,0
723.4,"PAIKO DRIVE 723.4","GRUBB DL","COOP","OA",3,21.28172556,-157.7282194,"USC00517540",NA,NA,NA,NA,0,0,1.3,0,0,0,0,0,0,0,0,1.8,0,0,0,0,0,0,0,1.8,1.8,5.3,19.3,0,0,0,0,0,0,0,1.3
723.8,"Niu Valley","NWS","HydroNet-UaNet","OA",19.812,21.2896996,-157.7332,"USC00516865","NIUH1","1900D38C",NA,NA,0,0.508000000000038,2.79399999999998,0,2.28600000000006,1.26999999999998,0,0,0,0,0,0.253999999999905,3.30200000000013,2.28599999999994,1.26999999999998,0,0.254000000000019,0,0.507999999999925,0.508000000000038,1.524,3.81000000000006,37.338,0,0,0,0.508000000000038,0,4.572,0,0
724.21,"Kamehame","NWS","HydroNet-UaNet","OA",242.316,21.3085995,-157.6791,NA,"KMHH1","190046EE",NA,NA,0,0.253999999999905,0.762000000000171,0,0.253999999999905,0,0,0,0,0,0,0.25400000000036,3.30199999999968,0.25400000000036,0,0,2.0319999999997,0,0,0,1.77799999999979,3.04800000000023,28.519751834663,0,0.25400000000036,0,0,0,0,1.01599999999962,0.25400000000036
728.2,"PALEHUA","RAWS","RAWS","OA",722.376,21.385,-158.1041667,NA,"PLHH1","4870F55E",NA,NA,0,0.254000000000019,1.27000000000004,0,0.507999999999981,0,0,0,0,0,0,0,0.253999999999962,0.762,0.254000000000019,1.26999999999992,0.731957805831966,0,1.77799999999991,0.254000000000076,1.01599999999996,1.27000000000004,2.00577720768816,1.77799999999996,0.508000000000038,0,0,0,0.761999999999944,0,3.048
734.5,"HONOULIULI STREAM TRIBUTARY NEAR WAIPAHU 4WNW","NWS","STATE","OA",195.72,21.4019,-158.067,NA,"HOUH1","DD7ED01C",NA,NA,0,0,0,0,0,0,0,0,0,0,0,0,0,0,0,0,0,0,0,0,0,0,0,0,0,0,0,0,0,0,0
742.4,"HONOULIULI PHB","FWS","RAWS","OA",1.524,21.35666667,-158.0205556,NA,"HOFH1","327BF39A",NA,NA,0,0.507999999999811,0,0,0,0,0,0,0,0,0,0,0,0,0,7.62000000000012,9.81047606913067,0,1.01600000000008,0,0,0,1.77799999999979,0,0,0,0,0,0,4.5487510105216,1.01599999999985
752.6,"WAIAWA PHB","FWS","RAWS","OA",1.524,21.38694444,-157.9811111,NA,"WWFH1","3274C092",NA,NA,0,1.01600000000001,0,0.507999999999996,0.254000000000005,0.254000000000005,0,0,0,0,0,0,0.507999999999981,0,0.762000000000015,2.99929122126831,0.253999999999991,0,0.50800000000001,0,0.254000000000005,0.253999999999991,2.032,0.561876562005955,0.254000000000005,0.254000000000005,0,0,0,1.27,0
764.6,"AIEA HEIGHTS 764.6","G FOWLER","COOP","OA",238,21.39488776,-157.91031,"USC00510123",NA,NA,NA,NA,0,4.6,0.5,2.5,3.3,4.3,0,0,0,0,0,0,1.8,1,0.8,0,0,8.1,1,3,2.5,0,9.7,31.8,0.5,0.8,11.9,0.3,4.3,0,0
764.7,"AIEA 0.7 ENE","CoCoRaHS","CoCoRaHS","OA",175,21.393,-157.9186,"US1HIHN0014",NA,NA,NA,NA,0,3,0,1,3,0,0,0,0,0,0,0,0,0.8,0.8,0,0.5,5.8,0.5,0.8,0.5,0.5,8.4,25.9,0.8,0.5,10.9,0,2.8,0,0
770,"MOANALUA 770","ROXBURGH J","COOP","OA",6,21.34794527,-157.8950332,"USC00516395",NA,NA,NA,NA,0,0.8,1,0.5,1.3,2,0,0,0,0,0,0,0.8,1.3,0.3,0,1.3,1.5,0.3,1.3,0.823789441993758,0.188433039116683,3.66077323234431,6.1,0.5,0.5,3.8,0.22636049925333,0.799401084355501,0.256668371347629,0
772.5,"Moanalua Stream","USGS","HydroNet-UaNet","OA",72.2376,21.3736,-157.8801,"USC00516400","MOAH1","1900B66A",NA,NA,0,4.3180000000001,1.01599999999996,0.508000000000038,9.14400000000001,4.06399999999985,0,0,0,0,0,0,4.3180000000001,1.01599999999996,0,4.06400000000008,5.84199999999998,1.01599999999996,3.80999999999995,1.2700000000001,3.55600000000004,3.30199999999991,41.6559999999999,8.63600000000008,1.52399999999989,2.28600000000006,1.77800000000002,6.09600000000012,0.761999999999944,0,0
773,"KAPALAMA 773","KAMEHAMEHA SCH","COOP","OA",188,21.33933391,-157.8567005,"USC00513268",NA,NA,NA,NA,0,1.98095874360283,1.3,1.8,4.6,3.6481504065318,0,0,0,0.3,0.3,0.3,1.73809625224058,0.977054595214535,0.706349497612843,0,0.586743490672413,3.31651551487829,3.6,1,1.56748464352389,0.707197181265821,7.32513189770011,31.8,1.3,0.8,5.86550002126519,0.306497421882112,1.83297145169022,0.640378950285856,0.8
775,"NUUANU RES 5 775","BWS","COOP","OA",125,21.339125,-157.835905,"USC00516933",NA,NA,NA,NA,0,0,2,0.3,9.66585501951514,2,0,0,0,0.8,0,0,5.6,2.5,0.5,1.5,20.1,0,9.9,0.3,3,4.3,59.7,42.1032309393193,0.8,4.8,3,1.5,1.5,0,0
777,"KALIHI RES SITE 777","BWS","COOP","OA",277,21.37516437,-157.8222555,"USC00512960",NA,NA,NA,NA,0,4.6,2.3,0,7.6,2.60084618365736,0,0,0,5.6,0.8,1,4.1,1,1.3,1.57630345397654,14,3.6,13.5,1.5,7.9,8.1,104.6,25.1084455376549,2.3,2.8,1.3,1.3,5.3,0.3,0.3
781.13,"KANEOHE 0.8 SW, HI US","CoCoRaHs","CoCoRaHs","OA",20,21.4039,-157.8017,"US1HIHN0027",NA,NA,NA,NA,0,2.8,0.5,0,0,9.1,0.3,0,0,0,0.8,0,1,0,0.3,0,15.2,NA,NA,3,3.8,0.8,NA,NA,0.8,0.3,0,0,0,0.3,2.3
782.3,"Nuuanu Upper","NWS","HydroNet-UaNet","OA",248.412,21.3502007,-157.8184,"USC00516938","NUUH1","156097FE",NA,NA,0,3.048,5.334,0,13.716,5.84200000000004,0,0,0,6.35000000000002,1.01600000000002,0,2.79399999999998,7.61999999999995,0.254000000000019,4.572,19.304,0,12.4459999999999,1.52400000000006,4.31799999999998,8.89000000000004,127.762,23.876,2.53999999999996,7.36599999999999,8.8900000000001,2.53999999999996,3.048,0.507999999999925,0
783,"NUUANU RES 4 783","BWS","COOP","OA",320,21.35266525,-157.807534,"USC00516928",NA,NA,NA,NA,0,0.8,4.1,0,10.2,4.1,0,0,0,3.3,1,0,1.8,4.8,0.3,3,21.8,0.3,9.9,1,5.1,7.9,139.4,21.6,2.5,3.6,6.4,3.3,4.3,0.3,0
784,"PAUOA FLATS 784","BWS","COOP","OA",549,21.33516,-157.81058,"USC00517810",NA,NA,NA,NA,0,4.8,6.6,0.5,12.1348017881049,6.15472560846611,0,0,0.3,7.1,1.5,0.3,5.8,1.5,4.3,3.3,28.6761300454735,1,14.9417737026794,1.5,8.6,7.4,144,32,3.6,9.7,7.4,4.8,10.7,0.3,0.8
785.11,"WAIHI STREAM NEAR HONOLULU 3NE","USGS","USGS","OA",108,21.3283,-157.801,NA,"WISH1","16EA459A",NA,NA,0,0,0,0,0,0,0,0,0,0,0,0,0,0,0,0,0,0,0,0,0,0,NA,0,0,0,0,0,0,0,0
785.4,"Manoa Lyon Arbo","NWS","HydroNet-UaNet","OA",151.7904,21.3330002,-157.8024,"USC00516128","MNLH1",NA,NA,NA,0,3.8,8.4,1.3,5.1,5.47551296686619,0,0,0,1.3,8.9,0.8,6.0123382249036,5.13461980812939,1.63283883011126,0.8,5.1,0.289268421144915,16.3809944188729,0,6.03416553238239,0,130.384320546683,152.4,2.5,8.9,7.67121516494801,2.5,7.6,4.6,0
787.2,"Maunawili","NWS","HydroNet-UaNet","OA",127.1016,21.3509998,-157.7668,NA,"MAUH1","19007374",NA,NA,0,1.26999999999998,4.06400000000008,0.253999999999905,2.53999999999996,1.01600000000008,0,0,0.253999999999905,8.12799999999993,1.77800000000002,0.762000000000171,2.28599999999983,1.52400000000011,4.57199999999989,4.82600000000002,NA,0.253999999999905,7.11200000000008,1.52400000000011,1.01599999999985,5.58799999999997,80.01,NA,1.52399999999989,1.01600000000008,0.507999999999811,0.508000000000266,9.39799999999991,0.254000000000133,2.53999999999974
788.1,"PALI GOLF COURSE 788.1","C&C PARKS & RECR","COOP","OA",146,21.37183016,-157.7839226,"USC00517656",NA,NA,NA,NA,NA,NA,6.9,1.3,0.8,1.8,NA,NA,0,1.8,1.3,1,2.3,NA,3.13668202045696,4.87928314293305,NA,NA,NA,NA,8.01596516339001,0,8.88726572462806,NA,5.6,1.8,0.8,0,0,0,NA
788.2,"St Stephens Seminary","NWS","HydroNet-UaNet","OA",142.9512,21.3666992,-157.7786,NA,"STVH1","19005598",NA,NA,0,3.302,3.81,0,0.507999999999999,0.254000000000001,0,0,0.507999999999999,2.286,0,0,2.286,0.254000000000005,0.253999999999998,1.27,10.922,0.939948293285315,6.604,0.762,1.94343101411953,5.08,57.658,10.9450956227106,1.778,0.762,2.99118744353815,3.556,5.08,0,1.80719059598141
790.11,"Olomana Fire Stn","NWS","HydroNet-UaNet","OA",45.1104,21.3777008,-157.7507,"USC00517052","OFSH1","19011468",NA,NA,0,2.53999999999996,1.77799999999991,0,0,0.254000000000133,0,0,0,0.253999999999905,0.254000000000019,0,2.03199999999993,0,0,0.762000000000057,5.58799999999997,0.254000000000019,5.08000000000004,0.507999999999925,0.254000000000133,1.01599999999996,35.1373942876165,0,1.77800000000002,0,0.254000000000019,0,1.26999999999998,0,2.28600000000006
793.1,"WAIMANALO EXPERIMENTAL FARM","CoCoRaHS","CoCoRaHS","OA",38,21.3727,-157.725,"US1HIHN0022",NA,NA,NA,NA,0,0,3,0,0,0,0,0,0.8,0,0,0,0,0,2.3,0,0,2.8,0,2.5,0.8,0,0,NA,0.8,0,0,0,0,3,0.5
793.2,"BELLOWS AFS AT WAIMANALO","NWS","STATE","OA",6.66,21.3667,-157.717,NA,"BELH1","B14036D2",NA,NA,0,0,0.507999999999981,0,NA,0,0,0,0,0,0,0,0,0,0.508,0,5.08,5.842,1.27,0.254,0,1.016,5.334,0,0,0,0,0,0,0,0
795.1,"WAIMANALO EXP F 795.1","HAES","COOP","OA",18,21.33516407,-157.7105906,"USC00519523",NA,NA,NA,NA,0,0.8,2,0,0,0,0,0,0,0,0,0,0.5,0,0,0,0,4.8,0.5,0,0,0,6.9,NA,1.3,0,0,0,0,0.5,0
795.3,"Waimanalo Nonokio","NWS","HydroNet-UaNet","OA",20.1168,21.3356991,-157.7116,NA,"WMLH1","224185AC",NA,NA,0,0.254000000000001,1.27,0.254000000000001,1.524,0,0,0,0,0,0,0.762,2.28599999999999,0,0.254000000000005,0,0,0,0.253999999999998,0.253999999999998,2.032,1.01600000000001,NA,0.254000000000005,0.761999999999993,0,0,0,0,0,0
801.2,"WAIANAE BOAT HARBOR","NWS","STATE","OA",4.25,21.4503,-158.184,NA,"WBHH1","15D13434",NA,NA,0,0,NA,0,NA,0,0,0,0,0,0,0,0,0,0,5.84199999999998,1.77799999999991,0,1.01600000000019,0,0,0,0.254000000000019,0,0,0,0,0,0,0.253999999999905,NA
803.2,"WAIANAE VALLEY","RAWS","RAWS","OA",291.6936,21.48055556,-158.1552778,"USR0000HWVA","WNVH1","487005DA",NA,NA,0,0.254000000000019,1.01599999999996,0,0.702262685852397,0,0,0,0,0,0,0,0,0.762000000000057,0,4.82599999999991,7.36599999999999,0,1.01600000000008,0,0,0,5.08000000000004,0.507999999999925,0,1.01599999999996,0,0,0.508000000000038,5.33399999999995,0
804,"Lualualei","US VY","HydroNet-UaNet","OA",35.9664,21.4211006,-158.1352,"USC00515647","LUAH1","8170406C",NA,NA,0,0.161454079999823,0.807270399999082,0,0.322908159999611,0,0,0,0,0,0,0,0.161454079999787,0.508,4.826,0.807270399999006,NA,0.254,0.254,0.762000000000001,0.253999999999998,0.807270399999082,NA,0.253999999999991,0.254000000000005,1.778,0,0.508000000000003,0,0,1.93744895999774
810.1,"WHEELER ARMY AIR FIELD 810.1","COOP","NWS","OA",255,21.48722,-158.02806,"USW00022508","WAFH1","B14101B2",NA,NA,0,2.28600000000006,8.89000000000033,3.04799999999977,3.55600000000004,0.253999999999905,0,0,0,0,0,0,1.77799999999979,0.508000000000266,0.761999999999716,0,2.82844541714353,0,0.762000000000171,1.52399999999943,2.03200000000061,0,17.7787997649024,1.01600000000008,0.761999999999716,7.36600000000044,0.507999999999811,0.253999999999905,0.253999999999905,0,0.942815139047806
828,"SCHOFIELD EAST","RAWS","RAWS","OA",381,21.49944444,-157.9933333,"USR0000HSCH","SCEH1","325AB384",NA,NA,0,5.84199999999964,6.34999999999991,5.58800000000065,12.9668154335923,0.508000000000266,0,0,0,0.253999999999451,0,0.25400000000036,3.30199999999968,2.28600000000006,1.52400000000034,0.253999999999905,6.85800000000017,0,4.57199999999966,2.79399999999987,5.8420000000001,2.03200000000015,26.1619999999998,4.31800000000021,0.761999999999716,3.24170385839817,4.57199999999966,2.54000000000042,0.253999999999451,0,0
834.14,"Pearl City HI US F9678-FW9678 ","unknown","APRSWXNET","OA",182.69,21.423,-157.952,NA,"F9678",NA,NA,NA,0,3.55599999427795,3.30199981307984,1.77799999713898,9.39799976348877,0,0,0,0,0,0,0.508000016212463,7.87400007247925,2.53999996185303,0.508000016212463,0,1.26999998092651,NA,2.28600001335144,1.5239999294281,3.55599999427795,3.30199980735779,NA,3.30199980735779,0.508000016212463,NA,NA,1.26999998092651,0.254000008106232,0,4.57200002670288
837,"WAIAHOLE 837 ","OAHU SUGAR","COOP","OA",227,21.47016136,-157.8833636,"USC00518964",NA,NA,NA,NA,NA,NA,2.5,0,0,8.9,NA,NA,NA,0,7.6,0,5.1,NA,NA,NA,0,NA,NA,NA,NA,NA,NA,NA,NA,0,NA,NA,NA,NA,2.5
837.12,"WAIAHOLE STREAM NEAR KAHALUU 2N","USGS","USGS","OA",4,21.48194,-157.8458,NA,"WHSH1","162B784C",NA,NA,0,0,2.032,0.253999999999991,0,0.762000000000015,0,0,0,0,0.253999999999991,0,5.334,0.254000000000005,0,0,2.032,6.604,0,1.524,2.032,4.318,21.844,0.507999999999996,0.762,0,2.53999999999999,0,0,1.27000000000002,1.01599999999998
837.5,"WAIHEE 837.5","COOP","COOP","OA",34,21.45167,-157.84889,"USC00519281",NA,NA,NA,NA,0,0.8,2.3,0,0,1.3,0,0,0,0,0.8,1,3.3,0.8,3.8,0,1.8,0.80561255432633,5.3,0.3,3.6,0,25.3121443812531,NA,0.8,1.5,1.3,0.3,2,0,4.6
839.15,"Ahuimanu Loop ","NWS","HydroNet-UaNet","OA",74.0664,21.4319992,-157.8373,NA,"AHUH1","15CE7632",NA,NA,0,0.254000000000005,1.77800000000001,0.507999999999996,4.572,4.82599999999999,0,0,0,1.01600000000001,0,3.30199999999999,1.52399439892578,0.50800000000001,0.254000000000005,4.57199999999999,NA,NA,4.31801629345703,NA,NA,NA,NA,NA,0.762,3.048,NA,NA,NA,NA,NA
839.8,"Waihee Pump","USGS","HydroNet-UaNet","OA",64.3128,21.4463997,-157.8584,"USC00519286","WPPH1","195042AC",NA,NA,0,1.27000000000021,2.53999999999974,3.55600000000004,0.762000000000171,3.04799999999977,0,0,0,0,6.09600000000023,0.253999999999905,5.8420000000001,5.33400000000006,0.253999999999905,0,9.72033855056959,12.3558187090373,8.38199999999983,2.7940000000001,2.28600000000006,6.02294867999033,56.3879999999999,7.95846502788957,3.04799999999977,0,2.03200000000015,0.508000000000038,4.57199999999989,4.31799999999998,1.01600000000008
840,"KANEOHE BAY MCAS","USMC","NWS","OA",3,21.44404851,-157.7730876,"USW00022519",NA,NA,NA,NA,0,0.3,1.3,0,0,1.3,0,0,0,0,0,0.3,0.5,1,0,0,NA,NA,0.5,3.8,0.5,4.1,NA,0,1,0,0,0.3,3,1,8.4
841.2,"KUAOKALA","S&PF","RAWS","OA",267.0048,21.57027778,-158.26,NA,"KKRH1","48710720",NA,NA,0,0,0,0,1.27000000000004,0,0,0,0,0,0,0,0,1.01599999999996,0,0,NA,0,0,0.254000000000019,0.253999999999962,0,3.81,0,0,0,0,0,0,0,7.62
841.3,"KAENA POINT 841.3","LOCKHEED BALLISTIC","COOP","OA",378,21.56322317,-158.2430755,"USC00512410",NA,NA,NA,NA,NA,NA,0.8,0,1,1.3,NA,NA,NA,NA,NA,0,1,NA,NA,NA,NA,NA,0,0,NA,NA,NA,3.8,0.3,NA,NA,NA,NA,NA,NA
842.1,"MakahaRainGage","USGS","USGS","OA",286.097472,21.50158333,-158.1801667,NA,"MKHH1","DD1423F8",NA,NA,0,0,2.83968896693511,0,1.01599999999999,0,0,0,0,0,0,0,0,0.449268052724572,0,5.56617170840824,4.98311448013786,0.253999999999991,1.27000000000001,0,0.50800000000001,0,3.47526282934749,0.253999999999991,0,1.77800000000002,0.253999999999991,0,3.048,0.507999999999981,0.160047492616777
842.8,"MAKUA RANGE","RAWS","RAWS","OA",6.096,21.52861111,-158.2261111,"USR0000HMAR","MKRH1","3266B468",NA,NA,0,0,0,0.254000000000019,0.253999999999905,0,0,0,0,0,0,0,0,0.254000000000019,0,1.2700000000001,NA,0,0,0,0,0.508000000000038,3.04799999999989,0,0,0,0,0.254000000000133,0,0,NA
842.9,"MAKUA RIDGE","RAWS","RAWS","OA",533.4,21.54277778,-158.1988889,"USR0000HMRG","MKGH1","3266C2F8",NA,NA,0,0,0,1.26999999999998,2.03200000000004,0,0,0,0,0,0,0.254000000000019,0.507999999999925,4.82600000000002,0,2.79399999999998,2.28600000000006,0,1.524,1.01599999999996,1.77800000000002,1.77800000000002,NA,1.26999999999987,0.254000000000019,0,0,1.524,0,0,9.14400000000001
843.7,"DILLIINGHAM","RAWS","RAWS","OA",31.0896,21.57194444,-158.1986111,NA,"DLGH1","3278D278",NA,NA,0,0,0,0.254000000000076,0.761999999999887,0,0,0,0,0,0,0,0,1.27000000000004,0,NA,NA,0,0.507999999999981,0,0.254000000000076,0,9.65199999999993,0,0,0,0,0.254000000000076,0,0,NA
858,"SCHOFIELD BARRACKS","RAWS","RAWS","OA",298.704,21.495,-158.0819444,"USR0000HSCO","SCBH1","3266A71E",NA,NA,0,0,3.55600000000004,0.253999999999905,0.507999999999925,0.254000000000133,0,0,0,0,0,0,0,0,0.254000000000019,4.31799999999998,1.01599999999996,0,0.762000000000057,0,1.52399999999989,0,0.762000000000057,1.524,0.254000000000019,1.01599999999996,0,0,0,0.508000000000038,0.253999999999905
884.4,"PunaluuRainGageatalt","USGS","USGS","OA",73.152,21.55644444,-157.899,NA,"PNSH1","DD989652",NA,NA,0.25400000000036,0,0.507999999999811,1.26999999999998,2.53999999999996,9.39799999999968,0,0,0,5.8420000000001,3.55600000000004,0,2.79399999999987,7.36600000000044,0,2.79399999999987,3.30200000000013,7.63721948684024,2.03200000000015,1.77800000000025,2.53999999999996,0.761999999999716,98.0440000000003,6.34999999999991,1.01600000000008,0.762000000000171,2.53999999999951,3.8100000000004,6.34999999999991,1.26999999999998,4.57199999999966
885.6,"KUALOA RANCH 885.6","COOP","COOP","OA",25,21.53,-157.85028,"USC00514829",NA,NA,NA,NA,0,0.31637199262641,0,0,0,1.3,0,0.178390746490245,0.3,0,2.3,0,2.37537894852541,1.68403438238495,0.5,2,0.890227729899667,0,2.27435519764021,0.891666065359299,3.8,0,6.1,NA,0,0,0.8,0,1,0,1.69147121483235
885.7,"OAHU FOREST NWR","RAWS","RAWS","OA",698.9,21.47747,-157.9369,NA,"OFRH1","8379F6FA",NA,NA,0,1.52400000000003,1.26999999999995,4.06400000000002,6.096,3.55599999999998,0,0,0,1.26999999999998,0,0.254000000000076,3.30199999999996,5.58800000000002,0.253999999999962,1.27000000000004,4.31799999999998,0.254000000000019,4.31799999999998,1.01599999999996,7.87400000000002,7.11199999999997,70.612,26.6540677721774,0.254000000000076,4.06400000000002,7.61999999999995,0.762,2.03199999999998,0.254000000000019,0
886.1,"Waikane - Hakipuu Mauka","KUALOA RANCH","HydroNet-UaNet","OA",14,21.5084922,-157.8555853,NA,"HAKH1","16C69380",NA,NA,0,0.253999999999962,0.507999999999981,0,0.254000000000076,0.762,0,0,0,0,4.57199999999995,0,3.30200000000002,3.55599999999998,0.508000000000038,0.254000000000019,1.52399999999994,16.256,1.524,2.53999999999996,2.03200000000004,3.81,28.956,0.254000000000019,0.507999999999981,0.762,3.30200000000002,0.254000000000019,0,0,1.524
886.11,"KUALOA RANCH HAKIPUU 886.11, HI US","COOP","COOP","OA",74.04,21.51083,-157.86222,"USC00514828",NA,NA,NA,NA,0,0.879336871944352,0.842697835613337,0,0,2.3,0,0,0,0.203950119854425,1.90243115668061,0.366390363310147,3.62726459677045,0.879336871944352,2.84760407356468,1,1.97850796187479,NA,5.82560677663133,0.329751326979132,5.8,0,9.43937357791797,NA,0,1.5,2.54648376259871,0.109917108993044,0.5,1.5,1.5
886.4,"KahanaRainGageatalt","USGS","USGS","OA",28.956,21.54041667,-157.8825556,NA,"KNRH1","17B972EE",NA,NA,1.52399999999997,0,0.507999999999981,0.762000000000029,2.03200000000001,5.84200000000001,0,0,0,1.90214187728865,9.14400000000003,0.762,2.53999999999996,6.096,0.507999999999981,3.04800000000006,2.70292344217664,15.7479999999999,4.82600000000008,3.30199999999996,3.048,3.9036206179367,70.358,5.58800000000002,0,1.524,0.254000000000019,4.31799999999993,0.762000000000057,6.858,2.286
886.8,"Hakipuu Mauka","RILEY W","HydroNet-UaNet","OA",8.5344,21.5067005,-157.8547,"USC00510920","PTRH1","16C69380",NA,NA,0,0.253999999999962,0.507999999999981,0,0.254000000000076,0.762,0,0,0,0,4.57199999999995,0,3.30200000000002,3.55599999999998,0.508000000000038,0.254000000000019,1.52399999999994,16.256,1.524,2.53999999999996,2.03200000000004,3.81,28.956,0.254000000000019,0.507999999999981,0.762,3.30200000000002,0.254000000000019,0,0,1.524
886.9,"KUALOA RANCH HEADQUATERTERS 886.9","COOP","COOP","OA",7,21.5213,-157.8374,"USC00514830",NA,NA,NA,NA,0,0.215576453833909,0,0,0,1.8,0,0.121555780604647,0,0.3,0.8,0,1.51901370893729,1.14750410513621,1.8,2.8,0.606602801730942,0,1.54974978725429,0.607582886141188,4.6,0,5.1,NA,0,0.5,2.5,0,0,0,1.15257157635405
892.2,"WAIMEA ARBORETUM 892.2","COOP / WB","COOP","OA",8,21.638859,-158.058759,"USC00519603",NA,NA,NA,NA,0.3,0.5,0.3,0.5,6.1,2.3,0.3,0,0,0,0.3,0,0.988795161978746,3.3,4.6,0.5,0,5.23472962745129,1.5,1.89678977877589,1.38002968969006,3,19.0487862098565,21.7116648353566,0.8,0.5,6.1,0.5,1.3,0.3,0
901.2,"KII KAHUKU 911","NWS","COOP","OA",7.6,21.6793,-157.945,"USC00514500",NA,NA,NA,NA,0,1,0.3,0,0.5,1,0,0,0,0.3,0,0,0.3,5.6,1.3,0,0,NA,5.8,0,1,0,NA,NA,0,0,0.3,0.8,0.5,3,2.3
903.2,"LAIE 0.2 WNW","CoCoRaHS","CoCoRaHS","OA",2,21.65,-157.9287,"US1HIHN0002",NA,NA,NA,NA,0.5,0,1.8,0,0,0,0,0,0,1,0.534851681500456,0,0.5,3.3,7.6,0,0,0,0,1.8,1,0.5,NA,NA,0.3,0.3,0.5,0.8,1,0,3.07539716862762
904.1,"KAPAKA FARM 904.1","HON. FIRE DEPT","COOP","OA",1,21.60987636,-157.9100271,"USC00513208",NA,NA,NA,NA,0,0,1.3,0.3,0.3,4.3,0,0.3,0,0,0.8,0,1.8,2.3,2,4.3,0.3,0,0.3,1.3,1,0,5.71129840528051,NA,1,3.8,0.5,0.3,0.5,5.8,0.3
905.22,"Punaluu Pump","NWS","HydroNet-UaNet","OA",3.9624,21.5842991,-157.8916,NA,"PUNH1","19051152",NA,NA,0,0,0.762000000000029,0.253999999999991,1.524,0.253999999999991,0,0,0,0.762,0,0.507999999999981,2.03200000000001,3.30200000000002,0,0.761999999999972,0.253999999999991,0,0.253999999999991,0,1.52400000000003,0.761999999999972,33.02,1.27000000000004,0.762,0.507999999999981,0,2.03199999999998,4.82599999999996,6.60400000000004,2.54000000000002
909,"KAHUKU TRAINING AREA","RAWS","RAWS","OA",181.6608,21.67916667,-157.9894444,"USR0000HKAH","KTAH1","325A861E",NA,NA,1.01599999999996,0.508000000000038,0.761999999999944,0.762000000000057,0,1.26999999999998,0,0,0,0.761999999999944,0.254000000000019,0,1.77800000000002,11.4299999999999,0.508000000000038,0.508000000000038,5.33399999999995,0.254000000000019,4.572,0.254000000000019,1.01600000000008,0.253999999999905,33.5280000000001,0.253999999999905,0.253999999999905,0.762000000000057,2.54000000000008,0.507999999999925,0,0.254000000000133,1.77799999999991
911.1,"KII","RAWS","RAWS","OA",1.524,21.68833333,-157.9525,"USR0000HKII","KFWH1","8375210E",NA,NA,0,0,2.286,0.507999999999981,0,1.01600000000008,0,0,0,0,0,0,0.253999999999962,7.11200000000002,0.253999999999962,0,8.63599999999997,0.254000000000076,3.048,0,1.01599999999996,0.254000000000076,30.48,0,0.507999999999981,0.762000000000057,0.253999999999905,0.762000000000057,0,1.77800000000002,3.80999999999995
912,"KAUHUKU 912","KUILIMA  GOLF","COOP","OA",4,21.695,-157.9811,"USC00512570","KAHH1","B1404042",NA,NA,0,0,0.508000000000266,1.01599999999985,0,0.762000000000171,0,0,0,0,0,0,0,8.12800000000016,0,0.507999999999811,4.06399999999985,0,4.06400000000008,0,1.01600000000008,0,44.45,0,0.761999999999944,2.53999999999996,0.254000000000133,1.01599999999962,0,0.254000000000133,1.0160000000003
926,"PORT ALLEN CAA AIRPORT","FAA","COOP","KA",9,21.89381249,-159.6010997,"USW0022526","PAKH1","B159A272",NA,NA,0,0,0.508000000000038,0.507999999999981,0.507999999999981,NA,0,0,0,0,0,0,0,0,0,0,5.08000000000004,NA,0,0,0.508000000000038,0,2.03199999999993,NA,0,1.52399999999994,0.254000000000019,0,NA,0.508000000000038,0.507999999999981
927,"ELEELE 927","MCBRYDE SUGAR","COOP","KA",50,21.90353436,-159.5772088,"USC00510470",NA,NA,NA,NA,0,0.5,0.699010925233399,0.5,1,2.5,0,0,0,0,0.3,0,0,0,0,0,0.823283835817594,5.6,0,0,0,0,0.5,7.1,2.8,0,6.1,0,0,1.16852791462551,2
930,"WAHIAWA 930","MCBRYDE SUGAR","COOP","KA",66,21.89631087,-159.5572079,"USC00518941",NA,NA,NA,NA,0,3,1.3,1,1.5,2.8,0,0,0,0,0.5,0,0,0,0,2.3,0.957578414936947,5.8,0,0,0,0,2.5,11.2,3.8,0,6.8994545966862,0,0,0.8,1.3
931,"WEST LAWAI 931","MCBRYDE SUGAR","COOP","KA",64,21.89019743,-159.5172067,"USC00519955",NA,NA,NA,NA,0,2.5,0.8,1.3,1.8,2.8,0,0,1,0,0.3,0,1.3,0,0,11.4,0,0,0,0.8,0,0,3.6,10.2,5.6,0.5,8.63111583480793,0,0,4.1,1.8
936,"KOLOA 936","MCBRYDE SUGAR","COOP","KA",73,21.90686471,-159.4622057,"USC00514742",NA,NA,NA,NA,0,0.5,0,1.5,0.5,0.8,0,0,0.5,0,2.8,0.403840375396036,0,0,0,8.54498626634266,0,0,0.3,3.8,0,0,7.4,21.1,2.5,3.6,8.4,0,0,9.41749555200812,5.1
940.2,"KOLOA 2.1 SSE","CoCoRaHS","CoCoRaHS","KA",12,21.8788,-159.4518,"US1HIKI0020",NA,NA,NA,NA,0.331750825458,0.5,0,0.817399836563773,1.3,0.8,0,0,0.3,0,0,0,0,4.1,1.3,1.19416135657266,0,0,0,0.8,3.6,1.3,2.25212470748049,15.7,1.3,0,3.3,0.3,2.8,3.54499669900447,5.1
941.1,"MAHAULEPU 941.1","GROVE FARM","COOP","KA",24,21.90102957,-159.422207,"USC00515710",NA,NA,NA,NA,0,0.3,0,1,0.3,1,0,0,0.3,0,2,0.5,0,0,0,7.6,0.3,0,1.3,1,0,0,8.4,20.6,4.28066411176285,3,5.3,0,0,9.29419505176534,2.16680500323317
946,"WAIMEA HTS","RAWS","RAWS","KA",159.7152,21.96638889,-159.6638889,NA,"WHGH1","487090B8",NA,NA,0,0,0.253999999999962,0.500963814364913,0,0,0,0,0,1.12716858232107,0,0,0,0,0,NA,23.114,4.572,1.75337335027728,0,0,0,2.79399999999998,0.375722860773672,0,0,1.01600000000008,0.250481907182485,3.30199999999996,4.06400000000002,2.79399999999998
946.1,"WAIMEA TANK AT WAIMEA","NWS","unknown","KA",70,21.964722,-159.666944,NA,"WMTH1","1900E616",NA,NA,NA,NA,NA,NA,NA,NA,NA,NA,NA,NA,NA,NA,NA,NA,NA,NA,23.6219999999998,2.79399999999987,NA,NA,NA,NA,1.77800000000002,NA,NA,NA,1.01600000000008,NA,5.08000000000015,4.57199999999989,3.30200000000013
965,"MAKAWELI 965","OLOKELE SUGAR","COOP","KA",43,21.91909048,-159.6272113,"USC00515864",NA,NA,NA,NA,0,1.23652695707606,0.624359435734336,0.5,0.3,0.3,0,0,0.239791470981087,0,0.377170999456914,0,0,0,0,1.19622391949557,1.103040766513,3.67953502976714,0,0,0,0,1.52545491508113,3.6,2.95226189759364,1.3,5.76962423607528,0,0,1.04373394331683,0.8
966.4,"Hanapepe","NWS","HydroNet-UaNet","KA",110.6424,21.9365005,-159.5866,NA,"HNPH1","156011EA",NA,NA,0,0,0,0.507999999999999,1.524,0,0,0,0,0,0,0,0,0,0,0,NA,0,0,0,0,NA,NA,NA,NA,NA,2.032,0.254,0,5.08,1.524
985,"BRYDESWOOD STA 985","MCBRYDE SUGAR","COOP","KA",220,21.92519845,-159.5338717,"USC00510240",NA,NA,NA,NA,0,2,0.8,0.5,2,4.1,0,0,1.5,0,1,0,0,0,0,3.8,4.6,3.3,0,0,0,0,3.18079477314155,17.8,6.15589429748002,0.5,12.7,0,0,0,2.70352016158603
986.2,"Kalaheo","KUKUILONO GOLF COU","HydroNet-UaNet","KA",263.0424,21.9183006,-159.5265,NA,"KHEH1","1560740C",NA,NA,3.048,0.761999999999944,0.254000000000133,2.79399999999987,4.06400000000008,2.03199999999993,0,0,0,0.761999999999944,0,0,1.52400000000011,5.08000000000015,0,2.53999999999974,6.096,0,0,0.254000000000133,2.79399999999987,0.254000000000133,NA,14.2239999999997,0.667187584103958,1.04779837714302,9.14400000000001,1.0160000000003,1.52399999999989,0.761999999999944,0.89579800824924
992.1,"Omao","NWS","HydroNet-UaNet","KA",99.9744,21.9071007,-159.4768,"USC00517116","OMAH1","195001A6",NA,NA,0,0.253999999999905,0.254000000000133,1.77800000000002,2.03199999999993,1.01599999999985,0,0.508000000000038,0,0,0.762000000000171,0,2.53999999999996,4.02682207287033,0,5.94905277211328,0,0,1.26999999999998,0,2.53999999999996,0.254000000000133,NA,11.1759999999999,0,1.17920645242911,5.58800000000019,2.03199999999993,2.53999999999996,5.33400000000006,1.26999999999998
994,"KOLOA MAUKA 994","MCBRYDE SUGAR","COOP","KA",195,21.94833,-159.46694,"USC00514750",NA,NA,NA,NA,NA,NA,NA,NA,NA,NA,NA,NA,NA,NA,NA,NA,NA,NA,NA,NA,NA,NA,NA,NA,NA,NA,15,NA,NA,NA,NA,NA,NA,NA,NA
1006,"HALENANAHO 1006","GROVE FARM","COOP","KA",149,21.96491938,-159.4305374,"USC00511038",NA,NA,NA,NA,0,3.6,0.134499426526219,1.62618044915983,0.610158047689312,2.21834917579661,0,0,1,0.134499426526219,3.07072218519092,0.682190933124889,0.896662843508127,0,0,14.4956758491416,0.328614903959202,0,1.01009295511433,1,0,0,22.4,33.0561833298382,8.30943157785079,4.3015610715462,14.7731329033029,0,0,8.4,4.20610387706782
1013,"PUHI 1013","LIHUE PLANTATION","COOP","KA",101,21.96491954,-159.3972052,"USC00518217",NA,NA,NA,NA,0,4.3,0.3,0.3,0.3,2.5,0,0,1,0.3,2.28307455615234,0.8,2,0,0,10.777500115449,0.3,0,0,2.5,0,0,7.9,17.5,6.17804238461267,3.198200306607,10.983788767622,0,0,27.9,0.3
1020.1,"LIHUE WEATHER SERVICE OFFICE AIRPORT 1020.1","LIHUE WEATHER SERVICE OFFICE AIRPORT 1020.1","NWS","KA",45,21.98156999,-159.3422063,"USW00022536","PHLI",NA,NA,NA,0.3,0.3,0,0,0.5,0,0,0.5,0,1,0,3.3,1.3,0.8,0,0.5,0,0,0.3,0.8,0.5,0.3,9.9,9.52551667422027,0,2.3,2.5,0,2,6.1,1.3
1020.6,"LIHUE 1.3 NE","CoCoRaHS","CoCoRaHS","KA",25,21.987,-159.338,"US1HIKI0009",NA,NA,NA,NA,0,0.8,0.3,0.8,0.5,0.8,0,0,1.3,0,1.3,0,1.8,3.8,1.5,0,0,0,0,1,0.3,2.3,2.09343456768844,11.7,1,2,0.5,1.3,2,5.1,2
1022.1,"LIHUE 1.2 NNW","CoCoRaHS","CoCoRaHS","KA",60,21.9923,-159.3586,"US1HIKI0002",NA,NA,NA,NA,0.5,0.5,0,1,1.8,2,0,0,0.3,0,0.5,0,1,2.36967388021391,4.6,3.8,0,0,0,0.3,0.8,0,2.4806167257127,14.2,1.3,1,2.5,0,4.1,3,4.8
1029,"MANA","RAWS","RAWS","KA",26.2128,22.02944444,-159.7622222,NA,"MNRH1","4870603C",NA,NA,0,0,0,0,0.254000000000076,0,0,0,0,0.253999999999962,0,0,0,0,0,0.254000000000019,NA,24.13,0,0,0,0,5.58799999999997,0.254000000000019,0,0.253999999999962,0,0,0,0,0
1036,"PUU OPAE","RAWS","RAWS","KA",652.8816,22.04083333,-159.6958333,NA,"POPH1","4870734A",NA,NA,0,0,0,1.01599999999996,0,0,0,0,0,2.28599999999994,0,0,0,0,0,NA,7.87400000000002,23.876,3.55600000000004,0,0,0,7.5136242448578,0.761999999999944,0,0,0,0.508000000000038,1.52400000000011,8.24216017525007,1.524
1042,"WaialaeRainGagenrWaimea","USGS","USGS","KA",1219.2,22.08972222,-159.5925,NA,"WLGH1","DDF7C28E",NA,NA,0,1.016,3.81,3.302,6.096,1.778,0,0.254000000000001,0,0.254000000000001,0,0.253999999999998,0.7996688469127,1.06622512921696,1.778,0.254000000000005,1.75261875316539,0.508000000000003,0.507999999999996,0,2.286,0.254000000000005,21.844,5.58800000000001,1.01599999999999,0,3.23130445423973,2.286,1.01600000000001,8.54335369223324,NA
1047,"Mt.WaialealeRainGagenrLihue","USGS","USGS","KA",1569.72,22.07088889,-159.4979722,"USC00516565","WLLH1","DD5E818E",NA,NA,23.3679999999997,4.06400000000031,NA,14.4779999999996,29.9720000000002,36.0680000000002,2.79399999999987,4.82600000000002,2.03199999999993,3.55600000000004,4.98620064332954,1.01599999999985,7.88000588916245,10.5066745188835,7.36599999999999,NA,8.63522828838392,9.39800000000014,NA,1.26999999999998,34.29,2.2859999999996,107.188000000001,102.362,8.89000000000033,NA,26.1619999999998,10.1600000000003,NA,61.4640459354681,NA
1051,"NWailuaDitchRainGagenrLihue","LIHUE PLANTATION","USGS","KA",338.328,22.0625,-159.4677222,"USC00516888","WLDH1","1732B3E0",NA,NA,7.36599999999999,1.52400000000011,6.86521167097039,8.63599999999997,11.4300000000001,14.478,1.524,0.762000000000057,0.253999999999905,1.01599999999996,4.06400000000008,0.254000000000019,3.80999999999995,5.08000000000004,4.38912038485021,2.12158189845426,2.7940000000001,1.26999999999987,4.70445272067164,0.507999999999811,10.4140000000001,0.507999999999925,34.2900000000001,53.8479999999998,3.55600000000004,4.44500127323213,12.954,6.60399999999993,7.99031115924083,29.7180000000001,1.63376683114209
1059,"Lihue Variety Stn","NWS","HydroNet-UaNet","KA",117.0432,22.0240002,-159.3868,NA,"LIHH1","1561501A",NA,NA,0.253999999999991,0.254000000000019,3.55600000000001,3.55600000000001,3.30199999999996,2.286,0,0.253999999999991,0.508000000000038,0.507999999999981,5.07999999999998,0.508000000000038,NA,5.07999999999998,0,2.286,0,0.254000000000019,4.572,0.507999999999981,3.81,1.01600000000002,NA,7.87399999999997,0.508000000000038,3.04799999999994,5.84200000000004,0,5.33399999999995,NA,2.54000000000002
1061.5,"Wailua UH Exp Stn","NWS","HydroNet-UaNet","KA",158,22.066,-159.3962,NA,"WUHH1","15C163D6",NA,NA,3.048,0.50800000000001,2.53999999999999,7.62,1.01599999999999,2.79399999999998,0,0.50800000000001,0,0.50800000000001,2.66712725799613,0.762,3.30200000000002,4.31799999999998,2.54000000000002,1.26999999999998,0.507999999999981,0.254000000000019,2.20101555695107,1.77800000000002,7.11199999999997,1.26999999999998,19.1965464556411,21.336,2.286,2.79400000000004,7.54715058012085,4.34892339308551,5.58799999999997,11.938,1.01600000000002
1063.2,"KAPAA 2.7 SSW, HI US","CoCoRaHs","CoCoRaHs","KA",90.04,22.0593,-159.365,"US1HIKI0023",NA,NA,NA,NA,NA,4.8,1.3,1.8,3,4.6,NA,NA,NA,0.8,NA,NA,NA,NA,0.8,NA,0.5,0.5,7.9,1.8,NA,5.8,6.1,22.4,2,1,9.7,NA,NA,20.6,NA
1065.2,"KAPAA 2.3 SW, HI US","CoCoRaHs","CoCoRaHs","KA",105.03,22.0721,-159.3767,"US1HIKI0026",NA,NA,NA,NA,0.8,2,2,3,NA,0.5,0.8,0,1,0,1.3,NA,NA,4.1,3.8,2.3,0,0,12.7,1.5,5.1,1.5,6.1,32.5,1.8,1.3,7.6,4.1,9.7,19.1,2.3
1065.3,"Kapaa HI US F9608-FW9608 ","unknown","APRSWXNET","KA",106.41,22.072,-159.376,NA,"F9608",NA,NA,NA,2.53999996185303,0.507999994754788,4.57199992370606,5.84199979591369,0.5079994277954,1.26999987321564,NA,1.01600003242493,0.25399998092651,NA,2.79399991035461,0.254000097751622,3.55600018119812,5.33400009291383,2.28600025177003,1.77800014850159,NA,0.76199996471405,12.4459992694312,1.26999964264684,5.84200026512147,0.761999972343457,NA,NA,2.28600013256073,NA,NA,3.30200052261352,9.14399982806702,17.7799999389649,1.01600003242493
1069,"PUU LUA","RAWS","RAWS","KA",1021.08,22.08916667,-159.6791667,NA,"PLRH1","487083CE",NA,NA,0,0,0.254000000000019,0,0.762000000000057,0.508000000000038,0,0,0,0,0,0,0,0.253999999999905,0,NA,8.63600000000008,20.7316562063612,1.26999999999998,0,0,0,8.12800000000004,1.01599999999996,0,0,0.253999999999905,0,1.32329720466145,NA,1.32329720466135
1074,"MAKAHA RIDGE","RAWS","RAWS","KA",544.9824,22.13055556,-159.7152778,"USR0000HMAH","MKAH1","3286026C",NA,NA,0,0,0,0,1.2700000000001,0,0,0,0,0,0,0,0,0,0,1.26999999999998,1.01599999999996,0.254000000000019,2.03200000000004,0,0,0,5.08000000000004,0.253999999999905,0,0,0,0,1.2700000000001,0,NA
1076,"Kokee","NWS","HydroNet-UaNet","KA",1279.2456,22.1485996,-159.6448,NA,"KOKH1","1900E616",NA,NA,0,0,0,0,0,0,0,0,0,0,0,0,0,0,0,0,2.31222446877572,2.79399999999987,0,0,0,0,21.6551409656516,0,0,0,1.01600000000008,0,5.08000000000015,4.57199999999989,NA
1084,"KilohanaRainGafenrHanalei","USGS","USGS","KA",1219.2,22.15408333,-159.5946111,"USC00514610","KLOH1","DDCC972A",NA,NA,2.03200000000004,1.77800000000002,3.64313206559228,5.53209407930988,8.70005282762848,3.55600000000004,0,0.508000000000038,0,1.26999999999998,0.762000000000057,0.507999999999925,1.87767807688093,2.55448975899581,2.6138574520923,0.202846591213953,5.58799999999997,3.08221372411258,0.630855631446538,0.508000000000152,6.35000000000002,0.373145908480313,46.3137698749479,22.5143526369437,3.80999999999995,0.900649796074576,9.40160989164376,5.84199999999987,2.28600000000006,20.4683878819443,1.12581224509322
1094.2,"Kapahi","NWS","HydroNet-UaNet","KA",158.496,22.1021004,-159.3856,"USC00513171","KPIH1","15608488",NA,NA,2.54000000000087,0,3.04800000000068,1.77799999999843,6.35000000000036,3.30199999999968,0.762000000002445,1.0159999999978,0.254000000000815,3.30199999999968,5.07999999999993,0.254000000000815,2.54000000000087,3.30199999999968,0.761999999998807,1.52399999999943,0,2.79399999999987,4.06399999999849,0,6.09600000000137,2.79399999999987,16.9970920505393,24.5261381029703,0.761999999998807,2.79399999999987,9.39800000000105,5.84200000000055,4.82600000000093,5.3339999999971,1.06478792701507
1094.3,"KAPAA 1.4 W","CoCoRaHS","CoCoRaHS","KA",139,22.0936,-159.3758,"US1HIKI0005",NA,NA,NA,NA,0.8,3,3,1.3,1.5,3.3,3.8,0.5,1.8,0,2.5,1.3,3.6,2.8,1.5,1.8,0.3,1.3,6.9,1.3,5.1,1,4.1,35.6,3.3,1.3,10.4,3.6,5.93138967023032,6.9,3.33440112358963
1097.4,"KAPAA 1.9 WSW","CoCoRaHS","CoCoRaHS","KA",157,22.0829,-159.3786,"US1HIKI0019",NA,NA,NA,NA,1.5,1,2.5,2.3,1.3,1.3,3,0.3,0.5,0.3,1,4.1,3.3,2.3,3.8,1.5,0.3,0.8,5.8,2,7.1,1.8,5.6,30,5.1,1.8,7.4,3.3,7.4,5.60097120127383,3.31145452259307
1111.4,"Anahola","HAWN FRUIT PACKERS","HydroNet-UaNet","KA",75.2856,22.1373997,-159.312,NA,"ANHH1","1560029C",NA,NA,0.761999999999716,0,0.507999999999811,0,0.762000000000171,1.01600000000008,0,2.03200000000015,0,2.79399999999987,0,0,0,1.77799999999979,2.28600000000006,0,NA,0,0,0,0.507999999999811,0.508000000000266,NA,0,0.762000000000171,1.77799999999979,2.03200000000015,2.03200000000015,1.01599999999962,0.25400000000036,0.253999999999905
1116.1,"HANALEI 3.0 W, HI US","CoCoRaHs","CoCoRaHs","KA",10.457,22.2103,-159.5492,"US1HIKI0024",NA,NA,NA,NA,0,1,0.8,1.8,1.3,NA,1.3,0.5,0,0,0,0,1.8,5.6,NA,4.8,0,0,0,1.5,1.5,1.5,5.1,23.6,3.3,0,NA,NA,NA,1.8,0
1117,"PRINCEVILLE RANCH 1117","PRINCEVILLE RANCH","COOP","KA",90,22.213196,-159.4722008,"USC00518165",NA,NA,NA,NA,0,0,0.8,1.3,1.8,1.98357546471146,1.3,0.3,0.3,0,0,0,0.8,2.88332464685604,3,0,2.3,0,0.3,0.8,5.02870447664379,3.6,4.3,19.3,0.5,0.8,4.6,0.8,1.3,7.58935306637866,0.5
1117.9,"PRINCEVILLE AIRPORT NEAR KILAUEA 4W","NWS","STATE","KA",88.497,22.2114,-159.443,NA,"PRIH1","B15952F6",NA,NA,0.253999999999905,1.26999999999953,3.04800000000023,0.25400000000036,4.06399999999985,3.04800000000023,0,0.253999999999905,0,0.508000000000266,0.253999999999451,0,2.79399999999987,5.33400000000029,4.57200000000012,1.77799999999979,5.07999999999947,0.508000000000266,0.762000000000171,0.253999999999905,2.54000000000087,NA,NA,NA,0,3.04799999999977,2.03200000000015,0.50800000000072,2.03199999999924,2.28600000000006,2.79399999999987
1134.2,"KILAUEA 0.5 SE","CoCoRaHS","CoCoRaHS","KA",79,22.2057,-159.4048,"US1HIKI0006",NA,NA,NA,NA,0.5,2,0,2.5,0,3.48941200184413,0,1.5,0.5,0,3.6,0.3,2,4.3,4.6,0.961763101840943,0.3,1,0.5,1.8,4.6,2,4.6,17.8,0,0.5,6.73895605574762,0.5,2,3.6,0
1144.1,"ANAHOLA 2.8 N","CoCoRaHS","CoCoRaHS","KA",74,22.1869,-159.3236,"US1HIKI0021",NA,NA,NA,NA,0.8,0,0,4.3,0,4.3,0.8,0,0,0,0,0,0.3,1.8,0,1.5,0.183249524286612,0,3,0.5,4.1,0.3,1.5,16.698756111516,0,0.8,1,0.8,0.8,0,0
1145,"MOLOAA 1145","LIHUE PLANTATION","COOP","KA",101,22.17972,-159.33194,"USC00516529",NA,NA,NA,NA,NA,5.3,NA,NA,NA,NA,NA,NA,NA,NA,NA,NA,NA,NA,NA,NA,NA,NA,NA,NA,NA,NA,NA,NA,NA,NA,NA,NA,NA,NA,NA
1146,"Moloaa Dairy","RAWS","RAWS","KA",85.344,22.18333333,-159.3375,"USR0000HMOL","MLDH1","AAB6D15A",NA,NA,0,0,0,0,0,0,0,0,0,0,0,0,0,0,0,0,0,0,0,0,0,0,0,0,0,0,0,0,0,0,0
