"SKN","Station.Name","Observer","Network","Island","ELEV.m.","LAT","LON","NCEI.id","NWS.id","NESDIS.id","SCAN.id","SMART_NODE_RF.id","X2018.03.01","X2018.03.02","X2018.03.03","X2018.03.04","X2018.03.05","X2018.03.06","X2018.03.07","X2018.03.08","X2018.03.09","X2018.03.10","X2018.03.11","X2018.03.12","X2018.03.13","X2018.03.14","X2018.03.15","X2018.03.16","X2018.03.17","X2018.03.18","X2018.03.19","X2018.03.20","X2018.03.21","X2018.03.22","X2018.03.23","X2018.03.24","X2018.03.25","X2018.03.26","X2018.03.27","X2018.03.28","X2018.03.29","X2018.03.30","X2018.03.31"
2.1,"KAHUKU MAUKA","COOP","COOP","BI",957,19.1089,-155.7467,"USC00512566",NA,NA,NA,NA,0,0.868361142419072,0,0,0,0,6.94688913935258,0,1.62817714203576,0,0,1.62817714203576,5.21016685451443,0,0,0,0,0,40.8129736936964,0.54272571401192,0,2.7136285700596,0,35.2771714107748,18.7783097048124,6.29561828253827,38.8591611232535,0,0.868361142419072,0,1.62817714203576
2.32,"SOUTH KONA 2 2.32","COOP","COOP","BI",647,19.10778,-155.78944,"USC00518652",NA,NA,NA,NA,0,0.8,0,0,0,0,6.4,0,1.5,0,0,1.5,4.8,0,0,0,0,0,37.6,0.5,0,2.5,0,32.5,17.3,5.8,35.8,0,0.8,0,1.5
2.34,"MILOLII 2.34","COOP","COOP","BI",280,19.186302,-155.886763,"USC00516304",NA,NA,NA,NA,0,1.5,0,0,0,0,0,0,0,0,0,0,10.7,0,0,0.8,1.8,0.8,1.5,1.3,8.9,0,0.8,0.3,41.4,3,35.8,0.3,0,0,0
2.36,"KAPUA 2.36","COOP","COOP","BI",533,19.14472,-155.84944,"USC00513376",NA,NA,NA,NA,0,0,0,0,0,0,0,0,0,0,0,0.3,0,0,0,0,0,0,3.6,15.5,0,4.3,0,0,45,1.3,30.5,0.3,0,0,0
3.22,"HAWAIIAN OCEAN VIEW 4.7 NNE","HAWAIIAN OCEAN VIEW 4.7 NNE","CoCoRaHS","BI",1273,19.135,-155.747,"US1HIHI0035",NA,NA,NA,NA,0.8,0,0,0,0,0,0.5,0.3,0,0.3,0,0,7.9,1.3,0,0,0,0.3,6.9,58.4,0.5,1.5,0.3,0.5,48.5,2.8,30,0,1,0,0
3.23,"CAPTAIN COOK 2.9 SSE","CAPTAIN COOK 2.9 SSE","CoCoRaHS","BI",238,19.4594,-155.8938,"US1HIHI0019",NA,NA,NA,NA,0,0,10.4,0.3,0,0,0,0,0,0,0,0,10.2,3.3,0,0,NA,14.2,3.8,3.8,0,3,1,0.3,26.9,0.5,15.7,0.3,0,0,0
3.9,"LOWER KAHUKU CS","LOWER KAHUKU CS","RAWS","BI",953.7192,19.10083333,-155.6697222,NA,"LKHH1","32D620C2",NA,NA,7,11,2,5,0,0,0,0,3,7,6,10,2,0,3,0,0,2,10,0,3,0,0,15,10,5,25.146,8.64,0,0,0
4.12,"NAALEHU 4.6 WSW","NAALEHU 4.6 WSW","CoCoRaHS","BI",391,19.0424,-155.6354,"US1HIHI0001",NA,NA,NA,NA,3.6,5.8,3.3,1,6.4,0,0,0,0,0,0,0,9.9,2,7.1,5.1,0,0,0.8,10.7,1,1.5,0.8,1,52.8,1.3,14.2,0,0,0.5,0
4.13,"NAALEHU 5.0 WSW","NAALEHU 5.0 WSW","CoCoRaHS","BI",436,19.0424,-155.643,"US1HIHI0010",NA,NA,NA,NA,6.1,7.4,6.9,0.3,5.3,0.5,0.3,0,0,0,0,0,11.2,2,7.4,4.3,1.8,0.3,0.5,11.2,1.3,1,1,0.8,53.8,2.3,18.8,0.5,0.3,0.5,0
4.14,"NAALEHU 4.7 WSW, HI US","CoCoRaHs","CoCoRaHs","BI",393.18,19.0421,-155.6371,"US1HIHI0057",NA,NA,NA,NA,2.3,3.8,0,3.3,2.8,0,0,0,0,NA,0,0,8.6,1.5,6.4,3,1.3,NA,0.5,9.1,1.3,1.3,0.8,0.8,52.1,1,13.5,NA,0,0.8,0
5.1,"Kamaoa Puueo 5.1","COOP","COOP","BI",317,19.01361,-155.66194,"USC00513054",NA,NA,NA,NA,2.21725598106464,3.00913311715915,2.61319454911189,1.58375427218903,1.82131741301738,0,0,0,0,0,0,0,7.44364507928842,1.3,5.1,9.2649624923058,2.85075768994025,0,0.633501708875611,6.65176794319391,0.633501708875611,1.3,0,1.18781570414177,40.2273585136013,0.791877136094513,8.47308535621129,0,0,0,NA
6,"KIOLAKAA A&F 6","STATE DIV FTRY","COOP","BI",587,19.07032619,-155.6355484,"USC00514625",NA,NA,NA,NA,3.21019946120028,4.35669926877181,3.78344936498605,2.29299961514306,2.63694955741452,0,0,0,0,0,0,0,10.7770981911724,2.83281117300202,8.90852881798575,13.4140477485869,4.12739930725751,0,0.917199846057224,9.63059838360085,0.917199846057224,1.68631136543049,0,1.7197497113573,58.2421902246337,1.14649980757153,12.2675479410154,0,0,0,NA
6.2,"NAALEHU 5.7 W","NAALEHU 5.7 W","CoCoRaHS","BI",679,19.0732,-155.6632,"US1HIHI0012",NA,NA,NA,NA,6.6,5.8,7.4,0.5,5.3,0.5,0.3,0,0,0,0,0,13.2,1.8,3.3,2,1.8,0.8,1.3,9.7,1,1.5,1.8,1.8,49,4.3,41.7,0,0,0.5,0
9.2,"Nene Cabin","Nene Cabin","RAWS","BI",710.4888,19.34805556,-155.1258333,NA,"AHMH1","32D64524",NA,NA,1,0.700000000000017,0,0.799999999999983,0,0,1.30000000000001,0,0,0,0,9.90000000000001,4.5,12,1,0,0,0.199999999999989,21.6,3.60000000000002,1,0,0,28.2,0,8.60000000000002,2.09999999999997,0,1.19999999999999,1.80000000000001,0
12.15,"SEA MOUNTAIN 12.15","SEA MOUNTAIN","COOP","BI",21,19.13310292,-155.5152744,"USC00518600",NA,NA,NA,NA,0,0,1.5,1.72733950015714,1.98644042518072,0,0,0,0,0,0,0,6.4,2.3,17.0661274069136,12.6498905420719,3.10921110028286,0,0.690935800062858,7.332559885833,5.1,1.04791978362722,0.748514532424848,1.29550462511786,43.8744233039915,36.3,33.5,0.112277179863727,3.81742411536672,0,NA
14,"NAALEHU 14","KAU SUGAR","COOP","BI",206,19.06032754,-155.5855501,"USC00516588",NA,NA,NA,NA,2.8,3.8,3.3,2,2.3,0,0,0,0,0,0,0,9.4,3.3,9.1,11.7,3.6,0,0.8,8.4,0.8,1.3,0,1.5,50.8,1,10.7,0,0,0,0
21,"Pahala","KAU SUGAR","HydroNet-UaNet","BI",346.8624,19.2042999,-155.4872,"USC00517421","PPLH1","B16084B2",NA,NA,1.524,0.508,0,0,0,0,0,0,0,0,0,8.128,5.08,34.036,20.066,1.016,0.254,2.286,10.922,11.176,1.524,1.016,0.508,36.068,11.43,13.208,1.27,12.192,0,0.254,0
21.3,"PAHALA MAUKA 21.3","COOP","COOP","BI",332,19.20667,-155.48861,"USC00517437",NA,NA,NA,NA,1.3,1,1.93721920186234,1.15384499921554,1.32692174909787,0,0,0,0,0,0,3.79840064302207,10.7,4.1,35.1,20.3,2.25497102872963,1.60245027127494,8.11768929577758,9.9,11.2,1.3,2,26.1484880295273,37.3199143364494,22.7223668506003,14.2,0.3,10.2,0.17805003014166,0
21.4,"HAWAIIAN OCEAN VIEW 1.7 NNE, HI US","CoCoRaHs","CoCoRaHs","BI",733.03,19.0908,-155.7552,"US1HIHI0059",NA,NA,NA,NA,NA,NA,NA,NA,NA,NA,NA,NA,NA,NA,NA,NA,NA,NA,NA,0,1,NA,1.8,33.8,0.8,4.1,0,0,46.7,6.9,31.8,0,0,0.3,0
23,"KAHUKU","RAWS","RAWS","BI",1796.4912,19.23222222,-155.78,NA,"KRCH1","32639544",NA,NA,0,0,0.299999999999997,0.200000000000003,0,0,0,0.299999999999997,0.299999999999997,0,0,10.6,4.59999999999999,0,2.30000000000001,0,0.699999999999989,7.90000000000001,15.8,1.19999999999999,2.59999999999999,0.700000000000017,0,55.7,1.70000000000002,31.3,2,0,0,0,0.5
24.1,"OPIHIHALE 2 24.1","TRUMAN LORNA","COOP","BI",396,19.27032215,-155.8738768,"USC00517166",NA,NA,NA,NA,0.8,0,0,0,0,0,0,0,0,0,0,0,9.9,0.8,0,0.8,1.5,0.8,4.3,16,0,0,2,1.3,43.2,2,16,0,0,0,0
26.2,"KEALAKEKUA 26.2","GREENWELL ESTATE","COOP","BI",442,19.48975723,-155.9122125,"USC00513977",NA,NA,NA,NA,0,0.163087463669172,0,0,0,0,0,0,0,0,0,8.44151513478132,7.41234772694407,0,0.3,0,0,7.2690824771728,4.22075756739066,3.89972377164742,0,1.8,1.09576804777588,0.937946126086813,20.8693013054316,11.9588131076069,9.22927922837222,0.434899903117792,0,0,2.22762204945618
27,"HONAUNAU 27","TANAKA S","COOP","BI",332,19.4403158,-155.8788789,"USC00511665",NA,NA,NA,NA,1.3,0.3,0,NA,NA,0,0,0,0,0,NA,NA,10.4,3,0,0,0,NA,NA,2.5,0.5,1.8,1.8,0,NA,NA,15.7,0.8,0,0,0
27.6,"Honaunau No. 2","NWS","HydroNet-UaNet","BI",398.0688,19.4629002,-155.8824,NA,"HAUH1","15D12742",NA,NA,0,2.794,0,0,0,0,0,0,0,0,0,11.43,3.048,0,0,0,0,11.684,5.588,1.27,6.35,1.524,0,31.242,0,16.002,2.032,0,0,0,0.254
28,"NAPOOPOO 28","KONA EXP STATION","COOP","BI",122,19.46864784,-155.9055458,"USC00516697",NA,NA,NA,NA,0,NA,NA,NA,NA,NA,0,0,0,NA,NA,NA,NA,0,0.19374133276565,0,0,NA,NA,5.8,0,1.1624479965939,NA,NA,NA,NA,6.1,NA,NA,NA,NA
29.12,"Kealakekua","NWS","HydroNet-UaNet","BI",537.972,19.5181007,-155.9159,NA,"KLEH1","81708572",NA,NA,0,0,0,0,0,0,6.096,0,0,0,0,9.144,3.81,0,0,0,4.572,7.874,4.572,0,0,2.794,0.254,2.032,22.606,12.954,1.27,0,0,0,4.826
34,"Kapapala Ranch","NWS","HydroNet-UaNet","BI",638.556,19.2754993,-155.4514,"USC00513300","KAYH1","B16097C4",NA,NA,5.588,0.508,0,0,0,0,1.016,0,0,0,0,6.096,5.842,67.818,32.766,2.286,0.254,1.778,13.208,15.494,2.54,3.81,1.27,37.084,24.384,16.256,1.778,2.794,0,0,0
36.3,"KAPAPALA RANCH","KAPAPALA RANCH","RAWS","BI",1081,19.25811,-155.441781,NA,"KPRH1","AA10E258",NA,NA,1,0.299999999999955,0,0,0,0,0,0,0,0,0,5.30000000000007,4.89999999999998,54.8,33.6,1.20000000000005,0,3.29999999999995,10.4,12.7,0.299999999999955,0.5,0,33.8000000000001,31.1999999999999,12.2,1.5,2.10000000000002,0,0,0
38.9,"KAELAKOMO","KAELAKOMO","RAWS","BI",29.5656,19.29277778,-155.1075,NA,"KMOH1","32807432",NA,NA,NA,NA,0,NA,0.800000000000068,0,0,0,0,0,0,NA,NA,NA,2.20000000000005,0.600000000000023,0,0,0.5,0,0,9.39999999999998,NA,NA,NA,NA,NA,0.300000000000068,NA,7.90000000000009,0
39,"Mauna Loa Observatory","NWS","ESRL/GMD","BI",3397,19.5362,-155.5763,"USC00516198","MOBH1",NA,NA,NA,0,0,NA,NA,NA,0,0,0,0,NA,NA,NA,18,NA,NA,7.4,NA,NA,NA,7.9,0,3,0,NA,NA,NA,4.6,0,0,0,NA
39.1,"Mauna Loa Upper","NWS","STATE","BI",3341,19.53863295,-155.5722206,NA,NA,NA,NA,NA,0,0,NA,NA,NA,0,0,0,0,NA,NA,NA,14.0926417458474,NA,NA,5.79364160662613,NA,NA,NA,6.18510387734412,0,2.34877362430789,0,NA,NA,NA,3.60145289060543,0,0,0,NA
39.2,"MAUNA LOA 5 NNE","MAUNA LOA 5 NNE","USCRN","BI",3398,19.5354,-155.576,"USW00021514","MLBH1","CD07379A",NA,NA,0,0,0,0,0,0,0,0,0,0,0,17.1,15.6,0,6.1,3.3,0,0,7,0,2.7,0,0,66.6,0,3.5,0,0,0,0,0
43.3,"PUHE CS","PUHE CS","RAWS","BI",34.126,20.025,-155.8211111,NA,"PHRH1","32D61558",NA,NA,0,0,0,0,0,0,0,0,0,0,0,0.259999999999998,0.25,0,0,0,0,0,0.259999999999998,0,0,0,0,18.03,0.25,0.259999999999991,0,0,0,0,0
48,"PALI 2","RAWS","RAWS","BI",847.344,19.3175,-155.2922222,"USR0000HPAL","PLIH1","FA900222",NA,NA,2.60000000000002,0.5,0,0,0,0,0,0,0,0,0,4.60000000000002,4.5,26.1999999999999,11.9000000000001,1.29999999999995,0,15.5,2.79999999999995,0.5,1,0,0,30.2,45,24,20,3,0,7,0
49,"KEAUMO","RAWS","RAWS","BI",1682.496,19.47361111,-155.3588889,"USR0000HKMO","HKMO",NA,NA,NA,7.39999999999998,1.69999999999993,0,0.300000000000068,0.5,2,0.799999999999955,4.10000000000002,1,0,0,6.29999999999995,9.20000000000005,71.8,8.20000000000005,0.200000000000045,0,6.39999999999998,11.1999999999999,3,2.80000000000007,1.29999999999995,1,22.3000000000001,10.6999999999999,37.6,7.89999999999998,2.30000000000007,0.5,0.199999999999932,4.60000000000002
54,"HAWAII VOLCNS NP HQ 54","HAW VOL NATL PARK","COOP","BI",1210,19.429741,-155.257146,"USC00511303",NA,NA,NA,NA,27.7757804079099,20.5354476253589,6.69767483046409,15.3651850114454,10.502480088358,8.47900479340892,5.4965854749016,2.97467176156665,7.97424005434217,2.11272680212177,0.72069205935668,7.85221770811575,19.2192534238601,26.5180559797822,3.76632083955325,0.937638143017029,0.284846837890116,2.32347413555438,17.6251549699221,8.03471305218032,22.0981766892619,10.1439991297101,5.98298929123922,19.8716061792804,8.99748048597889,8.00298603594656,16.2600763546462,0.591195309793387,0.74024063922397,0.825291322716518,7.6408541099132
54.2,"Glenwood","HELBUSH XL","HydroNet-UaNet","BI",802.2336,19.5076008,-155.1707,"USC00510744","GLNH1",NA,NA,NA,33.782,30.988,5.588,16.256,6.604,9.652,3.556,7.366,21.336,0.762,0.254,7.112,24.638,45.212,10.668,0,0,2.286,12.7,8.89,32.258,16.51,8.382,18.542,23.114,10.16,3.556,0.508,0,0.762,0.254
54.8,"Thurston","Thurston","HavoNet","BI",1202,19.41528,-155.23833,NA,NA,NA,NA,NA,24.638,12.446,1.778,6.096,3.048,0.508,0.508,0.508,9.398,1.524,0.508,5.08,10.414,22.606,3.556,0,0.254,0.508,7.62,2.54,10.922,4.826,3.048,20.828,10.16,14.732,44.958,1.27,0,0.508,0.254
54.9,"Ola a","Ola a","HavoNet","BI",1040,19.47833,-155.215,NA,NA,NA,NA,NA,33.4802842692916,24.7529543363746,8.07322256923366,18.520839179984,12.6594469615934,10.2203965697818,6.6254571971543,3.5856006464079,9.61196480999386,2.54663209744575,0.868705565191298,9.46488189175106,23.1664442411543,31.9642522886328,4.53983616322406,1.1302073644347,0.343347800339537,2.80066206631423,21.2449547777697,9.68485756506693,26.6366318614338,12.2273422925472,7.21175712469889,23.9527751875607,10.8453551962915,9.64661455238027,19.5995205390849,0.712613173774871,0.892268971922128,0.994787101703179,9.21010909156048
55.3,"VOLCANO 4.4 S","VOLCANO 4.4 S","CoCoRaHS","BI",1158,19.4338,-155.2417,"US1HIHI0040",NA,NA,NA,NA,NA,NA,NA,NA,2.8,0.5,0.3,0.3,NA,NA,0.5,NA,NA,NA,31,6.9,0.3,0,NA,NA,NA,NA,2.5,5.1,NA,NA,NA,NA,NA,NA,NA
55.4,"GLENWOOD NO 2 55.4","COOP","COOP","BI",671,19.52194,-155.14389,"USC00510746",NA,NA,NA,NA,37.6741268471267,32.580870876468,6.53037654124375,15.7099469650625,12.6786607714739,9.87055259131562,11.0660678271654,4.10718531904384,20.1494580277151,4.30878534314339,0.723120623688595,8.25883019152695,27.1120168756138,62.24344423973,68.3917538636436,0.607968390632516,0,7.18557769078177,32.69638271713,18.6100182825464,24.6450745728932,15.5275238650576,6.89722097842001,19.7392300612578,34.1334299265993,6.80474327796473,10.7285892735113,7.61729831591321,7.40414791843565,2.58719521581909,0.3489862294532
63,"KALOKO-HONOKOHAU","RAWS","RAWS","BI",7.62,19.67277778,-156.0202778,NA,"KHOH1","FA667668",NA,NA,0,0,0,0,0,6.60000000000001,0,0,0,0,0,1.73999999999999,1.3,0,0,0,0.5,0.800000000000011,1.8,0,0.200000000000003,0,0,20.1,0.200000000000003,10.7,0,0,0,0,0
65.4,"PAHOA 2.1 E","PAHOA 2.1 E","CoCoRaHS","BI",137,19.5043,-154.9165,"US1HIHI0003",NA,NA,NA,NA,9.4,20.1,4.6,3.6,6.9,0.5,16.3,2.8,13,11.9,0.5,0.3,17.8,40.4,21.3,2,1.8,0.3,22.4,19.1,6.1,14.2,2,2.3,19.3,97.8,6.1,0.764605220735438,2.52097626142362,7.64780789955277,5.1
65.6,"KURTISTOWN 6.6 SSE, HI US","CoCoRaHs","CoCoRaHs","BI",339.63,19.5021,-155.029,"US1HIHI0055",NA,NA,NA,NA,10.2,22.6,5.8,5.6,9.1,2.5,12.4,2,6.1,9.4,0.8,0.5,15,35.1,31.8,1.5,0.8,0,16,22.1,14,11.4,4.6,8.9,18,25.7,8.9,5.3,0.8,3.3,1.3
66.6,"PAHOA 3.3 SEE","COOP","COOP","BI",254.2,19.459069,-154.921985,"US1HIHI0052",NA,NA,NA,NA,8.9,18,4.3,2.8,8.1,NA,NA,NA,10.2,12.4,0.3,0,17.5,40.9,NA,0.8,1.3,NA,NA,NA,8.4,16,3,1.5,20.6,66.3,15,NA,0.5,NA,NA
67.14,"PAHOA 3.0 SSE, HI US","CoCoRaHs","CoCoRaHs","BI",284.69,19.4573,-154.9338,"US1HIHI0056",NA,NA,NA,NA,11.7,18,4.1,4.3,9.4,0.3,9.4,0.8,10.9,14.5,0.3,0.3,16.8,43.2,23.1,0.5,1,0.3,17,16.8,8.6,15.2,2.5,2.8,21.8,74.4,17.5,1,4.3,14.7,4.6
67.7,"PAHOA 2.7 SSE","PAHOA 2.7 SSE","CoCoRaHS","BI",259,19.4654,-154.927,"US1HIHI0051",NA,NA,NA,NA,11.2,18,7.6,7.4,10.4,0.8,9.4,0.8,9.1,11.9,0.3,0.3,17.5,41.9,24.6,1.3,1.8,0.8,15.5,15.2,6.6,17.3,0.8,1.8,20.6,77.7,17.5,0.8,5.3,14.7,3.3
68.14,"HONOKOHAU HARBOR 68.14","COOP","COOP","BI",9,19.67944,-156.02333,"USC00511880",NA,NA,NA,NA,0,0,0,0,0,4.3,0,0,0,0,0,0,2.5,0.8,0,0,0,0.8,1.3,1.5,0,0,0,0.3,21.3,0.3,12.7,0,0,0,0
68.21,"KAILUA KONA KE AHOLE AIRPORT","KAILUA KONA KE AHOLE AIRPORT","NWS","BI",27,19.73556,-156.04889,"USW00021510","HKO",NA,NA,NA,0,0,0,0,0,0,0,0,0,0,0,0.3,0.5,0,0,0,0,0,2,NA,0,0,0,20.1,0,5.6,0,0,0,0,0
68.22,"HOLUALOA 4.0 NW","HOLUALOA 4.0 NW","CoCoRaHS","BI",416,19.6799,-155.9699,"US1HIHI0049",NA,NA,NA,NA,0,0,NA,NA,NA,0,0.3,0,0,NA,NA,0,8.4,0.5,NA,0,0.5,NA,NA,NA,NA,NA,NA,NA,NA,0,13.2,0,0,NA,NA
69.25,"Palamanui","Hilo Forest Service","HIPPNET","BI",297,19.73756,-155.99582,NA,NA,NA,NA,NA,0,0,0,0,13.716,2.032,0,0,0,0,0,3.048,1.016,0.254,0,0,25.146,0.254,1.778,0,0.508,0.254,0,20.32,0.254,10.668,0,0,0,0,0
69.26,"KALAOA 2.2 ESE","KALAOA 2.2 ESE","CoCoRaHS","BI",398,19.7189,-155.9859,"US1HIHI0038",NA,NA,NA,NA,NA,NA,NA,NA,NA,NA,NA,NA,NA,NA,NA,NA,NA,NA,NA,NA,NA,NA,NA,NA,NA,NA,NA,2.5,19.6,NA,NA,NA,NA,NA,NA
69.27,"KALAOA 1.7","KALAOA 1.7","CoCoRaHS","BI",304.5,19.7238,-155.9926,"US1HIHI0006","","",NA,NA,0,0,0,0.8,0,2.5,0.3,0,0,0,0.5,0,4.8,1.3,0.3,0,0,14.2,2,1.3,0,0,1.3,0.8,20.1,0.5,9.7,0,0,0,0
70.16,"Waiaha Stream","NWS","HydroNet-UaNet","BI",460.5528,19.6331997,-155.9486,NA,"WIHH1","9321011E",NA,NA,0,0,2.794,0,0,1.016,0,0,0,0,0,7.112,1.778,0,0,0,4.318,27.432,3.81,0,15.494,3.302,0.762,28.448,0,20.066,0,0,0,0,0.762
70.7,"Puuwaawaa","Hilo Forest Service","HIPPNET","BI",1659,19.72544,-155.87389,NA,NA,NA,NA,NA,0,0,1.016,0,0,0,0,0,0,0,0,8.128,5.08,0,0,3.302,0.254,4.318,20.066,1.524,0,13.716,5.08,35.306,0,13.716,0,0,0,0,0
73.29,"Kainaliu Upper","NWS","HydroNet-UaNet","BI",713.232,19.5310993,-155.9066,NA,"KNUH1",NA,NA,NA,0.456949948157872,0.158174982054648,0,0,0,0,1.81938707395634,0,0,0,0,8.18724183280351,7.18907475972853,1.05449988036432,0.0969878238927733,0,1.36454030546725,7.0501249115808,4.09362091640176,3.78225722395002,0.17574998006072,2.04851261380522,1.06276158445016,0.909693536978168,20.2406811977642,11.5985925964716,8.95127708458598,0.421799952145728,0,0,2.16052215032315
73.34,"Kainaliu","SCAN","SCAN","BI",416,19.53333333,-155.9333333,NA,NA,NA,2096,NA,0,0,0,0,0,0,0,0,0,0,0.254,0,6.858,2.032,0.254,0,0,8.89,9.144,2.032,0,0,3.302,0,24.892,0,10.16,0,0,0,0
74.8,"KEALAKEKUA 4 74.8","COOP","COOP","BI",433,19.5106,-155.9217,"USC00513987",NA,NA,NA,NA,0.536062814394215,0.185560204982613,0,0,0,0,2.13438202426611,0,0,0,0,9.60471910919751,8.43373692048007,1.23706803321742,0.113779563927138,0,1.60078651819959,8.27073034403119,4.80235955459876,4.43708870174336,0.206178005536237,2.40317663128192,1.24676010641231,1.06719101213306,23.7450000199605,13.6066854046965,10.5010336596598,0.494827213286968,0,0,2.53457865381601
75.1,"PTA KIPUKA ALALA","RAWS","RAWS","BI",1641.348,19.66694444,-155.7077778,"USR0000HPTK","PKAH1","32666200",NA,NA,0,0,0,0,0,0,0,0,0,0,0,12.2,9.39,0.509999999999991,0.510000000000005,0,0,0.510000000000005,7.11,0,0,0,0,30.21,0.299999999999997,5.10000000000001,0.5,0,0,0.200000000000003,0
76,"KULANI MAUKA 76","NWS","COOP","BI",2530,19.58363059,-155.4538895,"USC00515018",NA,NA,NA,NA,NA,NA,NA,NA,NA,NA,NA,NA,NA,NA,NA,3.3,NA,NA,NA,NA,NA,NA,NA,NA,NA,NA,NA,NA,NA,NA,NA,NA,NA,NA,NA
79,"KULANI CAMP 79","DEPT SOCIAL SVC","COOP","BI",1576,19.54863532,-155.3005575,"USC00515011",NA,NA,NA,NA,18.964235847186,16.483072232717,7.00433496544469,12.7298286543355,15.0365772287709,7.5049391579739,12.2002587520485,2.86658591625096,3.86358952745863,3.83464364006625,0.90947943446064,13.1507205320254,17.8605854772766,23.7022990298776,43.6069591533038,1.42718722530325,0.209485836884109,2.47609948131609,26.8359052455273,10.5642262687201,15.6165292721812,10.9499732076364,3.51685082111428,17.5311622496211,4.14677438469997,0.890314806757462,3.47863300034532,7.34766262607368,1.54643896406807,0.729149879664572,11.040505875962
79.6,"Kulani NWR","NWS","HydroNet-UaNet","BI",1623.3648,19.5543995,-155.3089,NA,"KNWH1",NA,NA,NA,14.478,7.874,1.27,5.842,3.302,2.794,3.81,2.794,8.382,5.588,0.254,9.144,11.43,37.846,3.81,0.254,0,3.048,9.398,2.286,7.366,3.81,1.524,19.558,1.27,8.382,20.066,0.254,1.524,0,4.572
83,"QuarryRainGageatSaddleRd","USGS","USGS","BI",1286.256,19.68586111,-155.2942222,NA,"SDQH1","DDF6B6E4",NA,NA,63.5,50.8,25.4,51.054,41.656,32.512,23.622,6.604,1.778,7.366,2.54,23.876,54.356,48.514,1.778,4.826,1.016,8.636,63.754,27.432,60.198,26.162,16.51,45.72,3.81,4.318,0.254,0.254,3.81,2.54,38.608
85.2,"Waiakea Uka","NWS","HydroNet-UaNet","BI",303.8856,19.6585999,-155.1277,"USC00519084","WKAH1",NA,NA,NA,36.83,14.224,2.032,10.16,6.35,11.176,2.286,1.27,10.414,1.016,0.254,9.906,18.542,60.452,4.826,0,0,12.446,25.654,11.43,14.224,9.144,7.874,13.462,0.762,11.938,4.064,14.478,14.986,4.064,0
87,"HILO INTERNATIONAL AIRPORT 87","NWS","HydroNet-UaNet","BI",11.6,19.7191,-155.053,"USW00021504","HTO",NA,NA,NA,18.796,7.874,0,2.286,3.556,5.08,0,0.762,6.604,0.762,0,11.938,16.764,72.136,22.606,0,0,3.302,34.544,2.54,9.144,6.35,1.016,12.7,0.254,28.448,0.762,0,0,11.43,0
87.5,"HILO 5 S","HILO 5 S","USCRN","BI",189,19.645,-155.0827,"USW00021515",NA,NA,NA,NA,27.8,13.2,0,5.8,1.8,2.4,0.3,0.7,9.1,0,0,9.8,19.6,65.3,19.9,0.6,0,5.7,40.8,12.8,6.2,10.1,4,13,16.6,3.8,22.4,1.3,2.3,9.9,3.4
87.8,"HILO 0.4 SW","HILO 0.4 SW","CoCoRaHS","BI",107,19.692,-155.0925,"US1HIHI0039",NA,NA,NA,NA,8.1,18.5,10.7,4.6,5.1,2,7.6,0.3,6.4,2.8,0.8,0.3,13.5,25.4,82.3,0.8,0,0,17.3,19.6,8.9,11.7,8.9,5.8,15.7,0.3,28.2,0.3,2,9.9,4.3
87.9,"IPIF","Hilo Forest Service","HIPPNET","BI",111,19.69748,-155.0954,NA,NA,NA,NA,NA,20.32,15.494,1.27,5.842,2.032,8.382,0.508,1.016,6.604,1.016,0,10.668,18.542,81.534,10.922,0,0,3.556,27.178,7.112,5.588,9.398,5.08,13.97,0.254,22.354,0.254,5.842,2.032,4.318,1.524
88.1,"KAUMANA 88.1","HILO SUGAR","COOP","BI",343,19.68362898,-155.1405634,"USC00513510",NA,NA,NA,NA,41.2006702139984,23.3723084665619,5.49357641824207,13.2916191442185,13.2883587629256,12.3893596221156,11.437993222137,1.37728489188527,12.4491408246626,3.896523949873,0.640693089708896,9.93300218169416,24.2896566615052,77.0970343481055,58.4610534696294,0.53107171457766,0,10.788890421088,33.4242404180718,16.2687459440256,16.1728454641989,14.9439289306444,7.96002951272734,15.6662211268138,6.25235632645222,12.1006641820331,7.96339589562319,8.2192342471729,7.76313664222627,2.90036436075737,0.204258351760638
88.2,"WAIAKEA SCD 88.2","SHINICHI KANESHIRO","COOP","BI",287,19.65529741,-155.1205634,"USC00519025",NA,NA,NA,NA,41.3128416089582,23.4359410344426,5.50853302275727,13.3278064065358,13.3245371486514,12.4230904265965,11.469133872243,1.3810346359253,12.4830343871969,3.90713247941101,0.64243741661524,9.96004539980378,24.3557867670754,77.3069358338137,58.6202173347908,0.532517590451483,0,10.818263848324,33.5152399977799,16.3130386197832,16.2168770449175,14.9846147094345,7.98170118966188,15.7088733911682,6.26937875660397,12.1336089951681,7.98507673774514,8.24161162516745,7.78427226603771,2.90826078366865,0.204814457865955
89.11,"Piihonua","NWS","HydroNet-UaNet","BI",296.8752,19.7098007,-155.1395,"USC00518053","PIIH1",NA,NA,NA,46.736,15.494,4.318,12.954,10.414,14.732,6.858,1.524,7.112,0.762,0,11.938,22.352,87.63,6.35,0,0,11.684,21.336,7.62,16.002,14.732,9.398,16.764,0,14.986,0,3.81,2.794,2.032,0
89.13,"KAIWIKI HOMESTEAD 89.11, HI US","COOP","COOP","BI",379.67,19.7509,-155.1362,"USC00512802",NA,NA,NA,NA,17.5,50.3,16.8,20.8,18.5,8.9,16.8,2.5,3.6,3,6.6,0.5,19.8,32.5,117.1,0,0,0,33,13.7,13,19.3,2.3,14,15.2,0.5,17,0.3,0,6.4,2
89.14,"HILO 1.8 WNW","COOP","COOP","BI",151.5,19.70799,-155.11258,"US1HIHI0066",NA,NA,NA,NA,9.7,21.6,13,9.1,10.2,3,6.9,0.3,6.1,1.5,1.3,0.3,14,27.7,88.4,0.5,0,0,16,16.8,8.1,13,5.6,7.6,14.7,0.3,22.9,0.3,11.7,9.1,8.1
89.2,"AMAUULU 89.2","HILO SUGAR","COOP","BI",390,19.73529295,-155.1455638,"USC00510150",NA,NA,NA,NA,27.6598563365118,11.5872371139441,0,3.36403658146766,5.23294579339413,7.4756368477059,0,1.12134552715589,9.71832790201767,1.12134552715589,0,17.5677465921089,24.6696015974295,106.154043237424,33.2665839722913,0,0,4.85916395100884,50.8343305644001,3.73781842385295,13.4561463258706,9.34454605963238,1.49512736954118,18.6890921192648,0.373781842385295,41.863566347153,1.12134552715589,0,0,16.8201829073383,0
91,"MOUNTAIN VIEW 91","PU SUGAR","COOP","BI",463,19.5487,-155.1101,"USC00516552",NA,NA,NA,NA,38.0191916728273,19.1013728719934,3.80019867349108,12.5594384132499,7.60070237089287,9.1,4.16038592693811,3.11342635000147,12.1210960505157,0.8,0,9.42355800946814,20.9885445101103,63.1565507544229,6.90465489777997,0,0,8.72746037858813,19.399429451041,8.94572909203015,19.6525058010692,6.4,5.6,17.5,33,4.3,2.35995207075962,6.13178004778759,5.79369166644299,2.23733378597092,0.0750693548739351
91.11,"PUNA MACADAMIA O 91.11","COOP","COOP","BI",244,19.61861,-155.08667,"USC00518315",NA,NA,NA,NA,17.8,36.8,4.52907572771957,10.7764548858143,13.8756426945848,2.3,4.1,0,9.4,5.05726244772633,1.53306089858392,3.07923107418982,15.5,29,70.6443631870616,0.527591943866503,0.0586175657116525,3.45071819630469,22.1707342901148,21.6,8.9,9.4,4.6,7.74702754684575,16.2049915872121,1.29242453958591,3.8,28.4,3,0.287532891556839,0.131219382992432
91.12,"HAWAIIAN BEACHES 91.12","COOP","COOP","BI",88,19.533,-154.917,"USC00511300",NA,NA,NA,NA,14.1007203367198,7.35684057941861,1.09477438596758,4.21578345942558,3.50076480901922,2.63618198501911,14.1563538446417,2.0923371333766,13.4426103843489,3.59651874490667,0.255238708540438,8.86150935047166,24.964186681485,34.8955785235604,20.7341947757893,1.20134869899857,1.36242429145468,7.38819054108479,30.0888795152832,6.11607081275462,8.50128714870335,5.12785334100097,0.722115479671007,46.7942176545643,18.6788596727757,17.0748869770157,3.06121893393247,8.948501499723,3.66713351861816,6.52750500248,1.25584997842369
91.14,"KURTISTOWN 91.14","COOP","COOP","BI",223,19.59,-155.083,"USC00515102",NA,NA,NA,NA,18.8077766518745,30.6584438742296,3.22178001887685,12.7331710422717,12.555971400356,3.76963432290739,12.2576284680048,0.477505723957718,11.9562872938856,3.55903475521562,0.490049281669411,6.18305456189458,20.9043984596701,57.4078858654313,83.1227836498645,0.490049281669411,0,1.57914218881403,37.3140717025951,18.7565934022925,11.046810971982,12.3277437956512,2.8768150050952,15.2086149541513,19.1881024319935,15.377129177791,7.91363517690462,12.2000640606774,1.27241351353047,5.73799419834797,0.271732775530157
91.15,"Mountain View","Mountain View","HydroNet-UaNet","BI",346.5576,19.5674992,-155.0841,NA,"MTVH1",NA,NA,NA,NA,14.478,2.032,7.112,3.048,4.572,5.334,5.334,13.97,0.762,0,11.684,22.352,59.69,7.62,0,0,9.906,26.67,13.462,13.462,9.652,6.096,17.526,16.002,5.08,39.116,12.7,0.508,10.414,0
91.16,"MOUNTAIN VIEW 4.5 NNE, HI US","CoCoRaHs","CoCoRaHs","BI",482.19,19.5808,-155.1216,"US1HIHI0060",NA,NA,NA,NA,21.8,43.7,19.3,15,11.7,11.2,9.4,1.5,10.2,9.4,2,0.5,11.9,31,68.1,2.8,0.5,0,13.7,12.4,13.7,14.7,7.6,7.6,16.3,34.8,2.5,33.3,20.3,0.5,6.6
91.17,"PAHOA BEACON 91.9, HI US","COOP","COOP","BI",148.5,19.5407,-154.9728,"USC00517460",NA,NA,NA,NA,NA,NA,NA,NA,NA,8.1,NA,NA,NA,0,0,NA,NA,NA,NA,NA,0,NA,NA,NA,NA,0,NA,NA,NA,NA,5.1,NA,NA,NA,NA
91.6,"KURTISTOWN 6.1 SSE","KURTISTOWN 6.1 SSE","CoCoRaHS","BI",295,19.5145,-155.0206,"US1HIHI0037",NA,NA,NA,NA,9.4,21.6,9.4,6.4,8.6,NA,11.4,2.3,10.4,8.6,0.8,0.3,18.3,38.1,23.4,NA,1,NA,17.8,NA,NA,NA,4.3,10.7,11.9,25.4,6.9,NA,NA,NA,1
91.8,"S GLEWNWOOD 91.8","COOP","COOP","BI",694,19.488,-155.149,"USC00518638",NA,NA,NA,NA,49.846960406181,25.0438090701034,4.98244030128914,16.4666791102921,9.96528051941322,12.4366573595593,5.45468179226795,4.08201314040569,15.891968459219,1.07394820237628,0.205686243984017,12.3552264610358,27.5180797156867,82.8045507105482,9.05269271029683,0,0,11.4425728900733,25.4345910368122,11.7287449899559,25.7663994273787,13.0559974172144,9.02050699724581,20.5179225414913,23.7004198436419,10.857532739468,3.09413304848654,8.03937653098315,7.59610887017387,2.93336822109268,0.0984234276288682
91.9,"Pahoa Beacon","NWS","HydroNet-UaNet","BI",187.1472,19.5149994,-154.9644,NA,"PHAH1",NA,NA,NA,27.9062170778393,3.81,2.54,4.318,5.08,5.842,4.826,1.778,19.05,1.016,0,12.954,27.178,23.114,2.032,0.762,0.508,5.334,33.782,5.08,10.414,2.286,1.016,24.384,27.432,8.27119012182476,5.08,0,6.35,5.334,2.286
92,"KEAAU 92","PU SUGAR","COOP","BI",87,19.62918887,-155.0333418,"USC00513872",NA,NA,NA,NA,12.7,24.3118505205726,3.73059417290442,13.3580776828565,15.049950834322,1.3,10.9,0.0740641666193919,7.90153018548671,7.30405691435383,2.82344737542463,0.549285204227595,10.8664094338654,26.2,45.2,0.496314603661758,0.146015636373114,0,20.2538394393478,15.4870128494217,5.00216029348867,10.7,1.74124258171421,3.67278259176451,9.09943696105956,8.96532068901349,11.8888063649518,23.6,2.5,0.270487020834535,0.177964142317357
92.5,"KiholoRainGage","USGS","USGS","BI",283.96692,19.82580556,-155.8925833,NA,"KIRH1","DD60236E",NA,NA,0,0,0,1.27,0,0,0,0,0,0,0,1.524,0.508,0,0,0,0,0,1.016,0,0,0,0.508,30.48,0,3.048,0,0,0,0,0
93.11,"KAPOHO BEACH 93.11","ARRUDA GENVIEVE","COOP","BI",4,19.48892483,-154.8200037,"USC00513368",NA,NA,NA,NA,6.1,6.4,0.3,3.6,0.8,0,16.5,2.3,8.1,5.8,0.5,0,18,33,7.1,1.8,2.3,8.4,11.4,6.6,3,0.8,0,65.5,16.5,14.5,1.8,0.8,0.8,1.3,0.8
93.12,"PUUANAHULU","RAWS","RAWS","BI",830.58,19.83277778,-155.7697222,NA,"PULH1","48703040",NA,NA,0,0,0,0,0,0,0,0,0,0,0,NA,1.3,0,0,NA,0,0.299999999999997,0.5,0,0,0.5,2.3,NA,0,NA,0.5,0,0,0,0
93.13,"Mamalahoa","Hilo Forest Service","HIPPNET","BI",636,19.80256,-155.85062,NA,NA,NA,NA,NA,0,0,0,0.254,0,0,0,0,0,0,0,3.048,0.762,0,0,2.032,0.508,0.254,1.27,0,0,4.826,9.398,30.988,0,1.524,0,0.254,0,0,0
93.61,"PAHOA 4.7 NE, HI US","CoCoRaHs","CoCoRaHs","BI",53.95,19.5473,-154.8988,"US1HIHI0065",NA,NA,NA,NA,8.9,14,3.3,4.8,2.5,0.3,23.4,3,16.8,5.1,0.5,0.5,28.2,35.3,15.7,1.5,0.8,0.5,33,16.5,9.1,NA,5.1,1,20.1,44.7,8.6,7.1,3.6,1.5,5.6
94,"KAUPULEHU LAVA FLOW","RAWS","RAWS","BI",372.1608,19.80333333,-155.9180556,NA,"KPLH1","4870E628",NA,NA,0,0,0,0,0,0,0,0,0,0,0,2.09999999999999,0.5,0,0,0,0,0,1.5,0,0,0,0.199999999999989,30.8,0,5.29999999999998,0,0,0,0,0
94.5,"PUU WAAWAA","RAWS","RAWS","BI",708.9648,19.795,-155.8452778,"USR0000HPUW","PWWH1","487046D0",NA,NA,0,0,0,0,0,0,0,0,0,0,0,3.09999999999999,0.700000000000003,0,0,2.59999999999999,0,0.5,1.3,0,0,11.1,9.39999999999999,34.3,0,1.59999999999999,0,0,0,0,0
95.11,"WAIKOLOA VILLAGE 2.7 ENE","WAIKOLOA VILLAGE 2.7 ENE","CoCoRaHS","BI",265,19.9465,-155.7883,"US1HIHI0047",NA,NA,NA,NA,0.415440036553197,0,0,0.3,0,0,0,0,0.3,0,0,0,2,0.3,0,0,0,0,0,0.3,0,0,9.83208086509233,18,25.4,0,11.7,0.3,0,0,0
95.6,"WAIKOLOA","RAWS","RAWS","BI",297.7896,19.92416667,-155.7936111,NA,"WKVH1","4870C0C4",NA,NA,0,0,0,0,0,0,0,0,0,0,0,2,0,0,0,0,0,0,0,0,0,2.29999999999998,14.7,26.4,0,10.7,0,0,0,0,0
95.8,"WAIKOLOA 95.8","BOISE CASCADE","COOP","BI",268,19.93389178,-155.7877744,"USC00519142",NA,NA,NA,NA,0.3,0,0,0.216637762567873,0,0,0,0,0,0,0,0,2,0.3,0,0,0,0,0,0,0,0,7.1,12.9982657540724,18.3419972307466,0,11.7,0,0,0,0
95.9,"WAIKOLOA BEACH RT 95.9","COOP","COOP","BI",24,19.91278,-155.87778,"USC00519144",NA,NA,NA,NA,0,0,0,0,0,0,0,0,0,0,0,0,0,0.5,0,0,25.4,0,0.5,1.3,0,0,0,8.9,25.4,0,11.2,0,0,0,0
98.1,"PUUKOHOLA HEIAU 98.1","ROSE FUJIMORI","COOP","BI",43,20.02666416,-155.81944,"USC00518422",NA,NA,NA,NA,0,0,0,0,0,0,0,0,0,0,0,0,1.3,0.3,0,0,0,0,0.8,0,0,0,0,5.6,26.7,0,0.8,0,0,0,0
98.2,"PUHO CS","PUHO CS","RAWS","BI",29.5656,19.42194444,-155.9075,NA,"PERH1","32D6803A",NA,NA,0,0,0,0,0,0,0,0,0,0,0,5.34,0.759999999999991,0,0,0,0,10.92,7.36,0,0,0,0,20.6,0,8.60000000000001,0.799999999999983,0,0,0,0
98.91,"HOLUALOA 0.95","COOP","COOP","BI",527.3,19.6225861,-155.927558,"US1HIHI0067",NA,NA,NA,NA,NA,NA,NA,NA,NA,NA,NA,NA,NA,NA,NA,NA,10.2,1,0,0,0.3,1.5,10.2,4.3,0,6.4,6.9,1.5,25.1,0,NA,0,0,0,0
99,"PTA WEST","RAWS","RAWS","BI",1307.592,19.77166667,-155.7022222,"USR0000HPTW","PKWH1","32667176",NA,NA,0,0,0,0,0,0,0,0,0,0,0,NA,3.81,0,0,1.02,0.760000000000005,NA,1.77,0,0,0.259999999999991,0.25,NA,0,9.40000000000001,0,0,0,0,1.3
100,"Waikii","PARKER RANCH","STATE","BI",1417,19.82,-155.6508,NA,NA,NA,NA,NA,0.254,0.254,0,0.254,0,0,0,0,0,0,0,4.572,2.032,0,0.508,0.196775769725632,1.016,5.842,1.778,0,0,0,0.254,34.798,0.254,3.25436849930865,0.762,0,0,0,4.76802826642896
101.1,"PTA KEAMUKU","RAWS","RAWS","BI",1025.9568,19.90222222,-155.6786111,NA,"PKMH1","328FB7BE",NA,NA,0,0,0,0,0,0,0,0,0,0,0,2.54000000000001,1.78,0,0.760000000000005,0.259999999999991,0.25,2.54000000000001,0.509999999999991,0,0,0,7.61,25.7,0,4.3,0,0,0,0,6.30000000000001
102.8,"AUHMOA","RAWS","RAWS","BI",2001.9264,19.83638889,-155.6130556,NA,"AHMH1","4870D3B2",NA,NA,0,0,0,2.28,0,0,0,0,0,0,0,7.37,12.95,0,2.53999999999999,0,1.02,1.02000000000001,1.52,0,0,0,0.760000000000005,33.28,0,7.90000000000001,9.39999999999998,0,0,0.5,0.700000000000017
103.3,"Mana House","Mana House","SCAN","BI",1288,19.96,-155.54,NA,NA,NA,2097,NA,0,0,0,4.064,0,11.684,17.272,1.016,11.43,12.446,0.254,0.254,10.16,1.27,0,0,0,0.254,16.51,44.958,2.286,1.016,0,0,21.844,0,0.508,0,0,0,0
104.1,"Silversword","Silversword","SCAN","BI",2835,19.77,-155.42,NA,NA,NA,2101,NA,5.334,1.524,0,0,0,5.842,2.54,0.254,0,0,0,0,20.32,6.096,14.478,0.762,0.508,0.762,0.762,21.336,0.762,7.62,0,0,60.452,0,27.94,13.716,0,0,0
107.4,"PTA EAST","RAWS","RAWS","BI",1959.864,19.68277778,-155.5452778,"USR0000HPTA","PTAH1","3266D18E",NA,NA,0,0.299999999999997,0,0,0.5,0,0.200000000000003,0,0,0,0,6.7,4.3,11.4,7.40000000000001,8.59999999999999,0,0.799999999999983,19.3,0,0,0.199999999999989,0,33.8,0,3.59999999999999,0,0,0,0,3.5
109,"PTA RANGE 17","RAWS","RAWS","BI",1734.312,19.74583333,-155.6261111,NA,NA,"3279630C",NA,NA,0,0,0,0,0,0,0,0,0,0,0,8.38,9.38999999999999,0,9.66000000000001,0,0,3.55,3.3,0,0,0,0,NA,0,3.3,3.30000000000001,0,0,0,0
113.2,"PUU MALI","RAWS","RAWS","BI",2165,19.92666,-155.44,NA,"PMLH1","3181742E",NA,NA,0,0,0,0.200000000000003,0,1.5,4.10000000000001,8.40000000000001,8.59999999999999,0.5,0.299999999999983,3.30000000000001,8.90000000000001,0,1,25.6,0,1.80000000000001,6.39999999999998,0,0,0,2.80000000000001,41.6,0,4.09999999999999,1.80000000000001,0,0,0,0
125.12,"Pua Akala","SCAN","SCAN","BI",1949,19.8,-155.3333333,NA,NA,NA,2098,NA,15.24,8.89,2.032,1.778,2.032,5.334,4.064,3.556,1.27,0.254,0,0.254,19.812,8.89,37.846,28.956,0,0,0.762,12.954,1.27,6.096,0.508,0.762,17.018,0,2.794,0,0,0,1.016
127.5,"Laupahoehoe","Hilo Forest Service","HIPPNET","BI",1145,19.93217,-155.29129,NA,NA,NA,NA,NA,4.318,2.032,7.112,2.032,29.718,31.496,16.764,22.86,54.864,6.096,4.572,5.08,3.556,10.668,0.508,3.048,0.254,13.462,17.272,2.794,4.318,0.254,0,27.178,0,4.572,4.064,0.254,0,0,15.494
128.1,"Hakalau","Hilo Forest Service","HIPPNET","BI",1665,19.83873,-155.30797,NA,NA,NA,NA,NA,13.633639753368,9.46251554020097,5.90940522184319,9.62172967493799,15.2471126403715,14.6944429364763,8.92861301620535,6.45638458309052,10.9852850653936,2.86519358531556,1.33838573450465,11.7968528621796,12.7764234126505,22.6980193982325,4.98462117646327,1.49362902851899,0.220075679260726,4.49047280468859,19.7181545246996,5.70923031200669,12.5662804507186,4.64716778799695,2.83073539091784,18.5309713947701,0.730356201668055,1.56612458822413,0.777575027743556,0.0894263535260565,0.768910988165475,0.512607325443606,11.8855434482059
129,"HAKALAU","RAWS","RAWS","BI",1950.72,19.82111111,-155.3305556,"USR0000HHAK","HKUH1","8374D370",NA,NA,5.10000000000002,1,0.699999999999932,1.30000000000007,7.09999999999991,8.90000000000009,4.79999999999995,3.10000000000002,2,1.29999999999995,0.200000000000045,17.6,7.29999999999995,32.3,11.9000000000001,0.299999999999955,0,1.5,14.7,1.29999999999995,3.79999999999995,0.300000000000068,0,15,0.199999999999932,0,0,0,0.300000000000068,0.199999999999932,6.40000000000009
132.2,"Spencer","Hilo Forest Service","HIPPNET","BI",454,19.96358,-155.25014,NA,NA,NA,NA,NA,0,0,0,0,0,0,0,0,14.224,11.938,0.508,19.812,3.81,9.652,0,0,0,9.906,48.768,4.826,9.398,0.508,0,11.176,0,8.382,0.508,0,0,0,0
132.3,"POHAKUPUKA","COOP","COOP","BI",82,19.9522,-155.185,"USC00518067",NA,NA,NA,NA,6.41739609202226,11.9324043204467,3.60502300253556,9.83790801973695,15.8895784014862,16.8230830425414,13.8882894187454,1.84864978813234,12.2913358890334,9.27917067188751,2.41410590832614,0.405960935463888,12.6400101293223,13.900854212266,122.773232341024,0.42474269402161,12.0892590211576,4.66652033583717,30.7382837398088,10.5131215661419,5.42050176820802,4.92159832559586,9.27485288668705,3.38680978326445,10.4062728342474,0.564673022187254,4.44293813826998,0.183549530382148,0.0562350910414026,0.269436407728845,0.183549530382148
132.4,"KAPEHU MAUKA 132.4","COOP","COOP","BI",335,19.95,-155.217,"USC00513329",NA,NA,NA,NA,3.53955138522207,9.78347910971492,2.54529537813722,12.2803786914065,24.8177800688273,26.2758120121273,21.691986006023,12.1979862821133,14.3986251025435,20.0478211484501,3.07130748353576,1.02662531531989,12.9532551070212,16.425326994216,78.0473345390164,0.6634015390291,0.146388415344978,0,48.0098304859007,39.3493376842112,8.46622971025419,7.68699720946163,14.4863037455416,7.17196347706322,11.2044640074034,0.869300081070026,20.157955681171,0.286684250623957,0.0878330492069866,2.26182693027184,1.47176985841268
132.5,"KIHALANI 132.5","COOP","COOP","BI",302,19.97278,-155.23944,"USC00514459",NA,NA,NA,NA,5.06743635117957,6.91967170712796,2.41140074642338,7.39100357111508,15.0450525774726,19.9767182856362,11.4208939436221,9.44025010948778,11.9150824885028,16.8356195743774,2.14652508464252,6.56623093123979,6.74312666658656,7.79582360446865,20.3424215935644,0.114411819986301,0.114411819986301,2.92855354960769,42.4599147901224,26.2438855443689,7.40595657541806,2.98759536897349,11.1665492429097,7.32412184960631,4.24996889019612,3.16731240926652,10.7802700103552,0.0686470919917809,0.0686470919917809,1.6123462172169,0.994866567126853
133.1,"LAUPAHOEHOE 133.1","BARNARD EW","COOP","BI",140,19.98027372,-155.2305601,"USC00515427",NA,NA,NA,NA,5.55946417947504,15.2268442029882,1.36599876687026,6.59058366791122,13.3191052251412,14.0920413043362,10.9835328239402,6.54636564494195,12.447896132653,10.7591830804566,1.6482968032809,0.550965096943321,6.95170024474579,10.9440574672694,26.9942128189162,0.356031638621365,0.0785631391008442,0,25.7657204757847,21.1178424380481,4.5436217122711,5.03188017599764,7.77445055017539,3.84902017654106,6.01316615313874,0.598411699872832,11.0938146363387,6.84816013585324,0.767585155959737,1.21386807368756,0.789863459061431
133.3,"Laupahoehoe","NWS","HydroNet-UaNet","BI",499.872,19.9792,-155.2372,NA,"LPHH1","B159741A",NA,NA,18.2361943708176,6.46766821831164,1.39766939498005,5.04447462002687,3.67449767393502,5.65755024303719,2.02261321037103,0.609119558883432,6.46569186524851,2.63616572583931,0.149037118920928,8.49956530494708,9.63466814668609,34.21073922008,0.254,0,0,7.10606000936029,19.3761548482374,0.762,8.35469228541942,5.32763749222184,3.76510672181331,8.70193211134811,0.159649956578758,7.4554106169479,0,3.89093991979349,0,1.30884816564516,0
137.4,"WAILEA 137.4","WAILEA 137.4","COOP","BI",61,19.8875,-155.12528,"USC00519432",NA,NA,NA,NA,14.5,19.8,6.9,6.9,18.0729497006859,12.141182382911,14.7497580549572,2,17.8,15.7,2.3,0.3,19.6,13,254.3,0,41.9,16.3,24.3221141027463,18.5931850076571,8.69716478678609,8.42322001856013,1.6623499024363,3.3,13.5,0.5,2,0,0,0.3,0
138.2,"KAHUNA FALLS 138.2","COOP","COOP","BI",424,19.86139,-155.16361,"USC00512595",NA,NA,NA,NA,15.6461144574503,45.2225693190337,12.1683756581036,32.3,20.1,45.7,25.4,6.4,22.9,15.2,7.6,1.3,17.8,19.8,88.9,0.5,0.5,0,33.5,28.4,17.3,12.4,3.6,6.1,15.2,0.259653856660999,14.058827233895,0.3,0.3,0.3,0.3
138.3,"HONOMU 2.8 SW","HONOMU 2.8 SW","CoCoRaHS","BI",385,19.8494,-155.15,"US1HIHI0014",NA,NA,NA,NA,18,53.8,11.7,31.2,43.2,7.4,17.8,5.3,22.1,14.5,6.1,1.3,13.2,27.9,103.9,0,0.3,0,36.1,30.5,13.7,12.2,3.3,7.1,15,0.3,5.3,0.3,0,0.8,0
140.1,"PAPAIKOU MAUKA NO 2 140","MAU KEA SUGAR","COOP","BI",427,19.78695738,-155.1388973,"USC00517724",NA,NA,NA,NA,8.9,24.6,6.4,7.1,14,1.8,17.8,0.3,11.4,7.6,1.3,0.3,14.5,25.4,130.8,1.3,0,0,30.5,19.1,6.4,10.2,0.5,5.1,14.5,0,15.2,0.5,0,0.5,0.5
140.5,"KAUKU 140.5","COOP","COOP","BI",457,19.835,-155.149,"USC00513473",NA,NA,NA,NA,45.5004898166615,25.8115093237816,6.06690174157285,20.563900737908,18.3243154062835,23.5336917004269,19.9780853848782,3.04130622082436,16.3904727473724,8.8672121621059,3.11063734775513,6.67999047617142,23.8988900564943,62.9064513822629,91.7878549872695,0.752557814298902,0.16606193897579,5.98282286618062,35.8114002469172,21.9511369940244,16.8269734971797,16.2636322205732,6.23349186356414,12.9108742887672,11.5899677080833,13.3635240526347,8.7944786328194,2.27613299988972,1.53031219660258,1.36570343329701,0.325212500048209
144.1,"PAPAIKOU 144.1","MAU KEA SUGAR","COOP","BI",61,19.78362447,-155.0922318,"USC00517711",NA,NA,NA,NA,10.9,19.1,5.36568878703983,8.93631402542028,14.3030554365084,2.12683870045544,10.7388235161687,0,6.1,8.45782486597517,1.9773493819617,0.376621564533266,10.3271338384659,19.1332308779961,63.1582596113511,0.5,11.1057210155017,4.29997699095827,19.248686689559,11.4,1.8,5.8,0.5,3.30742609645132,9.58373922402911,0.184307063006434,19.8,6.9,0,0,0.117314212814579
144.11,"PEPEEKEO 0.2 SSE","PEPEEKEO 0.2 SSE","CoCoRaHS","BI",178,19.8313,-155.1077,"US1HIHI0002",NA,NA,NA,NA,19.1272907101657,18.4640031473462,4.86434679681098,11.526769480289,10.5927447414472,14.0965857604793,11.6095686928395,2.16600520302043,14.4013742671157,10.8721143853473,2.82853247361661,0.475651745442915,14.8099049815179,16.2871966034278,143.84956077103,0.497657745183406,14.1646071141163,5.46761609057147,24.5427165417571,15.5383434613798,10.1921514750872,8.64852586453869,3.42159627450629,3.96821921560523,12.1927047771453,3.93038535516952,6.48655975340703,0.215059250471311,0.0658888993307183,0.315690221463424,0.215059250471311
144.12,"PAPAIKOU 1.1 N","PAPAIKOU 1.1 N","CoCoRaHS","BI",108,19.8095,-155.0988,"US1HIHI0011",NA,NA,NA,NA,16.8934895692073,22.6279413927672,5.49213207122071,13.6219344943425,10.9537021355661,15.7992757642868,13.0685023503522,2.55970946937074,17.0190422590321,12.8482859161409,3.34266111043629,0.562108657557764,17.5018296210965,19.2476413801595,169.996398142056,0.588114581200123,16.7392390883272,6.46143816386188,30.1586217937781,16.9080037816182,8.94879012825671,10.5182007880845,3.11259766201923,4.6895031870465,14.4089136220816,9.0074876458114,6.25195445516375,0.254149527960296,0.0778652051749774,0.3730717027553,6.6
147.1,"MIDDLE PEN 147.1","KAHUA RANCH","COOP","BI",421,20.10027112,-155.8322151,"USC00516270",NA,NA,NA,NA,0,0,0,0,0,0,0,0,0,0,0,0,0,0,0,0,0,0,0,0,0,0,0,0,0,0,35.6,0,0,0,0
147.2,"KOHALA RANCH","KOHALA RANCH","RAWS","BI",328.8792,20.08305556,-155.8325,NA,"KHRH1","4870B654",NA,NA,0,0,0,0,0,0,0,0,0,0,0,2,0.5,0,0,0,1.8,0.299999999999997,1.7,0,0,0,1.8,29.2,2.80000000000001,1.30000000000001,0,0,0,0,0
160.3,"Upolu Airport","NWS","HydroNet-UaNet","BI",34,20.265,-155.8582,NA,"UPLH1","B15017A0",NA,NA,NA,NA,NA,NA,NA,NA,NA,NA,4.58821791032829,NA,NA,NA,NA,NA,NA,NA,NA,NA,NA,NA,NA,NA,NA,NA,NA,NA,NA,NA,NA,NA,NA
168,"HAWI 168","KOHALA SUGAR","COOP","BI",183,20.23692665,-155.8272119,"USC00511339",NA,NA,NA,NA,NA,NA,NA,NA,NA,NA,NA,NA,9.7,NA,NA,NA,NA,NA,NA,NA,NA,NA,NA,NA,NA,NA,NA,NA,NA,NA,NA,NA,NA,NA,NA
175.1,"KOHALA MISSION 175.1","BOND ESTATE","COOP","BI",163,20.2252605,-155.7922137,"USC00514680",NA,NA,NA,NA,NA,NA,NA,NA,NA,NA,NA,NA,11.3375181777731,NA,NA,NA,NA,NA,NA,NA,NA,NA,NA,NA,NA,NA,NA,NA,NA,NA,NA,NA,NA,NA,NA
176.3,"Kahua Ranch HQ","KAHUA RANCH","HydroNet-UaNet","BI",987.552,20.1249008,-155.7884,NA,"KASH1","15D293C2",NA,NA,0,0,1.016,1.016,1.27,4.064,0,3.302,7.62,0,0,4.064,0.762,0,0,0,0.254,1.016,0.508,0,0,0,5.08,24.13,5.334,4.064,0.508,0,0,0,0.254
178.12,"PONOHOLO RCH 178.11","PONOHOLO RCH 178.11","COOP","BI",762,20.12554592,-155.7774941,"USC00518101",NA,NA,NA,NA,0,0,0,0,0,0,0,0,0,0,0,0,0,29.2,0,0,0,0,6.9,0,0,0,0,0,26.9,3.8,0,0,0,0,0
179.3,"POLOLU LOOKOUT 179.3","POLOLU LOOKOUT 179.3","COOP","BI",149,20.20694,-155.73778,"USC00518086",NA,NA,NA,NA,NA,NA,NA,NA,NA,NA,NA,NA,13.7278158804119,NA,NA,NA,NA,NA,NA,NA,NA,NA,NA,NA,NA,NA,NA,NA,NA,NA,NA,NA,NA,NA,NA
185.7,"KawainuiRainGagenearKamuela","USGS","USGS","BI",1237.488,20.08533333,-155.6811667,NA,"KWSH1","DDF6A592",NA,NA,0.508,2.286,19.812,16.256,25.654,38.1,12.954,12.192,36.83,1.524,1.27,29.972,15.748,0,0.254,0,0.762,12.7,19.812,6.35,9.652,4.826,3.048,27.432,0.762,4.318,4.064,0.254,0,0.254,0.508
189,"Waimea Plain","SCAN","SCAN","BI",927,20.01666667,-155.6,NA,NA,NA,2099,NA,0,0,0,1.27,0.254,2.286,3.302,0.254,2.286,9.144,0,0,7.112,2.286,0,5.842,0,0,1.27,1.016,0,0.762,0,1.016,31.496,0,8.382,0,0.254,0,0
191.1,"LALAMILO FLD OF 191.1","DOWALD","COOP","BI",799,20.01083015,-155.6763867,"USC00515260",NA,NA,NA,NA,0.3,0,NA,NA,NA,1.5,0,0,0.3,NA,NA,NA,2.5,0,0,0.3,NA,NA,NA,0,0.3,0,10.9,NA,NA,NA,NA,0,0,NA,NA
192.7,"Kamuela Upper","NWS","HydroNet-UaNet","BI",948.5376,20.0319996,-155.6667,"USC00513080","KUUH1","817075F6",NA,NA,0,0.254,7.366,2.286,9.652,14.478,0.254,2.54,10.922,0,0,8.636,3.048,0,0,0,0.254,4.064,2.032,0.254,4.064,0,9.144,24.384,2.286,7.112,0.762,0,0,0,0
199,"KUKUIHAELE HIC 199","HONOKAA SUGAR","COOP","BI",299,20.11526922,-155.5822202,"USC00514928",NA,NA,NA,NA,0,0,0,0,26.0585955580135,23.7479811735591,13.9920537725294,19.8969571994684,6.16163835854506,24.5181859683772,0.64183732901511,1.02693972642418,3.85102397409066,1.02693972642418,0,0,0,0,50.8335164579967,45.6988178258758,1.66877705543929,0,25.8018606264074,6.54674075595412,1.92551198704533,1.28367465803022,24.7749208999832,0,0,3.85102397409066,2.3106143844544
201.3,"Kamuela 1","NWS","HydroNet-UaNet","BI",877.824,20.0394993,-155.6084,NA,"KMUH1","81706680",NA,NA,0,0.254,1.524,1.524,7.366,11.176,1.524,4.826,12.7,0.254,0,11.43,4.064,0,0,0.762,0.762,4.318,5.08,0.762,3.048,0.508,1.016,24.892,0.762,6.35,0.254,0,0,0,0
206.1,"KUKUIHAELE 206.1","COOP","COOP","BI",226,20.12167,-155.57417,"USC00514927",NA,NA,NA,NA,0,0,0,1.87755242540944,13.3852315851643,16.8131412229395,9.45302886766602,4.75630813740729,15.6865269009234,9.4790627615063,0.468994394269981,1.071654209447,8.36148728963607,0.537094882627385,0,0,0,0.293975917007347,38.967154941182,21.0947170554566,2.42284903536279,0,5.40936577808231,2.80449981988831,15.190921821262,0.533499222031096,6.89099009288789,0,0,0.794701806939394,0.476821084163636
214,"HAINA 214","HONOKAA SUGAR","COOP","BI",140,20.09193527,-155.4738903,"USC00510840",NA,NA,NA,NA,0,0,0,0,19.0189801932237,17.3325681563861,10.2121617786275,14.5218814283235,4.49709876490018,17.8947055019986,0.468447788010435,0.749516460816696,2.81068672806261,0.749516460816696,0,0,0,0,37.1010648104265,33.353482506343,1.21796424882713,0,18.8316010780195,4.77816743770644,1.40534336403131,0.93689557602087,18.0820846172028,0,0,2.81068672806261,1.68641203683757
215,"HONOKAA TOWN 215","HONOKAA SUGAR","COOP","BI",326,20.08026947,-155.4672231,"USC00511856",NA,NA,NA,NA,0,0,0,3,12.2,17.3,9.7,1,21.6,6.4,0.8,2,12.2,0.5,0,0,0,0,45.2,19.8,4.1,0,0.3,2.8,20.6,0.3,2,0,0,0,0
215.5,"Honokaa","NWS","HydroNet-UaNet","BI",591.9216,20.0656,-155.49,NA,"HNKH1","B15047DC",NA,NA,0,0,0,1.06692529691399,9.72977056309726,7.06515385805986,6.37550765729219,3.97652497303988,9.85264350878137,7.72379060178947,0.258783694242189,0.659834259226159,6.0681155787103,0.254893146027918,0,0,0,0,25.272500823836,10.8428169550873,6.75974327057565,0,3.90199942489454,1.54587355420447,9.45301077582668,0.252299447218405,6.2116834521916,0,0,0.573251305394157,0.343950783236494
216.6,"HONOKAA 2.5 SSW","HONOKAA 2.5 SSW","CoCoRaHS","BI",757,20.0417,-155.4777,"US1HIHI0033",NA,NA,NA,NA,0.3,0,0.3,0.5,12.7,39.9,16.3,8.4,27.9,22.9,0.8,0.5,19.3,2.3,0.8,0.3,0.8,0.5,31.5,15.2,5.3,0.8,0.5,1.8,28.7,0.8,10.4,0.3,0,0.3,0.3
216.8,"KALOPA 216.8","COOP","COOP","BI",396,20.06111,-155.43528,"USC00512982",NA,NA,NA,NA,0,0,0,2.3,17,0,11.7,4.1,22.9,14,0,0.5,15.2,0,0,0,0,0,42.9,0,28.7,0,0,0,25.1,0,10.7,0,0,0,0
216.9,"HONOKAA 2.7 ESE","HONOKAA 2.7 ESE","CoCoRaHS","BI",333,20.0606,-155.43,"US1HIHI0034",NA,NA,NA,NA,0,0,0,2.5,11.4,36.6810099897771,14.6641012485802,6.52229251090282,29.6233399044607,18.091765704974,0.911666793803003,0,13.7,0.5,0,0,0,0.5,37.1,32.8,2.5,0,0,0.8,26.9,0.8,9.9,0,0,0,0
217,"PAAUHAU 217","PAAUHAU SUGAR","COOP","BI",122,20.08360173,-155.4372236,"USC00517204",NA,NA,NA,NA,0,0,0,0,17.7425071710527,16.1692799342106,9.52676493421057,13.5472345394737,4.19527263157897,16.693689013158,0.437007565789476,0.699212105263161,2.62204539473685,0.699212105263161,0,0,0,0,34.6109992105265,31.1149386842107,1.13621967105264,0,17.5677041447369,4.45747717105265,1.31102269736843,0.874015131578951,16.8684920394738,0,0,2.62204539473685,1.57322723684211
217.2,"PAAUHAU MAUKA 217.2","COOP","COOP","BI",341,20.07306,-155.44722,"USC00517209",NA,NA,NA,NA,0,0,0,2.8,12.4,19.1,10.4,1,22.6,7.1,0.3,0.8,11.2,0.5,0,0,0,0.8,42.7,16.5,2.5,0,0,1.8,24.4,0.5,3.3,0,0,0,0
221,"PAAUILO 221","HAMAKUA MILL","COOP","BI",244,20.03860487,-155.3688913,"USC00517312",NA,NA,NA,NA,0,0,0,0,20.3,18.5,10.9,15.5,4.8,19.1,0.5,0.8,3,0.8,0,0,0,0,39.6,35.6,1.3,0,20.1,5.1,1.5,1,19.3,0,0,3,1.8
221.7,"PAAUILO 2.4 SW","PAAUILO 2.4 SW","CoCoRaHS","BI",613,20.019,-155.3988,"US1HIHI0050",NA,NA,NA,NA,0,0,0,0.3,7.4,44.5,13.7,9.4,30,21.6,0.8,0.3,16,1.3,0.3,0,0,0,35.3,20.3,2.5,0.5,0,1,25.1,0.3,31,0.8,0.5,0,0
222,"KUKAIAU 222","HAMAKUA MILL","COOP","BI",256,20.02693892,-155.3422253,"USC00514815",NA,NA,NA,NA,0,0,0,0,28.9939027992194,26.4230148662836,15.5681547049996,22.1382016447241,6.85570115449522,27.2799775105956,0.714135536926585,1.14261685908254,4.28481322155951,1.14261685908254,0,0,0,0,56.5595345245855,50.8464502291729,1.85675239600912,0,28.7082485844487,7.28418247665117,2.14240661077976,1.42827107385317,27.5656317253662,0,0,4.28481322155951,2.57088793293571
223,"OOKALA 223","LAUPAHOEHOE SUG","COOP","BI",131,20.01527222,-155.2838932,"USC00517131",NA,NA,NA,NA,10.4396683030337,4.37337455937898,0,1.2696893882068,16.687642400451,16.2295391337794,7.8998528672353,11.6569655247063,7.14682585608942,14.2660912423253,0.362378571891528,7.21040585343973,11.4853269448657,40.6455597428855,12.5558172833784,0,0,1.83399578296538,47.8868003156006,27.2121203055732,6.02094183974517,3.52691496724111,15.131924984798,10.7500913677758,1.22821231436423,16.5253361970232,14.4110426710819,0,0,8.52271837238317,1.3045628588095
249.1,"MAKENA GOLF CRS 249.1","MAKE GC","COOP","MA",30,20.6420893,-156.4388486,"USC00515842",NA,NA,NA,NA,NA,0,NA,NA,NA,0,NA,NA,0,NA,NA,NA,0,0,0,0,NA,NA,NA,NA,0,0,7.6,22.9,NA,NA,0,0,0,NA,NA
250,"ULUPALAKUA RANCH 250","ULUPALAKUA RANCH","COOP","MA",579,20.648174,-156.398497,"USC00518760",NA,NA,NA,NA,NA,NA,NA,NA,NA,0,0,0,0,NA,NA,NA,0.8,1.3,0,0,NA,NA,NA,0,0,0,0,NA,NA,NA,NA,NA,0,NA,NA
250.2,"Ulupalakua Ranch","NWS","HydroNet-UaNet","MA",581.5584,20.6487999,-156.3981,NA,"ULUH1","8170531A",NA,NA,0,0,0,0,0,0,0,0,0,0,0,0.762,1.27,0,0,0,21.844,8.636,0.508,0,0,0,0,26.162,0,1.016,0,0,3.302,0,0
253,"AUWAHI HN-141","HaleNet","HaleNet","MA",1166,20.64422222,-156.3420556,NA,NA,NA,NA,NA,0,0.762,0,0,0,0,0,4.572,0,NA,NA,NA,NA,NA,12.196,6.096,1.778,NA,NA,NA,NA,NA,0,NA,NA,0.508,0,0,0.254,NA,NA
255,"KepuniGulchRainGage","USGS","USGS","MA",225.552,20.6195,-156.2518889,NA,"KPNH1","F000D4EA",NA,NA,2.286,1.524,0,0,0,0,0,0,0,0,0,0,1.016,9.652,11.176,0,0,0,0,0,0,0,0.254,19.558,0,0.508,0,0,0,0,0
258.6,"OHE'O 258.6","HALEAKALA TL PK","COOP","MA",24,20.662925,-156.04248,"USC00517000",NA,NA,NA,NA,4.6,14.7,4.6,1.8,2,0,0,NA,NA,2,0,0.8,6.6,38.9,19.3,2.5,0,0,14.7,0.8,0,2.3,1.3,8.4,8.1,1.3,NA,NA,NA,NA,NA
266,"KAUPO GAP","RAWS","RAWS","MA",1228.344,20.68416667,-156.1519444,"USR0000HKAU","KPGH1","FA45A6E0",NA,NA,7.28709837849329,2.33144453470907,0.105193511930168,0.105193511930168,0.105193511930168,0.473370803685755,0.0525967559650839,3.62607134390396,2.01097987587116,0,0,7.27450248425409,15.6693739685283,38.5196424995565,9.09319700506164,0.157790267895252,0,3.6687366338372,0.0525967559650839,2.13883716089967,0.57397076566582,0.105193511930168,1.64665176793404,28.8313021545888,0,3.14661825800483,1.57790267895252,0,0,0.0525967559650839,0.105193511930168
267,"KULA HOSPITAL 267","KULA SATORIUM","COOP","MA",916,20.70013977,-156.3555187,"USC00515004",NA,NA,NA,NA,0,0,1,0,0,0,0,0,0,0,0,0,0,1.3,0,0,1.8,10.4,2,0.3,0,0,0,18.8,10.7,0,6.9,0,0,19.8,NA
267.8,"KULA 1","KULA 1","RAWS","MA",1998.5736,20.68305556,-156.3216667,NA,"KLFH1","AA10F12E",NA,NA,0,0.5,0,0,0,0,0,0.800000000000011,0,0,0,0.5,2,0.800000000000011,18.5,0.599999999999966,1,7.60000000000002,0,0.5,0,0,0,20.1,0,4,0,0,2.29999999999995,0,0
276,"BIG BOG HN-164","HaleNet","HaleNet","MA",1650,20.72655556,-156.09225,NA,NA,NA,NA,NA,138.952,85.852,23.876,27.178,5.08,13.462,7.366,26.416,17.272,2.54,1.27,39.116,88.392,263.658,135.882,1.778,0,9.906,1.27,10.16,15.494,40.894,39.116,31.496,0,2.794,0,0,0,0.762,2.032
277,"HORSHOE PU'U HN-163","HaleNet","HaleNet","MA",1930,20.73630556,-156.1071389,NA,NA,NA,NA,NA,72.8397898064026,35.4959132263104,6.27182049279487,8.66172236850352,4.13443917056149,8.74697065278933,2.01738306847245,17.3249125634845,12.0256634530544,1.14876288495335,0.310701993868052,26.2287261250115,55.1885279238457,176.651535413917,80.1150863335793,1.08091730352851,0,13.7517806096974,24.4329501717541,5.53534796589502,10.9801171079481,14.8298846874371,15.009619696256,37.1646287891718,0.175786299072414,30.2759390683563,6.98670401834957,0,0,8.31211615861719,0.927746198264372
278,"TREE LINE HN-162","HaleNet","HaleNet","MA",2195,20.73422222,-156.1228889,NA,NA,NA,NA,NA,47.1681617556107,25.9078866877544,8.15413698418642,7.58568617760742,3.43196535517706,15.6505156011211,3.88175314538237,34.1623656270417,12.1801150668448,1.93296767247373,0.358330787395778,36.1509790033933,37.3234174742362,106.371292066564,52.0542924256721,0.776452203156578,0,29.3193790185963,12.6760558547352,4.74064669602513,4.76054526095926,8.44192246166932,10.344301047649,31.870092559387,0.0675725609823432,7.60555662776183,6.93738978893016,0.270290243929373,0.0675725609823432,0.356148050758681,2.08544902635432
278.1,"Lakes - Subalpine","Lakes - Subalpine","Little HaleNet","MA",2228,20.73492113,-156.1234398,NA,NA,NA,NA,NA,43.7375402570821,24.0235615467205,7.56107258229524,7.03396618018996,3.18235261447542,14.5122266942426,3.59942656539972,31.6776780412088,11.2942343573236,1.79237961039263,0.332268773166902,33.5216561477672,34.6088211529063,98.6347251153104,48.268294243011,0.719979499502571,0,27.1869301751189,11.7541045190627,4.3958513114482,4.41430261954398,7.82792692722452,9.59194224797421,29.5521259347639,0.0626578924477126,7.0523914183423,6.43282150244726,0.25063156979085,0.0626578924477126,0.3302447907181,1.93377073325133
278.11,"Puu Alaea - Cloud forest","Puu Alaea - Cloud forest","Little HaleNet","MA",1993,20.745673,-156.1425145,NA,NA,NA,NA,NA,31.2268499905661,17.1518596667562,5.39830264590347,5.02196981029222,2.27207216329955,10.3611479600027,2.569846240761,22.616591935165,8.06363046393157,1.27968717241288,0.237226580993022,23.9331183648849,24.7093105862793,70.4212387558257,34.4616266659611,0.514036493481344,0,19.4103780252015,8.39195931990649,3.13846157503563,3.15163506917019,5.58882594807037,6.84826215500685,21.0990329598557,0.0447352228014909,5.0351246915325,4.59277661460357,0.178940891205964,0.0447352228014909,0.235781538680611,1.38063476474557
278.12,"Puu Alaea - Forest line","Puu Alaea - Forest line","Little HaleNet","MA",2033,20.74567736,-156.1424321,NA,NA,NA,NA,NA,35.5003007543183,19.499122609218,6.13707010314205,5.70923543996083,2.58300933834237,11.7790897529277,2.92153433557759,25.711713348564,9.16715284211297,1.4548146708946,0.269691466629365,27.2084087955971,28.0908243229715,80.0585123404612,39.1777624542422,0.584383315089287,0,22.0667232800567,9.54041409443114,3.56796570429922,3.582942014875,6.35366686297132,7.7854591872253,23.986473689355,0.0508573187575482,5.72419059043417,5.22130638104976,0.203429275030193,0.0508573187575482,0.268048667669213,1.56957712337755
278.2,"Lakes - Forest line","Lakes - Forest line","Little HaleNet","MA",2182,20.735063,-156.1222481,NA,NA,NA,NA,NA,29.264527838939,16.0740220310086,5.05906865763875,4.70638490158333,2.12929319143768,9.71004449729858,2.40835488937447,21.1953458164532,7.55690497971883,1.19927052820005,0.222319058300916,22.4291405912985,23.1565562249032,65.9959074528821,32.2960283616766,0.481733997449631,0,18.1906131503641,7.86460136756799,2.94123794624875,2.9535836066645,5.23761931138431,6.4179114622223,19.7731515543491,0.0419240228665675,4.71871311875511,4.30416257601068,0.16769609146627,0.0419240228665675,0.220964823692149,1.29387448687619
278.3,"Lakes - Cloud forest","Lakes - Cloud forest","Little HaleNet","MA",2143,20.73575551,-156.1214124,NA,NA,NA,NA,NA,50.6874407871479,27.8409084333137,8.76252794623858,8.15166427196254,3.68802883659945,16.8182213021222,4.17137588965907,36.7112649808447,13.0888895867964,2.07718895109006,0.385066322118755,38.848251435492,40.108167093756,114.307795076093,55.938132139086,0.834384330588589,0,31.506936726112,13.6218331738366,5.09435262587859,5.11573584910178,9.07178547942155,11.1161030517533,34.2479623830728,0.072614239269586,8.17301728272507,7.45499763093766,0.290456957078344,0.072614239269586,0.382720728609727,2.24104714077342
278.4,"Lakes - Alpine","Lakes - Alpine","Little HaleNet","MA",2304,20.73450891,-156.1273482,NA,NA,NA,NA,NA,42.9716191625077,23.6028668197814,7.4286649307824,6.91078908691347,3.12662403478223,14.2580921341134,3.53639428881062,31.122946300551,11.0964524909796,1.76099189757166,0.326450163776866,32.934633114059,34.0027599518521,96.9074579626695,47.4230316941218,0.707371394815182,0,26.710839311402,11.5482695190589,4.31887223973403,4.33700043304079,7.69084618777032,9.42397050419345,29.034616342091,0.0615606427787738,6.92889166680726,6.32017150755967,0.246242571115095,0.0615606427787738,0.324461624813077,1.89990701371058
278.5,"Frisbee - Alpine","Frisbee - Alpine","Little HaleNet","MA",2320,20.73857613,-156.1365744,NA,NA,NA,NA,NA,39.7426985872233,19.9581897891835,4.16601020410697,4.70260208580734,1.11156410827405,3.47481543931678,1.34003172739142,11.1576503278587,4.95207432748379,0.412762985923366,0.206381492961683,11.9342936435526,28.9520968679265,84.1782836832686,42.8237891345618,0.717991294787337,0,7.61657651007485,0.349400561175343,2.50916635297543,3.08993048698718,6.93152220979352,9.50296948392036,18.8480915739611,0,7.03291642234406,4.2905720464098,0,0,0.26684796399067,0.616248525166013
278.6,"Frisbee - Subalpine","Frisbee - Subalpine","Little HaleNet","MA",2191,20.74071537,-156.1350318,NA,NA,NA,NA,NA,34.0595250314492,18.7077529059855,5.88799780160452,5.47752676022412,2.47817819416748,11.3010367169559,2.80296419237348,24.6682063472473,8.79510497259908,1.3957711807111,0.258746068716439,26.1041585774965,26.9507613697022,76.8093465999395,37.5877373609045,0.560666183816028,0,21.1711477916911,9.153217458873,3.42316021652716,3.43752871521862,6.09580400623895,7.46948719966467,23.01298534603,0.0487932801821236,5.49187495759352,5.00940024742179,0.195173120728494,0.0487932801821236,0.257169942567758,1.50587601193674
278.7,"Frisbee - Forest line","Frisbee - Forest line","Little HaleNet","MA",2135,20.74195056,-156.1342138,NA,NA,NA,NA,NA,44.595814047497,24.4949825069934,7.7094455906232,7.17199563451311,3.24480079571305,14.7970041128861,3.67005910356824,32.2992978361072,11.5158642266467,1.82755196880675,0.338788974753599,34.1794608325715,35.2879595758286,100.570261473634,49.2154762658981,0.734107855382369,0,27.7204267886456,11.9847585471404,4.48211231160963,4.50092569480256,7.98153649180976,9.78016757071116,30.1320354356586,0.0638874455166417,7.19078243618491,6.55905452930509,0.255549782066567,0.0638874455166417,0.33672527514014,1.9717176485846
278.71,"Frisbee - Cloud forest","Frisbee - Cloud forest","Little HaleNet","MA",2087,20.73622225,-156.1341472,NA,NA,NA,NA,NA,43.6203211624186,23.9591770358735,7.54080847787665,7.01511475089857,3.17382372853039,14.4733331015839,3.58977989755274,31.5927800629684,11.2639651670924,1.78757593112789,0.33137827396309,33.4318162033586,34.5160675444713,98.3703784439512,48.1389324700613,0.718049913508208,0,27.114067656489,11.7226028506514,4.38407017999968,4.40247203754069,7.80694763798905,9.56623529738295,29.4729245570208,0.0624899657334283,7.03349060836508,6.41558117507137,0.249959862933713,0.0624899657334283,0.329359715902329,1.92858811773829
278.8,"Puu Alaea - Alpine","Puu Alaea - Alpine","Little HaleNet","MA",2320,20.74402239,-156.1421477,NA,NA,NA,NA,NA,18.796144108693,8.94028981377347,3.27043610396792,2.32131389622736,2.09799102381782,10.9763043549958,2.13769451490543,24.3905006540182,7.5557324766341,1.22827579825249,0.111661436204772,24.1895248927829,18.0033775595057,49.6044966796893,23.2789920453229,0.383365989658627,0,22.7863079031652,10.2889793578538,2.44165352238883,1.68359973302827,1.03720737987249,2.86718130893232,21.7589337464817,0.0558307181023858,5.87827850809895,5.73190431206739,0.223322872409543,0.0558307181023858,0.183619381321928,1.42802240658919
278.9,"Puu Alaea - Subalpine","Puu Alaea - Subalpine","Little HaleNet","MA",2075,20.74489428,-156.1421289,NA,NA,NA,NA,NA,34.9341228246299,19.18814009259,6.039192801499,5.61818147611216,2.54181411327458,11.5912304810843,2.87494013140231,25.3016490864842,9.02095014785402,1.43161250243558,0.265390281766522,26.7744744278683,27.6428167168251,78.7816960372828,38.552934383357,0.575063255020742,0,21.714791284095,9.38825842854716,3.51106186425461,3.52579932455769,6.25233515946542,7.66129248805275,23.6039244791963,0.0500462188279188,5.63289811378553,5.13803417280708,0.200184875311675,0.0500462188279188,0.263773683049591,1.54454466147391
279,"POHAKAU PALAHA HN-161","HaleNet","HaleNet","MA",2460,20.73061111,-156.1413056,NA,NA,NA,NA,NA,30.48,10.668,0.508,0.508,0.508,2.286,0.254,12.192,3.81,0,0,9.906,25.908,73.406,36.838,0.762,0,10.668,0.254,1.524,1.016,0.508,5.588,24.384,0,11.684,7.62,0,0,0.254,0.508
280.1,"OheoGulchRGatdamnearKipahulu","OheoGulchRGatdamnearKipahulu","USGS","MA",128.016,20.66836111,-156.0522222,NA,NA,NA,NA,NA,18.3280447108319,14.6905501219661,3.16520046000059,1.39498987750328,1.5214334905388,1.15648812082611,0.128498680091791,NA,NA,1.26443613035522,0,5.51722297572192,17.2795045995349,61.7294012819365,30.8381644737601,1.9660412032194,0,5.3969445638552,9.42210423820266,1.27676653269283,0.513994720367162,1.71109891009208,3.64885444675028,17.6465050363038,5.12096632793864,6.73282276895326,NA,NA,NA,NA,NA
307.2,"POHAKEA BRIDGE 307.2","WAILUKU SUGAR","COOP","MA",50,20.81346495,-156.5071787,"USC00518060",NA,NA,NA,NA,0,0,NA,NA,0,0.115178034101987,0,1.47528245408361,1.16379995321915,NA,NA,1.66836202928826,3.10384230229254,0.447474867807198,0.115178034101987,0,NA,NA,9.44882730549891,0.830894291313211,0.0766838847012025,0,0,NA,NA,15.6778114075793,0.938495261175187,0,0,NA,NA
311.2,"Kealia Pond NWR","Kealia Pond NWR","RAWS","MA",3.6576,20.7975,-156.4772222,NA,"KPDH1","32B2C438",NA,NA,0,0,0,0,0,0,0,1.30000000000001,0,0,0,0,0,0,0,0,0,0,0,0,0,0,0,20.8,0,0.200000000000017,0,0,0,0,0
311.5,"Kihei 2","NWS","HydroNet-UaNet","MA",54.5592,20.7061005,-156.437,NA,"KHIH1","93202508",NA,NA,0,0,0,0,0,0,0,0,0,0,0,0,0,0,0,0,0,0,0,0,0,0.254,0,27.178,0,0,0,0,0,0,0
324.6,"KULA AG HN-119","HaleNet","HaleNet","MA",965,20.75788889,-156.3200278,NA,NA,NA,NA,NA,0,2.032,0,0,0,0,0,0,0,0,0,0.762,1.524,0.254,2.794,0.254,0.762,1.016,0,0,0,0,0,31.24,0,0.762,0,0,44.204,0.254,0
324.7,"Kula Branch Stn","NWS","HydroNet-UaNet","MA",944.88,20.7577991,-156.3217,"USC00515000","KBSH1","93220610",NA,NA,0,0.762,0,0,0,0,0,0,0,0,0,0.508,5.842,0.254,1.27,0,0,0.508,0,0,0,7.874,0,27.178,0.254,0.508,0.254,0,35.052,0,0
328.4,"PU'U PAHU HN-106","HaleNet","HaleNet","MA",960,20.75763889,-156.2775,NA,NA,NA,NA,NA,0,1.08431864160071,0,0,0,0,0,0.356621583293898,0,0,0,0.754122103092033,1.40520989455775,1.89296462805778,7.5655417223665,0.259479786188116,0.574974414547787,2.61570234632251,0,0.382426655472545,0,0,0.153156639277307,22.2396603719431,0,1.44007238079486,0,0,19.4919489283422,0.106881078175684,0
337,"south rim","south rim","CraterNet","MA",2898,20.703948,-156.241101,NA,NA,NA,NA,NA,0,0,0,0,0,0,0,0,0,0,0,1.8,6.2,18.8,1,0,0,6.4,0,1.2,0.2,0,0,22.8,0,0.8,0.2,0,0,0,0
337.1,"Sliding Sands","Sliding Sands","CraterNet","MA",2697,20.714563,-156.2394,NA,NA,NA,NA,NA,0,0,0,0,0,0,0,0,0,0,0,1.36959020267275,4.6117705317879,12.3185688742683,3.29041646798705,0.15197664300055,0,6.72686704485596,0,1.53010858454108,0.223188574486042,0,0,20.1532521422724,0,1.02133064417015,0.13940015406091,0,0.327353582775669,0,0
337.11,"Pohaku Palaha","Pohaku Palaha","CraterNet","MA",2461,20.7300298,-156.140176,NA,NA,NA,NA,NA,49.4,15.6,0.2,0.4,0,2.2,0.2,15.2,7.6,0.2,0,11.4,32,90.4,43,0.6,0,11.4,0.2,3,1.2,0.4,7.2,28.2,0,12.2,8.4,0.2,0,0,0.4
337.12,"Puu Alaea","Puu Alaea","CraterNet","MA",2282,20.73782363,-156.1453106,NA,NA,NA,NA,NA,16.4,3.4,0,0,0.6,7,1.4,20.6,17,1.2,0,8.2,10.8,49.6,35.4,1.4,0,18.8,0.6,1,0.8,0,2.2,23.6,0,14,1,0,0,0,1.4
337.13,"Paliku","Paliku","CraterNet","MA",1927,20.71236611,-156.1437572,NA,NA,NA,NA,NA,46.4,12.4,3.2,2.2,0.8,1.2,0.2,0.6,0,0,0,11.4,22.6,63,26,0,0,20,2,0.6,0,4.2,1.2,22.8,0,4,0.2,0,0,0,0.4
337.2,"Puu o Pele","Puu o Pele","CraterNet","MA",2424,20.709651,-156.224485,NA,NA,NA,NA,NA,0.4,0,0,0,0,0,0,0,0.2,0,0,4.4,11,20,0.4,0,0,1,0,1.4,0.4,0,0,23,0,0.8,0,0,0,0,0
337.3,"Lava lake","Lava lake","CraterNet","MA",2270,20.718443,-156.212261,NA,NA,NA,NA,NA,1.2,0.2,0,0,0,0,0,1.8,1.8,0,0,4.2,6,18.4,2,0,0,1.4,0,1.6,0.2,0,0.8,16.2,0,0.4,0,0,0,0,0
337.4,"Silversword loop","Silversword loop","CraterNet","MA",2186,20.731704,-156.205387,NA,NA,NA,NA,NA,1.8,0.2,0,0,0,0,0.2,2.6,3.8,0,0,2.2,4.2,9.2,4.4,0,0,3,0,1.8,0.4,0,0.2,13.2,0,0.2,0,0,0,0.2,0
337.5,"Leleiwi","Leleiwi","CraterNet","MA",2722,20.74337371,-156.2288651,NA,NA,NA,NA,NA,0.2,0,0,0,0,1.2,0,3.2,0.8,0,0,11.6,9.2,25.2,1.4,0,0,6,0,3.4,0.4,0,0,19.6,0,0.6,0,0,0.6,0,0
337.6,"Puu Nole","Puu Nole","CraterNet","MA",2261,20.717807,-156.188007,NA,NA,NA,NA,NA,3.6,0.6,0,0,0,0,0,0.4,0.4,0,0,2.2,5,18,6.4,0,0,10.2,0,1.4,0.2,0,0.4,15.6,0,2.2,0,0,0,0,0.2
337.7,"Hanakauhi","Hanakauhi","CraterNet","MA",2645,20.73567887,-156.1754875,NA,NA,NA,NA,NA,7.8,1.2,0,0,0,1,0,7.6,0.4,0,0,4.8,9.4,41.6,12.2,0,0,6.8,0.2,2.2,0.8,0,0.8,17.8,0,1.8,0,0,0,0,9.4
337.8,"Aloha Park","Aloha Park","CraterNet","MA",2455,20.73555054,-156.1587809,NA,NA,NA,NA,NA,8.8,1.4,0,0,0.4,4.4,0.2,15.8,9.6,0.6,0,5.6,8.6,27.8,32,0,0,15.2,0.2,2,1,0,1.8,22.8,0,5,0,0,0,0,3.2
337.9,"Laie","Laie","CraterNet","MA",2051,20.7229056,-156.1544823,NA,NA,NA,NA,NA,17.6,4.6,0,0,0,0,0,1,0.2,0,0,2.8,8.6,30.6,24,0,0,9.6,0,0.6,0.4,0,1,21.8,0,13.8,4.2,0.4,0,0,0.2
338,"HALEAKALA RANGER STATION 338","HAWAII T PARK","COOP","MA",2143,20.75846738,-156.2455233,"USC00511004",NA,NA,NA,NA,0,0,NA,NA,NA,NA,0,0.3,NA,NA,0,0,3.8,2,9.7,NA,NA,0,3.3,0,1.5,0,0,15.2,8.9,0,0,0,0,0,1.8
338.4,"HALEAKALA SUMMIT 338","SMITHSONIAN INST 1","COOP","MA",3037,20.71667,-156.26667,"USC00511008",NA,NA,NA,NA,0,0,0,0,0,0,NA,NA,0.3,0,NA,NA,0,0,0,0,NA,NA,0,0,0,0,NA,NA,NA,NA,0,0,0,0,0
339.4,"PARK HQ HN-151","HaleNet","HaleNet","MA",2120,20.75980556,-156.2481667,NA,NA,NA,NA,NA,0,0.508,0,0,0,0,0,0.762,0,0,0,1.524,1.27,7.874,8.382,0,0,1.27,0,1.27,0,0,0.762,19.812,0,0.508,0,0,1.524,0,0
339.5,"NENE NEST HN-152","HaleNet","HaleNet","MA",2590,20.73819444,-156.2458333,NA,NA,NA,NA,NA,0,0,0,0,0,0,0,0,0,0,0,1.27,2.032,6.604,2.794,0,0,2.032,0,2.794,0.254,0,0,17.526,0,0.254,0,0,0.762,0,0
339.6,"SUMMIT HN-153","HaleNet","HaleNet","MA",2990,20.71036111,-156.25675,NA,NA,NA,NA,NA,0,0,0,0,0,0,0,0,0,0,0,1.27,6.604,13.97,6.858,0.508,0,13.462,0,0.762,0.254,0,0,23.876,0,2.286,0.254,0,0.254,0,0
348.5,"WestWailuaikiRainGagenrKeanae","USGS","USGS","MA",472.44,20.81436111,-156.1429722,NA,"WWKH1","DD5E710A",NA,NA,15.748,16.256,13.716,9.398,8.382,44.704,9.144,83.058,25.654,5.588,0.508,87.376,22.606,57.658,21.59,0,0,79.248,46.228,7.62,5.334,3.556,0.254,43.18,0.254,0,8.636,1.016,0.254,0.254,5.334
350,"PAAKEA 350","EMI","COOP","MA",390,20.81179461,-156.1171956,"USC00517194",NA,NA,NA,NA,2.90912410444672,NA,NA,NA,NA,5.52733579844877,6.69098544022746,3.34549272011373,32.1458213541363,NA,NA,NA,NA,10.0364781603412,39.1277192048084,0,NA,NA,NA,12.2183212386762,NA,NA,NA,NA,NA,NA,NA,NA,NA,1.89093066789037,NA
353,"Hana AP","NWS","HydroNet-UaNet","MA",19,20.7946,-156.0157,"USC00511125","HNAH1","B150314C",NA,NA,1.8,0.3,0.5,0,0,2.5,1.8,9.4,19.6,0.3,0,8.9,NA,158.2,1.5,0,0,12.2,12.7,10.4,0,0,5.1,40.1,0,4.6,3.3,8.9,0.3,0,1
355,"HANA AIRPORT 355","HAWN AIRLINES","COOP","MA",24,20.792,-156.017,"USC00511125",NA,NA,NA,NA,1.8,0.3,0.5,0,0,2.5,1.8,9.4,19.6,0.3,0,8.9,NA,158.2,1.5,0,0,12.2,12.7,10.4,0,0,5.1,40.1,0,4.6,3.3,8.9,0.3,0,1
361.1,"Lahainaluna","NWS","HydroNet-UaNet","MA",238.0488,20.8909,-156.6556,NA,"LAHH1","81700366",NA,NA,0,0,0,0,0,0,0,NA,0,0,0,0,0,0,0,0,0,3.048,0,0,0,0,0,9.398,0,0,0,0,0,0,0
364,"WAHIKULI 364","PIONEER MILL","COOP","MA",177,20.89679257,-156.6621736,"USC00518955",NA,NA,NA,NA,0,0,0,0.193452831204489,0,0,0,5.68751323741196,0.193452831204489,0.193452831204489,0,0,0,0.309524529927182,0,0,0,0,0.193452831204489,0,0,0,0,0,0.967264156022443,0.50297736113167,0,0,0,0,0
380,"PuuKukuiRainGageatalt","BALDWIN PKRS","USGS","MA",1759,20.89083333,-156.6008333,"USC00514887","PKKH1","DD73556E",NA,NA,2.032,9.144,36.068,14.986,4.064,12.7,2.54,25.4,20.32,2.286,0.508,69.596,7.62,1.016,19.558,0.254,0,8.128,0.254,0.254,0.254,1.016,0.508,36.322,0,1.778,0.254,0,0,2.286,0
386,"WAILUKU 386","WAILUKU SUGAR","COOP","MA",55,20.89345755,-156.4971783,"USC00519484",NA,NA,NA,NA,0,0,NA,NA,0,0.661201987938451,0,0.879738594908267,3.54583467504417,NA,NA,5.35163728501751,12.1112122913916,0.461348041811855,0.261494095685257,0,NA,NA,38.396040720587,0.461348041811855,0,0,0,NA,NA,30.5547120937102,0.879738594908267,0,0,NA,NA
386.6,"Wailuku","NWS","HydroNet-UaNet","MA",146.9136,20.8831005,-156.5124,NA,"WUKH1","9321D776",NA,NA,0,0,0,0,0,0,0,9.398,0.254,0,0,9.398,1.778,0.254,0,0,0,7.366,22.352,0,0,0,0,26.416,0,7.62,0,0,10.414,0,12.446
390,"WAIKAPU 390","WAILUKU SUGAR","COOP","MA",130,20.8491,-156.5092,"USC00519376",NA,NA,NA,NA,0,0,NA,NA,0,0,0,4.6,2.3,NA,NA,1.3,2.5,1.3,0,0,NA,NA,10.2,2.8,0.3,0,0,NA,NA,27.9,2.5,0,0,NA,NA
390.4,"Waikapu Country Club","NWS","HydroNet-UaNet","MA",145.9992,20.8346996,-156.5135,NA,"WCCH1","9320E016",NA,NA,0,0,0,0,0,0,0,8.382,1.016,0,0,1.778,0.508,0,0,0,0,0.508,9.652,0,0,0,0,27.686,0,0.254,0.254,0,20.574,0.254,0
396,"PUUNENE 396","HC&S","COOP","MA",18,20.8717927,-156.4538466,"USC00518543",NA,NA,NA,NA,0,0,NA,NA,0,0,0,2.44688766792012,1.22344383396006,NA,NA,0.691511732238295,1.32983025430441,0.691511732238295,0,0,NA,NA,5.425707437562,1.48940988482094,0.159579630516529,0,0,NA,NA,14.8409056380372,1.32983025430441,0,0,NA,NA
398,"KAHULUI AIRPORT","NOAA-NWS","NWS","MA",12,20.8887,-156.41,"USW00022516","HOG",NA,NA,NA,0,0,0,0,0,0,0.3,2.3,0.3,0,0,2.8,0,0,0,0,0,1,0,0,0,0,0,17.8,0,31.5,0,0,0,0,0
400,"SPRECKELSVILLE 400","HC&S","COOP","MA",20,20.897526,-156.41427,"USC00518688",NA,NA,NA,NA,NA,NA,NA,NA,NA,NA,NA,2.25250783097881,1.1361883182901,NA,NA,NA,2.69168181843579,0.388054497805498,NA,NA,NA,1.00505286512002,8.19411367805823,0.720559499855372,NA,NA,NA,NA,NA,NA,NA,NA,NA,NA,NA
406,"PAIA 406","HC&S","COOP","MA",50,20.9051221,-156.3738494,"USC00517566",NA,NA,NA,NA,0,0.081798651064716,0.238844182266741,1.81238566252148,0.306744941492685,0.444165517012138,0.102248313830895,2.19497650746726,2.98453983111776,1.25657170737897,0.418576745018125,3.33660653419788,8.77682187372292,0.412316170312516,0.270343383499617,0.0306744941492685,0.0511241569154475,0.922988753894953,20.3477846420191,0.412316170312516,0,0,0,4.72923638291725,9.71209214280027,11.4196577250141,0.714835199383703,0,0,0,0.0511241569154475
410,"KEAHUA 410","HC&S","COOP","MA",120,20.85846016,-156.3805162,"USC00513910",NA,NA,NA,NA,NA,NA,NA,NA,NA,NA,NA,1.96096261625127,1.54693644918006,NA,NA,NA,4.12566332954572,0.594788804715336,NA,NA,NA,NA,12.5594912772192,1.10443436699984,NA,NA,NA,NA,NA,NA,NA,NA,NA,NA,NA
423,"HALIIMAILE 423","MAUI PINE","COOP","MA",326,20.86679262,-156.3405177,"USC00511075",NA,NA,NA,NA,0,0.601382625871556,0.260599137877674,1.47301855199181,0.501152188226297,0.100230437645259,0.100230437645259,10.2924863600862,3.83396726111715,1.21241941411414,0.400921750581037,2.63666819868498,6.20003901541274,0.810325501941651,0.100230437645259,0,0,0.671372360152891,2.89629076655449,0.185340523608557,0,0,0,3.96628720522311,11.1312622340323,2.52545562565209,0.111204314165134,0,0,0,0
426.6,"Pukalani","NWS","HydroNet-UaNet","MA",495.9096,20.8355007,-156.3307,NA,"PUKH1","15D2B52E",NA,NA,0,0.508,0,0,0,0,0,12.446,1.27,0,1.27,1.27,1.016,0,0.254,0,0,1.27,0.762,0,0,0,0,14.986,0,1.27,2.286,0,0,1.778,0
446,"KAILUA 446","EMI","COOP","MA",213,20.89012208,-156.2121892,"USC00512679",NA,NA,NA,NA,2,10.7250984845812,4.85748929898335,2.50771410261979,2.43118492866333,3.8,4.6,2.3,22.1,1.94952406084817,0.0875747032391199,35.68095660456,13.218629982563,6.9,26.9,0,0,27.5934854439176,21.5096800638404,8.4,0.919534384010758,1.74715559667437,0.684818863011165,25.7424382433811,4.03790676875187,1.31515240196975,2.23315493259756,0.26272410971736,0.0656810274293399,1.3,1.37930157601614
457.1,"PUUKOLII 457.1","COOP","COOP","MA",128,20.93194,-156.67611,"USC00518407",NA,NA,NA,NA,0,0,0,0.5,0,0,0,14.7,0.5,0.5,0,0,0,0.8,0,0,0,0,0.5,0,0,0,0,0,2.5,1.3,0,0,0,0,0
462.4,"KAPALUA W.MAUI AIRPORT 462.4","KAPALUA W.MAUI AIRPORT 462.4","NWS","MA",73,20.9625,-156.6753,"USC00513317",NA,NA,NA,NA,0,0,0,0.5,0,0,0,5.1,3.3,0.5,0,2.3,7.1,0.5,0,0,0,1,0.5,0.5,0,0,0,10.7,11.2,3.6,0.3,0,0,0,0
466,"MAHINAHINA 466","PIONEER MILL","COOP","MA",257,20.94678808,-156.6555055,"USC00515715",NA,NA,NA,NA,0,3,1.3,5.1,2.5,0.5,0.5,3,11.7,3.8,2,8.9,17.8,1,0.5,0,0,1.5,12.2,0,0,0,0,0,28.2,2.5,0,0,0,0,0
474,"FIELD 46 474","MAUI PINE","COOP","MA",319,20.9951177,-156.6391163,"USC00510541",NA,NA,NA,NA,0.288091522145561,1.44450591844037,0.625952564657495,2.90084333030556,1.20375493203365,0.707874549681051,0.823111158539276,4.32155542500138,8.89793309106388,2.27489076564806,0.963003945626916,6.33321059524162,14.8923375352679,1.61170591258244,4.03533163046228,0,0,1.61261949713403,6.31950733728111,1.50677323898264,0,0,0,9.52692195567814,23.5504608579746,4.40907446852349,0.267109961374153,0,0,0.187259489394614,0
482,"WAIHEE VALLEY 482","WAILUKU SUGAR","COOP","MA",91,20.94012106,-156.5255102,"USC00519315",NA,NA,NA,NA,0,0,0,1.38913208173715,0,1,0,0.5,5.6,1.45877509108784,0.121692430254665,5.8,16.3,0.5,0,0,0.121692430254665,1.61737034036538,57.2,0.5,0,0,0,11.2571493284046,10.7853064156624,27.9,0.5,0,0,0,0.0811282868364433
482.4,"KAHAKULOA MAUKA 482","NWS","COOP","MA",334,20.9539,-156.5342,"USC00512450",NA,NA,NA,NA,0,0,0,0,0,0,1.3,8.4,0,1.3,NA,4.38904095002662,12.3347185319714,0,0,0.3,NA,NA,43.2850245416419,0.378365599140226,0,0,0,NA,NA,21.1128004320246,0,0,0,0,0
482.5,"Kahakuloa","Kahakuloa","HydroNet-UaNet","MA",335.28,20.9540997,-156.5342,NA,"KHKH1","781001B6",NA,NA,0,0,0,0,0,1.524,0,7.112,2.032,1.27,0.762,21.082,4.826,0,0,0.254,3.302,21.336,56.896,1.524,0,0,0,36.068,0,0.508,0,0,0,0,0
484,"WAIEHU CAMP 484","WAILUKU SUGAR","COOP","MA",98,20.91623388,-156.5088444,"USC00519275",NA,NA,NA,NA,0,0,0,1.59252273458813,0,0.5,0,1.3,2.5,1.01588096955837,0.0930067362951238,5.8,10.7,0.5,0.5,0,0.0930067362951238,1.2361190948617,29.7,0.5,0,0,0,8.60358131422574,8.24296258661628,37.1,1.3,0,0,0,0.0930067362951238
485,"HAMAKUAPOKO 485","HC&S","COOP","MA",98,20.91345401,-156.3455169,"USC00511086",NA,NA,NA,NA,0.2506899686514,0.186543179843544,0,1.99632216652396,0.69953692441329,0.94266889004652,0.73203957776784,4.38379004773227,6.71194201686135,1.27346734463023,0.116589487402215,3.97386366887925,12.9589361118931,1.68470782814439,3.57386852319184,0.046635794960886,0.116589487402215,1.40326076995389,5.4990757259245,1.96673404287721,0,0,0,10.785101974398,10.3330449054754,2.78918813068843,0.81537978123511,0,0,0.16294847962341,0.116589487402215
486.7,"HAIKU 3.2 SE","HAIKU 3.2 SE","CoCoRaHS","MA",416,20.92011989,-156.3071849,"US1HIMI0001",NA,NA,NA,NA,0,0.8,0,6.9,3,3,1,NA,NA,3.8,0.5,9.4,NA,NA,1.3,0.3,0.5,NA,NA,NA,0,0,0,10.7,7.1,0,2.5,0,0,0,0.5
489,"Haiku","NWS","HydroNet-UaNet","MA",99.3648,20.9288998,-156.3225,"USC00510822","AIKH1","50A30568",NA,NA,0.508,0.762,0.254,0,0,0.762,0,13.97,3.556,0,0,22.86,6.858,0,0,0.254,0,15.748,7.112,0,0,0,0,16.002,0,0.762,0,0,0,0,0
490.7,"KUIAHA 490.7","COOP","COOP","MA",341,20.89306,-156.30306,"USC00514806",NA,NA,NA,NA,2.16528323405737,3.22143700789347,2.13243647265673,3.9030496826452,2.11441273597624,5.74588438974257,1.9912371819646,14.145279213176,10.4515704419629,2.86411842573262,1.00738846405901,15.9015903279098,17.2069516358333,8.27731066561341,8.12495549625633,0,0,10.3410810010974,11.3458010185449,3.07387514157436,0.588810500785312,0.392540333856875,0.028038595275491,14.1778084709739,23.2925527358857,4.35554004393229,1.21717898537063,0.112154381101964,0.028038595275491,0.30551730781049,0.588810500785312
492.2,"HALEHAKU 492.2","COOP","COOP","MA",210,20.91,-156.282,"USC00511016",NA,NA,NA,NA,2.62903117928691,3.57874081295102,2.66536201855395,1.66777320388061,1.48747339805568,6.62069954919103,2.134080266457,18.8340169301829,10.2495093785095,0.991648932037121,0.0901499029124655,36.3241008935079,10.2571659573739,8.39976480097101,8.70780605517552,0.154209759944917,0,28.4048925292219,14.6804510827209,2.82305642579036,0.946573980580888,0.631049320387259,0.0450749514562328,22.2355640623542,0.0450749514562328,0.693943919752127,1.53254834951191,0.180299805824931,0.0450749514562328,0.327433850454801,0.946573980580888
493,"HONOKOHUA 493","MAUI LAND&PINE CO","COOP","MA",38,21.00011804,-156.655505,"USC00511887",NA,NA,NA,NA,0,0.821136437365964,0.355825789525251,1.64899854489745,0.684280364471636,0.136856072894327,0.136856072894327,3.4024157713941,4.87267167480429,1.29317275537219,0.547424291577309,3.60014446384544,8.46562193456742,0.526778747163962,0.136856072894327,0,0,0.916701421433597,3.59235477999689,0.253066601375308,0,0,0,5.41562526943158,13.3873743820469,2.50635989437385,0.151839960825185,0,0,0,0
494,"HONOLUA FIELD 49 494","MAUI LAND&PINE CO","COOP","MA",61,21.010978,-156.633839,"USC00511914",NA,NA,NA,NA,NA,0.975793949308293,0.42284404470026,1.95958031979523,0.813161624423577,NA,NA,NA,NA,1.53673627509497,0.650529299538862,4.27821617041512,10.0600853706859,NA,NA,NA,0,1.0893581865964,4.26895933315819,NA,0,0,0,6.43563496778213,15.9088286972512,2.9784219874157,0.180438363582676,0,0,NA,0
497,"NAKALELE FIELD 60 497","MAUI LAND&PINE CO","COOP","MA",104,21.02511528,-156.6005068,"USC00516645",NA,NA,NA,NA,NA,1.68335445584421,0.729453597532492,2.86170257493516,1.40279537987018,NA,NA,NA,NA,2.13224897740267,1.12223630389614,4.99395155233783,9.98790310467566,NA,NA,NA,0,0.841677227922107,6.84564145376647,NA,0,0,0,0,15.8235318849356,1.40279537987018,0,0,0,NA,0
499.11,"LUA MAKIKA","RAWS","RAWS","KO",335.28,20.5625,-156.5630556,"USR0000HLUA","HLUA",NA,NA,NA,0,0,0,0,0,0,0,0,0,0,0,0.505600850231675,0.508397618316694,0.252800425115838,0,0.252800425115838,0.101120170046358,0.303360510138988,0.356717363247174,0,0.151680255069508,0,0,19.2821102675579,0,2.07576025403489,0,0,0,0.101120170046329,0
499.12,"KEALIALALO","RAWS","RAWS","KO",251.46,20.54361111,-156.6408333,"USR0000HKLL","KLLH1","32792006",NA,NA,0,0,0,0,0,0,0,0,0,0,0,0.631602468191536,0.315801234095768,0.315801234095768,0,0.315801234095768,0.126320493638336,0.3789614809149,0.1263204936383,0,0.189480740457468,0,0,23.8745732976401,0,2.27376888548954,0,0,0,0.1263204936383,0
499.13,"HAKIOAWA","RAWS","RAWS","KO",365.76,20.58027778,-156.5711111,"USR0000HHAI","HKIH1","3279159C",NA,NA,0,0,0,0,0,0,0,0,0,0,0,1,0.5,0.5,0,0.5,0.200000000000045,0.599999999999966,0.199999999999989,0,0.300000000000011,0,0,37.8,0,3.60000000000002,0,0,0,0.199999999999989,0
499.9,"KANELOA","RAWS","RAWS","KO",248.412,20.52222222,-156.5658333,"USR0000HKAN","KAOH1","32793370",NA,NA,0,0,0,0,0,0,0,0,0,0,0,0,0.300000000000011,0,0,0,0,0,0.299999999999997,0,0,0,0,0.200000000000003,0,0.299999999999997,0,0,0,0,0
511,"MAUNALOA 511","MOLOKAI RANCH CO","COOP","MO",314,21.13348648,-157.2121842,"USC00516190",NA,NA,NA,NA,1.8,0.8,NA,NA,NA,0,0,0.3,0,NA,NA,NA,0,1.5,0.5,0,NA,NA,NA,0,0.3,0,0.5,NA,NA,NA,0.5,NA,NA,NA,NA
524,"MOLOKAI KAUNAKAKAI MOLOKAI AIRPORT","ALOHA AIRLINES","NWS","MO",141,21.15514996,-157.0924625,"USW00022534","HMK",NA,NA,NA,0,0,0,0,0,0,0,0.3,0.3,0,0,0.3,0.3,0,0,0,0,0.5,0,0,0,0,0,25.1,0,0,1.3,0,0,0,0
536,"KAUNAKAKAI 536","MOLOKAI RANCH","COOP","MO",3,21.08876308,-157.0216311,"USC00513541",NA,NA,NA,NA,0,0,0,0,0,0,0,0,0,0,0,0,0,0,0,0,0,0,0,0,0,0,0,0,26.7,0,4.8,0,0,0,0
536.5,"Kaunakakai Mauka","MOLOKAI GEN HOSP","HydroNet-UaNet","MO",28.3464,21.0946007,-157.0174,NA,"KACH1","50A0F2E2",NA,NA,0,0,0,0,0,0,0,0,0,0,0,0,0,0,0,0,0,2.286,0,0,0,0,0,26.162,0.254,3.302,1.524,0,0,0,0
536.6,"KAUNAKAKAI 3.5 ESE","KAUNAKAKAI 3.5 ESE","CoCoRaHS","MO",13,21.068,-156.963,"US1HIMI0002",NA,NA,NA,NA,0,0,0,0,0,0,0,0,0,0,0,0,0,0.3,0,0,0,0,0,0,0,0,0,14.7,14,0.3,0.8,0,0,0,0
538,"MOLOKAI 1","RAWS","RAWS","MO",833.0184,21.115,-156.9475,"USR0000HMLK","MLKH1","487016AC",NA,NA,0.199999999999989,0.5,0,0,0,0,3.09999999999999,12.7,6.79999999999998,0,0.300000000000011,0.199999999999989,0.599999999999994,0.200000000000017,0,0,0,0,0,0,0,0,0.299999999999983,29.4,0,3.59999999999999,2,0,0,0,0
541.2,"Puu ALII WEST","Puu ALII WEST","RAWS","MO",1159.764,21.14083333,-156.9022222,NA,"PAFH1","32D6062E",NA,NA,24.4000000000001,16.3,3.79999999999995,0.5,1,3.60000000000002,16.7,80.8,40.7,0.5,4,31.3,18.3000000000001,6.79999999999995,0.299999999999955,0,0,32.7,6.39999999999998,0.200000000000045,0,1.10000000000002,3,28.1999999999999,0,1.30000000000007,0.699999999999932,0,0.5,0.300000000000068,0
550.3,"MAUNALOA 3.2 NNW","MAUNALOA 3.2 NNW","CoCoRaHS","MO",93,21.1804,-157.2319,"US1HIMI0006",NA,NA,NA,NA,0,0,0,0,0,0,0,NA,0.5,0,NA,0,NA,0.5,NA,0,NA,NA,NA,NA,NA,0,0.5,21.1,4.6,5.3,0,NA,0,0,0
553,"MAKAPULAPAI","RAWS","RAWS","MO",22.86,21.20333333,-156.9661111,"USR0000HMAK","MKPH1","FA9024CE",NA,NA,2.30000000000001,2.5,0,0,0,0.199999999999989,0,4.10000000000002,2,0,0,10.7,3.80000000000001,0,0,0,0,9.69999999999999,2.5,0,0,0,0,28,0,3,0.300000000000011,0,0,0,0
563,"KALAUPAPA 563","CIVIL AIR PATROL","COOP","MO",9,21.19014673,-156.9824624,"USC00512896",NA,NA,NA,NA,0,5.8,NA,NA,NA,0,2,0,11.9,0,0,0.8,24.1,2.5,0,NA,NA,NA,NA,3.8,0,0,NA,NA,NA,NA,NA,0,0,NA,NA
672.1,"Lanai City","NWS","HydroNet-UaNet","LA",498.0432,20.8262997,-156.9182,"USC00515286","LANH1",NA,NA,NA,0,0.508,0.254,0,0,0,0,2.286,0,0,0,2.032,0.3,0,0.508,0,0.3,5.588,4.064,0.254,0,0,0.254,45.466,0.254,1.27,0,0,4.1,0.254,2.5
679,"LANAI 1","RAWS","RAWS","LA",387.096,20.87333333,-157.0063889,"USR0000HLAN","LNIH1","48702336",NA,NA,0.200000000000003,0,0,0,0,0,0,0,0,0,0,1.8,0.799999999999997,0,0,0,0,0,0,0,0,0,0.700000000000003,56.9,0,0.300000000000011,0,0,0,0.699999999999989,4.09999999999999
702.2,"HONOLULU OBSERV 702.2","USC&GEODETIC SURVEY","COOP","OA",2,21.313926,-157.999529,"USC00511918",NA,NA,NA,NA,NA,NA,0,0,0,0,NA,0,0,0,0,0,0.8,2.3,0,0,0,0,0,0,0,11.2,NA,NA,0,0,0,0,0,0,105.2
702.7,"Kapolei-Kalaeloa AP","NWS","NWS","OA",15,21.31667,-158.06667,"USW00022551","HJR",NA,NA,NA,0.3,1.3,0,0,0,0,0,0,0,0,0,0,0,0.5,0,0,0,0,0,0,0,5.3,12.2,36.3,0,0,0,0,0,0,0
702.8,"PTWC","NWS","HydroNet-UaNet","OA",1.524,21.3150005,-157.9992,NA,"PTWH1",NA,NA,NA,1.778,3.03372513390683,0.254,0,0,0.254,0,0.254,0.254,0,0,0.254,0.762,2.54,0,0,0,0,0,0,0,11.43,20.066,68.834,0,0,0,0,0,0,105.156
703,"HONOLULU INTERNATIONAL AIRPORT","USWB","NWS","OA",2.1,21.324,-157.9294,"USW00022521",NA,NA,NA,NA,0,0.3,0,0,0,0,0,0,0,0,0,0,0,1.5,0,0,0,0,0,0,0,4.6,11.2,39.1,2.3,0.5,0,0,0,0,5.8
703.1,"HONOLULU FIRE STATION 703.1, HI US","COOP","COOP","OA",1,21.3287,-157.9298,"USC00511925",NA,NA,NA,NA,2,0.8,0.798504318477419,1.04762296615881,0.226251739712159,0,0,0,0,0,0,0,0.381379221813796,0.3,0,0,0,0,0,0,0,0,4.8,28.6288809886279,5.03688604066481,0.5,0,0,0,0,0
705,"BERETANIA PUMP STN 705","BWS","COOP","OA",6,21.305169,-157.8522571,"USC00510211",NA,NA,NA,NA,3.6,1.3,0.3,0,0.3,0,0,0,0,0,0,0,0.3,0,0,0,0,0,0,0,0,13.5,9.7,41.4,0,1,0,0,0,0,5.6
705.12,"Aloha Tower","NWS","HydroNet-UaNet","OA",38.1,21.3034,-157.8627,NA,"ALOH1",NA,NA,NA,2.032,0.762,0,0,0,0,0,0,0,0,0,0,0,0,0,0,0,0,0,0,0,17.018,9.398,47.752,0,0,0,0,0,0,6.35
706.5,"Niuhelewai HCC JD","J_Delay","PrivateObs","OA",2,21.32180556,-157.8694722,NA,NA,NA,NA,NA,3.9,5.4,1.2,0,0,0,0,0,0,0,0,0,0.3,0,0,0,0,0,0,0,0,10.3,10.4,46,0.3,0,0,0,0,0,7
707.2,"EWA KALAELOA AIRPORT","LYDECKER RC","STATE","OA",14,21.30489073,-157.8305905,"USW00022551",NA,NA,NA,NA,0.3,1.3,0,0,0,0,0,0,0,0,0,0,0,0.5,0,0,0,0,0,0,0,5.3,12.2,36.3,0,0,0,0,0,0,0
707.5,"HONOLULU 2.0 SW","CoCoRaHS","CoCoRaHS","OA",12,21.3004,-157.8293,"US1HIHN0023",NA,NA,NA,NA,5.3,4.8,0.5,0.8,0.8,0,0,0.3,0,0,0,0,1,0.5,0,0,0,0,0,0,0,0,22.6,49.3,8.4,0,0.3,0,0,0,0
709,"PUNCHBOWL CRATER 709","T MEM CEMETERY","COOP","OA",108,21.31016855,-157.846146,"USC00518316",NA,NA,NA,NA,6.4,3.8,1.8,0,0.8,0,0,0.3,0,0,0,0,0.5,0.5,0,0,0,0,0,0,0,0,14.5,47,0,7.6,1.5,0,0,0,0
711.6,"ManoaRGatKanewaiFld,Honolulu","USGS","USGS","OA",11.5824,21.29322222,-157.8127222,NA,NA,NA,NA,NA,7.34884710896181,6.17466037673459,0.853125084429816,0.396072729125257,0.0902099630091421,0.0357648196605436,1.0523109538328,1.41550066472817,0,0,0,3.07816233878278,3.21719031115394,0.125974782669686,0,0.138050779790324,0,0.462438406161142,0.0357648196605436,0,0,8.48000027227975,15.1060818959009,31.8035719828835,1.9244792108617,0.069025389895162,0,0,0,0,2.04621315605024
711.7,"H-1RainGageatKapiolaniAve","USGS","USGS","OA",6.096,21.28944444,-157.8155556,NA,NA,NA,NA,NA,3.85788358711459,2.12754778679029,0.495702975289004,0.23935192480857,0.173117480471939,0,0.714259285623913,0.908458106923558,0,0,0,1.27347942379676,1.21975217937506,0.0718055774425711,0,0.10988604394214,0,0.0549430219710702,0,0,0,10.4928820091971,13.6582675573903,35.1018264092729,1.53185231877485,0.392649365402297,0,0,0,0,2.77024387475199
712.1,"MANOA 712.1","BEAUMONT MRS J","COOP","OA",61,21.31044568,-157.8147571,"USC00516122",NA,NA,NA,NA,10.9,5.1,1.8,2.3,1.8,0,0,1.3,0.5,0,0,0,15,5.6,0,0,0,0,1,0,0,0.5,17.8,50.8,7.1,0,0.5,0,0,0,0.5
713,"UNIV OF HAWAII 713","UH MET DEPT","COOP","OA",24,21.29933514,-157.8167017,"USC00518815",NA,NA,NA,NA,5.3,4.3,0.5,1,0.3,0,0,1.5,0,0,0,0.5,1,0.3,0,0,0,0,0,0,0,0,21.8,48.3,6.4,0,0,0,0,0,0
715,"WAIALAE KAHALA","TINKER SPENCER","COOP","OA",15,21.27433592,-157.7880917,"USC00519185",NA,NA,NA,NA,0.3,1.3,0,0,0,0,0,0.5,0,0,0,0,0.5,0.5,0,0,0,0,0,0,0,0,13.7,50.8,12.2,8.1,0,0,0,0,0
716,"MANOA TUN 2 716","BWS","COOP","OA",198,21.32794416,-157.7914236,"USC00516130",NA,NA,NA,NA,44.105971706229,55.0543909339642,6.09021174521135,0.723943307184995,0.307377481859176,0.837885935755726,3.34049221279832,11.7707881120664,0.115266555697191,0,0.0942547017467655,34.4199376645999,72.8570293152221,14.0113002909424,0.115266555697191,0.499488408021161,0.0942547017467655,45.9650589655801,14.680371444954,4.62479720034603,0.806206867265234,22.5497247319537,63.1347793268301,58.7034688804801,0.430772821979535,0.699728118606314,0,0,0.123395340120359,0,11.9694084366955
717.2,"WAIKIKI 717.2","PURINTON J","COOP","OA",3,21.27183682,-157.8180917,"USC00519397",NA,NA,NA,NA,2,0.5,0,0,0,0,0,0,0,0,0,0,0,0,0,0,0,0,0,0,0,0,23.6,50.8,2.3,0.8,0,0,0,0,0
718,"PALOLO VALLEY 718","BWS","COOP","OA",302,21.32183297,-157.7717015,"USC00517664",NA,NA,NA,NA,16.8,34,6.6,0.5,0.8,0.3,4.1,20.1,0.3,0,0,40.6,53.6,1,0.3,1.3,0,48.8,14.7,5.3,0.5,25.9,38.9,56.1,0.8,1.5,0,0,0,0,5.6
720.6,"HONOLULU 2.7 SSE","CoCoRaHS","CoCoRaHS","OA",113,21.285,-157.7816,"US1HIHN0010",NA,NA,NA,NA,0,1.3,0.5,1,0.3,0,0,0.3,0,0,0,0,0.5,0.5,0,0,0,0,0,0,0,0,32.3,68.1,8.4,5.6,0,0,0,0,0
721,"WILHELMINA RISE 721","BWS","COOP","OA",335,21.29766804,-157.7853133,"USC00519980",NA,NA,NA,NA,8.1,4.1,0.8,0.3,0.3,0,2.3,2.3,0,0,0,3.3,3.8,0,0,0,0,0.5,0,0,0,29.5,5.6,33,17.3,4.3,0.3,0,0,0,4.3
721.4,"Palolo Fire Stn","NWS","HydroNet-UaNet","OA",59.436,21.2996006,-157.7944,"USC00517662","PFSH1","19014414",NA,NA,6.35,3.048,1.27,0,0,0,3.302,2.54,0,0,0,5.334,4.064,0,0,0.508,0,0.254,0,0,0,27.432,23.876,44.196,0,0.254,0,0,0,0,4.064
723.4,"PAIKO DRIVE 723.4","GRUBB DL","COOP","OA",3,21.28172556,-157.7282194,"USC00517540",NA,NA,NA,NA,0.3,0,0,0.3,0,0,0,0,0,0,0,0.3,0.5,0,0,0,0.3,0.5,0,0,0,10.9,64.3,6.1,22.4,0.3,0,0,0,0,3
723.8,"Niu Valley","NWS","HydroNet-UaNet","OA",19.812,21.2896996,-157.7332,"USC00516865","NIUH1","1900D38C",NA,NA,0,1.27,1.016,0,0,0,1.016,3.048,0.254,0,0,0.254,3.302,0,0,0,0,4.318,0.762,0,0,14.986,13.97,65.786,0.254,14.224,0,0,0,0,4.318
724.19,"HAWAII KAI GC 724.19","UNOAA-NWS","COOP","OA",9,21.29889,-157.66444,"USC00511308",NA,NA,NA,NA,0,0,0.508,0,0,0,0.254,2.54,0,0,0.254,0.254,1.016,0.762,0,0,0,1.524,0,0,0,9.144,9.398,61.976,3.048,6.35,0,0,0,0,3.048
724.21,"Kamehame","NWS","HydroNet-UaNet","OA",242.316,21.3085995,-157.6791,NA,"KMHH1","190046EE",NA,NA,0,0,1.27,0,0,0,0,0.508,0,0.762,0,0,0.508,0.508,0,0,0,1.27,0,0,0,10.922,11.43,54.102,2.032,11.43,0,0,0,0,2.794
728.2,"PALEHUA","RAWS","RAWS","OA",722.376,21.385,-158.1041667,NA,"PLHH1","4870F55E",NA,NA,4.39999999999998,6.30000000000001,0,0,0,1,0.5,0.5,0,0,0,0,2.30000000000001,1.29999999999998,0,0,0,2,0,0.300000000000011,0.199999999999989,7.70000000000002,16.2,39.1,0,2.79999999999995,0.300000000000011,0.199999999999989,0,0,20.9
740.5,"Kunia","NWS","HydroNet-UaNet","OA",85.0392,21.3869991,-158.0358,NA,"KUNH1",NA,NA,NA,1.016,2.54,0,0.254,0,0,0,0,0,0,0,0,0,1.27,0,0,0,1.778,0,0,0,4.318,12.954,40.386,0,0,0,0,0,0,5.588
741,"EWA PLANTATION 741","EWA PLANTATION","COOP","OA",12,21.3401713,-158.0339215,"USC00510507",NA,NA,NA,NA,0,2.2077239355853,0,0,1.65579295168898,0.165579295168897,0,0,0,0,0,0,0.58171982553008,1.67244449839898,1.10386196779265,0,0,0,0,0,0,8.14407755742112,6.40239941319737,62.8097459674018,3.36677900176758,0,0.275965491948163,0,0,0,152.992314114411
742.4,"HONOULIULI PHB","FWS","RAWS","OA",1.524,21.35666667,-158.0205556,NA,"HOFH1","327BF39A",NA,NA,1.60000000000002,2.29999999999995,0,0,0,0,0,0,0,0,0,0,0,0.700000000000045,0.299999999999955,0,0,0,0,0,0,3.80000000000007,12.4,48,0.299999999999955,0,0,0,0,0,8.89999999999998
750,"WAIPAHU 750","OAHU SUGAR","COOP","OA",18,21.38683459,-158.0072536,"USC00519738",NA,NA,NA,NA,0,2,NA,NA,3,0.3,0,0,0,NA,NA,0,0,0,2,0,NA,NA,0,0,0,0,5.8,56.9,6.1,NA,0.5,0,0,0,NA
752.6,"WAIAWA PHB","FWS","RAWS","OA",1.524,21.38694444,-157.9811111,NA,"WWFH1","3274C092",NA,NA,0.800000000000068,3.79999999999995,0,0,0,0,0,0,0,0,0,0,0.5,3,0,0,0,0,0,0,0,4.60000000000002,14.7,43,0,0.199999999999932,0,0,0,0,8.70000000000005
764.6,"AIEA HEIGHTS 764.6","G FOWLER","COOP","OA",238,21.39488776,-157.91031,"USC00510123",NA,NA,NA,NA,6.4,7.1,3.3,1.5,0,0,0,2,0.3,0,0,0,1.8,0.8,1.8,0,0,0.3,0,0,0,0,4.1,56.6,6.6,0.3,0,0,0,0,0
764.7,"AIEA 0.7 ENE","CoCoRaHS","CoCoRaHS","OA",175,21.393,-157.9186,"US1HIHN0014",NA,NA,NA,NA,5.1,5.1,8.4,1.5,0.5,0,0,1,0,0,0,0,1.5,1,2,0,0.3,0,0,0,0,0,4.1,59.2,7.4,0.3,0,0,0,0,0
770,"MOANALUA 770","ROXBURGH J","COOP","OA",6,21.34794527,-157.8950332,"USC00516395",NA,NA,NA,NA,1.8,2.8,2,2.5,0,0,0,0,0,0,0,0,0.3,0.5,0,0,0,0,0,0,0,0,5.6,44.7,8.1,1.8,0,0,0,0,0
771.11,"N.HalawaValleyRGattunnel","USGS","USGS","OA",335.28,21.40488889,-157.8504444,NA,"TNLH1","DD75A524",NA,NA,50.292,58.674,6.096,0.254,0,1.016,2.032,21.844,0.254,0,0,28.956,80.772,25.4,0,0,0,73.914,23.622,9.652,2.794,12.7,62.738,71.12,0.254,0,0,0,0,0,14.732
771.9,"NHalawaRainGagenrHonolulu","USGS","USGS","OA",210.312,21.382,-157.9033333,NA,NA,NA,NA,NA,11.8461308351575,12.1201923864995,1.3010238484406,0.947933953114463,0.0608896570885972,0.0506213652446691,0.402028220659358,1.43715500971255,0,0,0,4.30804508582621,6.1907072360073,0.702274143417805,0,0,0,0.914728562243301,0.122200074155057,0,0,3.83557639166225,18.3612743047061,33.7682636176172,0.0715787089103882,0.132468365998985,0,0,0,0,4.20782178330895
772,"MoanaluaRaingagenrHonolulu","USGS","USGS","OA",103.058976,21.37823611,-157.8700306,NA,NA,NA,NA,NA,43.1966374030336,36.1645979615625,2.7395573334042,0.466645267855907,0,0.420581435354604,1.36653264840925,6.91172523410965,0,0,0,17.9244250981505,39.4251305581034,7.32823555072942,0,0.0658497304591105,0.0523941711727207,27.796640887035,7.91763710656857,1.54634208258168,0.550852830299987,10.4844739543951,48.0892414163473,59.7815377274008,0.403246673746086,0.141275817882483,0,0.0658497304591105,0,0,13.7642846907586
772.1,"N.HalawaRaingagenrAiea","USGS","USGS","OA",97.536,21.39295833,-157.8908639,NA,NA,NA,NA,NA,13.0026988072749,13.303517686987,1.42804612558797,1.04048316307263,0.0668344696355666,0.0555636582651956,0.441279261389214,1.57746811939632,0,0,0,4.72865051708795,6.79512177553543,0.770838959493673,0,0,0,1.004035845186,0.134130779118965,0,0,4.21005349907699,20.1539323534473,37.0651453351687,0.0785671208537694,0.145401590489336,0,0,0,0,4.61864215788305
772.3,"MoanaluaRGNo.1atalt1000","USGS","USGS","OA",304.8,21.39338889,-157.8401111,NA,"MOGH1","1689664A",NA,NA,48.514,67.056,4.064,0.254,0,0.762,2.794,14.986,0,0,0,25.4,90.17,28.956,0,0,0.254,93.98,29.718,6.858,2.032,11.684,66.04,76.708,1.27,0,0,0,0,0,15.494
772.5,"Moanalua Stream","USGS","HydroNet-UaNet","OA",72.2376,21.3736,-157.8801,"USC00516400","MOAH1","1900B66A",NA,NA,15.748,14.224,1.524,0.508,0,0,0,1.778,0,0,0,6.35,10.922,1.016,0,0,0,1.27,0.254,0,0,4.572,26.924,55.118,0.254,0.254,0,0,0,0,6.096
772.6,"MoanaluaRaingagenrKaneohe","USGS","USGS","OA",350.52,21.38823333,-157.8486389,NA,NA,NA,NA,NA,75.5130462891014,65.0363381363874,4.66446117846672,0.272752423896751,0,0.988117293789312,3.22910152261976,11.5490791344349,0,0,0,30.4850516789935,68.2448823289495,12.5386305639909,0,0.0975627097562917,0.0776270043841673,51.451377353589,14.660302054715,2.76553561198024,1.18112689619757,19.5402997275282,77.968430203388,61.5097904078551,0.388135021920837,0,0.109495632483493,0.0975627097562917,0,0,20.1143933718214
773,"KAPALAMA 773","KAMEHAMEHA SCH","COOP","OA",188,21.33933391,-157.8567005,"USC00513268",NA,NA,NA,NA,6.4,16.5,1.96434795210058,1.96789818150483,0.138588358916689,0,0,1.3,0.8,0,0,0.230980598194482,3,1.3,0.5,0,0,0.07551682368763,0,0.3,0.3,0.5,13.6303277597018,56.735182444184,8.27378506605303,0.887930887695586,0,0.3,0.3,0,0
775,"NUUANU RES 5 775","BWS","COOP","OA",125,21.339125,-157.835905,"USC00516933",NA,NA,NA,NA,33.8,34,3,0.8,0,0.3,1.3,2.3,0,0,0,12.4,15.2,0.3,0,0,0,3.3,0.3,0,0,8.6,17.3,44.2,0,0,0,0,0,0,7.9
777,"KALIHI RES SITE 777","BWS","COOP","OA",277,21.37516437,-157.8222555,"USC00512960",NA,NA,NA,NA,46.7,50.3,3.6,0.3,0,0,2,4.8,0,0,0,17.8,67.1,28.7,0,0,0,46,17.3,5.3,0.5,9.7,63,57.7,0.3,0.3,0,0,0.3,0,17.3
777.3,"Wilson Tunnel","NOAA-NWS","HydroNet-UaNet","OA",314.5536,21.3771,-157.8166,NA,"WITH1",NA,NA,NA,38.6768238750027,32.214193956194,3.70017062536767,0.331637543473769,0.295898881398332,0.68378212735913,2.56462800066035,7.48088568454602,0,0,0,26.5395279315419,44.4054817843734,11.1819864080162,0,0.077049107317385,0,26.103006678825,5.94282282679345,3.50037945148322,0.253121399260065,18.3801374441264,43.5662843629314,63.6206827940141,0,0.414258433957665,0,0.077049107317385,0.297069553875886,0,14.3087006824031
780.5,"TANTALUS 2 780.5","NEWMAN N","COOP","OA",404,21.32711168,-157.8239234,"USC00518738",NA,NA,NA,NA,21.0602638509303,24.109702070433,4.27072287720504,1.4679913830847,0,0.640274390150543,0.835140508892013,3.31210533631553,0.221219432512965,0,0.0835140508892013,10.1887142084826,23.1801599110855,2.20452347055913,1.32731659507779,0,0.0835140508892013,7.57045591076268,1.69811903474709,0.361894220519872,0.361894220519872,7.62761664788039,22.7604862711584,53.6235661773424,4.86682751528523,0.221219432512965,0,0,0,0,2.39406945882377
781,"KANEOHE MAUKA 781","STATE HOSPITAL","COOP","OA",61,21.40849568,-157.8105878,"USC00513113",NA,NA,NA,NA,13.7760441948701,13.8340223594446,4.72562599918319,0.710487905577942,0,0.106947591554558,1.19164129042659,82.6428423967241,3.63621811285497,0,0,4.26005038589287,19.1000689768355,13.4578419132489,8.48211193338787,0.372818447561535,0,14.6230181204036,15.5258101811327,3.26479701118502,2.87858199902198,5.31856444038823,16.7175694924836,91.9073242318898,2.61921807784698,0.0717986020094304,0,0,0.497191971620593,9.8818596067195,4.40625690521746
781.11,"LulukuRaingageatalt","USGS","USGS","OA",67.056,21.39184444,-157.809475,NA,NA,NA,NA,NA,7.366,8.382,1.016,0,0,0.508,1.778,3.556,0,0,0,5.842,27.432,25.4,0,0,0,28.956,7.874,8.128,0.254,8.382,30.48,91.694,0,0,0,0,0.762,0,7.874
781.13,"KANEOHE 0.8 SW, HI US","CoCoRaHs","CoCoRaHs","OA",20,21.4039,-157.8017,"US1HIHN0027",NA,NA,NA,NA,1.5,4.3,2.3,1,0,0.5,0,1.3,0.3,0,0,0,8.4,4.6,2.5,0,0,4.3,18.3,1,1.5,0.5,6.9,133.6,8.4,0,0,0,0,15.2,0
781.7,"LULUKU 781.7","NWS","COOP","OA",84,21.3873,-157.8098,"USC00515655",NA,NA,NA,NA,10.4,3,1,0,NA,0,NA,NA,0,0,NA,NA,NA,NA,0,0,NA,NA,NA,NA,0.3,8.6,NA,NA,0,0,0,0,0.8,0,7.9
781.9,"RBKamooaliiRaingagenrKaneohe","USGS","USGS","OA",59.484768,21.38628889,-157.7928083,NA,NA,NA,NA,NA,19.1639037306327,18.6103832185116,1.60999095524525,0,0,0.419542285160807,1.4186621022613,3.08600368353022,0,0,0,8.20677719385297,22.0584526490653,10.2590287128118,0,0,0,17.4482437999678,4.7870170148399,3.05708822116084,0.334110882084216,8.11610920438991,29.9471831065948,43.349314304733,0,0,0.0746038437022872,0,0.256294209229775,0,5.88120672247345
782.3,"Nuuanu Upper","NWS","HydroNet-UaNet","OA",248.412,21.3502007,-157.8184,"USC00516938","NUUH1","156097FE",NA,NA,94.234,55.626,4.064,0.508,0,1.016,3.048,10.922,0,0,0,35.306,56.896,3.048,0,0.254,0,29.718,6.35,0.508,0.508,21.336,75.184,51.308,0,0,0,0.254,0,0,27.686
783,"NUUANU RES 4 783","BWS","COOP","OA",320,21.35266525,-157.807534,"USC00516928",NA,NA,NA,NA,67.1,63.5,5.1,0,0,1,3.3,7.6,0,0,0,25.1,51.6,6.9,0,0,0,31,8.6,1.3,1,21.3,79.2,50.3,0,0,0.3,0,0,0,13
784,"PAUOA FLATS 784","BWS","COOP","OA",549,21.33516641,-157.8105899,"USC00517810",NA,NA,NA,NA,58.7,67.8,6.6,1.3,0,2.3,3,6.6,0,0,0.3,36.6,78.5,5.8,0,0,0.3,26.4,6.1,1.3,1.3,27.4,70.9,42.7,0,0,0,0,0,0,8.6
785.4,"Manoa Lyon Arbo","NWS","HydroNet-UaNet","OA",151.7904,21.3330002,-157.8024,"USC00516128","MNLH1",NA,NA,NA,30.988,51.816,8.89,0.762,1.27,0.762,4.064,11.938,0,0,0,58.166,70.612,1.524,0,0,0,24.892,4.064,0.762,0,37.084,38.1,52.832,0,1.778,0,0,0,0,12.192
787.1,"MAUNAWILI 787.1","HSPA","COOP","OA",127,21.351,-157.7668,"USC00516222",NA,NA,NA,NA,14,3.3,3.3,0,0,0.3,2.3,2.5,0,0,0,10.0904346161756,25.1246058840754,1.3,0,0,0,20.8324823584899,5.70126689483233,3.26269239018616,0.336933319375245,9.7732897925484,37.4968363572693,60.433741411644,0.38033159464628,0,0,0,1,0,5.8
787.2,"Maunawili","NWS","HydroNet-UaNet","OA",127.1016,21.3509998,-157.7668,NA,"MAUH1","19007374",NA,NA,5.588,14.732,3.302,0,0,0.508,0.762,4.064,0,0,0,6.35,20.574,2.032,0,0,0,29.464,14.986,5.588,0,18.288,58.674,76.454,0.762,4.064,0,0,1.016,0,5.842
788,"ST STEPHENS SEMINARY","ST STEPHEN SEMIN","COOP","OA",143,21.3666,-157.7785,"USC00518601",NA,NA,NA,NA,8.6,3,0.5,0,0,0.3,1.32746112288887,3.68237936403769,0.069282336723594,0,0,5.20191880573608,23.2180285006821,2.3,0,0,0,21.0768897219177,6.95705606438468,3.80214443276264,0,9.9,69.6,54.8507104192703,1,0,0,0,0,0,5.3
788.1,"PALI GOLF COURSE 788.1","C&C PARKS & RECR","COOP","OA",146,21.37183016,-157.7839226,"USC00517656",NA,NA,NA,NA,2.5,3.8,0.871300561238045,NA,NA,1.3,1.5,2.5,1.5,0,0,1.39408089798087,8.9,7.1,3,0,0,NA,NA,4.3,4.1,0,10.7,98.6,NA,NA,0,0,0,1.74260112247609,4.35650280619022
788.2,"St Stephens Seminary","NWS","HydroNet-UaNet","OA",142.9512,21.3666992,-157.7786,NA,"STVH1","19005598",NA,NA,7.366,9.906,0.508,0,0,2.032,1.016,7.62,0.254,0,0,2.032,15.748,3.556,0,0,0,20.066,6.858,2.794,0.508,8.89,40.64,76.708,1.27,0,0,0,0,0,5.334
790.11,"Olomana Fire Stn","NWS","HydroNet-UaNet","OA",45.1104,21.3777008,-157.7507,"USC00517052","OFSH1","19011468",NA,NA,0,3.81,0.254,0,0,1.524,0,0.508,0,0,0,0.254,2.286,1.016,0,0,0,8.89,0,0,0,10.668,15.748,106.934,0.254,2.794,0,0,1.016,0,5.08
793.1,"WAIMANALO EXPERIMENTAL FARM","CoCoRaHS","CoCoRaHS","OA",38,21.3727,-157.725,"US1HIHN0022",NA,NA,NA,NA,0,4.1,0.5,3.8,0,0,0,0,0,0,0,0,0,0.5,2,0,0,0,2.5,0,0,1.3,9.7,88.9,4.3,1.8,0,0,0,0,0
795.1,"WAIMANALO EXP F 795.1","HAES","COOP","OA",18,21.33516407,-157.7105906,"USC00519523",NA,NA,NA,NA,0.820966377857683,1.23144956678652,1,0,0,0,0,0,3.8,0,0,0,0.5,0,0,0,0,1.23144956678652,1.23144956678652,0,0,4.18692852707418,0,79.5,4.8,6.9,0,0,0,12.7249788567941,0.410483188928842
795.3,"Waimanalo Nonokio","NWS","HydroNet-UaNet","OA",20.1168,21.3356991,-157.7116,NA,"WMLH1","224185AC",NA,NA,0,2.54,0.254,0,0,0,0,1.27,0,0,0,0,1.27,1.778,0.254,0,0,2.286,0,0,0,25.908,11.938,71.374,0,5.842,0,0,0,0.254,3.048
798,"WAIANAE 798","CAPITAL INVESTMENT","COOP","OA",3,21.44683495,-158.1855845,"USC00519231",NA,NA,NA,NA,0,0,3.8,0,0,0,0,0,0,0,0,0,0,0.3,0.3,0,0,1,0,0,0,0,4.6,49.5,3.8,0.5,0,0,0,0,10.4
799,"WAIAWA PHB","RAWS","RAWS","OA",453.8472,21.48,-158.1072222,NA,"SCSH1","328FC12E",NA,NA,4.50427668006121,3.85285931169029,0.2680681006425,0.220186367176038,0.124422900243074,2.93708238110565,3.96206579584001,5.40795493298813,0,0,0,0.612677368061612,1.41737303919071,1.98628057349133,2.20255973945801,0,0,5.48466011019562,0,0.510687153548605,0.091612301879581,17.0447683538811,26.6250401638764,52.3800521698532,0.124422900243074,2.1535325280157,0.137418452819384,0.216035202122655,0,0.124422900243074,18.4234370647376
801.1,"Waianae Kawiwi","MT VIEW DAIRY","HydroNet-UaNet","OA",19.812,21.4566994,-158.18,NA,"WAIH1",NA,NA,NA,0,0.254,0,0,0,0,0,0,0,0,0,0,0,0,0,0,0,0,0,0,0,4.572,14.478,NA,NA,0,0,0,0,0,7.874
803.2,"WAIANAE VALLEY","RAWS","RAWS","OA",291.6936,21.48055556,-158.1552778,"USR0000HWVA","WNVH1","487005DA",NA,NA,0.799999999999983,1,0,0,0,0.300000000000011,1,0.5,0,0,0,0.5,0,0,0,0,0,0,0,0,0,9.69999999999999,18.5,36.1,0,0,0,0,0,0,9.09999999999997
804,"Lualualei","US VY","HydroNet-UaNet","OA",35.9664,21.4211006,-158.1352,"USC00515647","LUAH1","8170406C",NA,NA,0.254,2.032,0,0,0,0,0.254,0.254,0,0,0,0,0,0,2.54,0,0,0.254,0,0,0,5.842,17.526,39.624,0.254,0,0.508,0.254,0,0,13.208
810.1,"WHEELER ARMY AIR FIELD 810.1","COOP","NWS","OA",255,21.48722,-158.02806,"USW00022508","WAFH1","B14101B2",NA,NA,4.74454520582792,0.397700424232784,0,0.424213785848309,0,2.12106892924152,0.954481018158687,0,0,0,0,0.530267232310379,2.96949650093811,7.59011601244217,0.265133616155189,0,0.954481018158687,1.64382842016216,0,0,0,2.54528271508982,6.20412661803143,19.0896203631736,0,0,0,0,0,0,5.1422456300607
820.6,"Mililani","NWS","HydroNet-UaNet","OA",226.7712,21.4638004,-157.9991,"USC00516261","MITH1",NA,NA,NA,4.318,2.54,1.27,2.794,0,0,0.762,1.27,0,0.254,0,0,0.254,4.318,0,0,0,0,0,0,0,5.588,23.876,45.466,0,0,0,0,0,0,5.334
821.3,"SFKaukonahuaRainGage,nrWaawa","USGS","USGS","OA",262.23468,21.48880556,-157.9960556,NA,NA,NA,NA,NA,10.8462431107296,9.76121123196708,2.25503728154609,6.16564078795241,0.249358111822509,0,1.27748411935079,2.2623454418472,0.123461029194403,0.176469927961088,0,1.00474060759114,1.67992675919725,6.96535803016162,0,0.123461029194403,0,0,0,0,0,8.74116751553231,46.4096100987523,74.9837367224525,0.123461029194403,0.249358111822509,0.123461029194403,0,0,0.246922058388806,9.80174393294896
824.2,"Waipio","NWS","HydroNet-UaNet","OA",124.968,21.4199009,-158.0058,NA,"PECH1",NA,NA,NA,2.286,7.62,0.508,0,0,0,0,0,0,0,0,0,0,3.81,0,0,0,0.508,0,0,0.254,6.604,16.002,31.2801761256804,0.0352121298032394,0.254,0,0,0,0.254,9.398
