"SKN","Station.Name","Observer","Network","Island","ELEV.m.","LAT","LON","NCEI.id","NWS.id","NESDIS.id","SCAN.id","SMART_NODE_RF.id","X2023.07.01","X2023.07.02","X2023.07.03","X2023.07.04","X2023.07.05","X2023.07.06","X2023.07.07","X2023.07.08","X2023.07.09","X2023.07.10","X2023.07.11","X2023.07.12","X2023.07.13","X2023.07.14","X2023.07.15","X2023.07.16","X2023.07.17","X2023.07.18","X2023.07.19","X2023.07.20","X2023.07.21","X2023.07.22","X2023.07.23","X2023.07.24","X2023.07.25","X2023.07.26","X2023.07.27","X2023.07.28","X2023.07.29","X2023.07.30","X2023.07.31"
3.9,"LOWER KAHUKU CS","LOWER KAHUKU CS","RAWS","BI",953.7192,19.10083333,-155.6697222,NA,"LKHH1","32D620C2",NA,NA,0,0,2.53999999999996,5.07999999999993,7.61999999999989,6.60400000000038,11.43,8.636,1.27,4.064,1.778,0,0,6.604,9.398,1.77800000000001,0,15.748,99.314,4.82599999999999,0,1.77799999999999,2.03200000000001,0.254000000000019,3.04799999999997,8.12800000000001,3.30199999999999,0,0,0.762,2.79400000000001
4.15,"SOUTH POINT NEAR NAALEHU 12SSW","NWS","STATE","BI",295.78,18.9928,-155.668,NA,"SOPH1","B1507246",NA,NA,NA,NA,NA,NA,NA,NA,NA,NA,NA,NA,NA,NA,NA,NA,NA,NA,NA,NA,NA,NA,NA,NA,NA,NA,NA,NA,NA,NA,0,0,0
9.2,"Nene Cabin","Nene Cabin","RAWS","BI",1991.7737,19.2564,-155.6144,NA,"NENH1","32D64524",NA,NA,0,0,0,0,2.03199999999993,0.508000000000038,2.03199999999993,1.52400000000011,0.507999999999925,7.11199999999997,1.016,0,0,0,2.28600000000017,0,0,20.828,119.38,0,0,0,0,0,0,0,0,0,0,0,0
21,"Pahala","KAU SUGAR","HydroNet-UaNet","BI",346.8624,19.2042999,-155.4872,"USC00517421","PPLH1","B16084B2",NA,NA,0,0,0,0,0,0.762000000000171,0,0,0,0,0,0,0,0,0,0.521202390284599,0.191731833363288,4.16410722418648,40.7903992946602,0,0,0,0,0,0,0,0,0,0,0,0
23,"KAHUKU","RAWS","RAWS","BI",1796.4912,19.23222222,-155.78,NA,"KRCH1","32639544",NA,NA,0.253999999999905,0,0,1.52400000000011,4.82599999999991,11.9380000000002,8.12799999999982,4.31799999999998,1.2700000000001,1.26999999999998,0.253999999999905,0,0,3.30200000000013,7.11199999999997,2.28599999999994,0,0,10.668,0,2.03199999999993,0,0,0,0,0,0,0,0,0,0
27.6,"Honaunau No. 2","NWS","HydroNet-UaNet","BI",398.0688,19.4629002,-155.8824,NA,"HAUH1","15D12742",NA,NA,2.03200000000015,0.507999999999925,1.2700000000001,5.84199999999987,24.384,10.922,21.082,0.254000000000133,2.03199999999993,0.253999999999905,0,0,5.33400000000006,0.762000000000057,8.88999999999999,0,0,0,0,19.5579999999999,12.954,8.8900000000001,1.77800000000002,0,0.761999999999944,12.4460000000001,4.06399999999985,0.254000000000133,0.253999999999905,0,25.5661740697574
29.12,"Kealakekua","NWS","HydroNet-UaNet","BI",537.972,19.5181007,-155.9159,NA,"KLEH1","81708572",NA,NA,4.57199999999989,0.254000000000019,1.01599999999996,8.63600000000008,24.8919999999999,7.36599999999999,6.096,0.508000000000152,5.07999999999981,0,0.254000000000133,1.26999999999998,1.524,2.28599999999994,6.60399999999993,0,0.254000000000133,0,1.01599999999996,29.7180000000001,15.494,3.55599999999993,1.01599999999996,0.254000000000019,2.79399999999998,3.80999999999995,0,1.2700000000001,0.762000000000057,1.01599999999996,25.4
34,"Kapapala Ranch","NWS","HydroNet-UaNet","BI",638.556,19.2754993,-155.4514,"USC00513300","KAYH1","B16097C4",NA,NA,0.253999999999905,0,0,0,0,0,0,0,0,0,0,0,0,0,0,1.52400000000011,0.253999999999905,6.34999999999991,60.7060000000001,0,0,0,0,0,0,0,0,0,0,0,0
36.3,"KAPAPALA RANCH","KAPAPALA RANCH","RAWS","BI",1081,19.25811,-155.441781,NA,"KPRH1","AA10E258",NA,NA,0,0,0,0,0,1.26999999999998,0,0,0,0,0,0,0,0,0,0,0.254000000000133,4.82599999999979,48.5140000000001,0,0,1.26999999999998,0,0,0,0,0,0,0,0,0
38.9,"KAELAKOMO","KAELAKOMO","RAWS","BI",29.5656,19.29277778,-155.1075,NA,"KMOH1","32807432",NA,NA,0,0,0,0,3.30199999999991,0.254000000000133,0.508000000000038,0,0,0,0.508000000000038,0,0,0,0,0,0,4.57199999999989,20.5740000000001,0,0,0,0,0,0,0,0,0,0,0.508000000000038,0
39,"Mauna Loa Observatory","NWS","ESRL/GMD","BI",3397,19.5362,-155.5763,"USC00516198","MOBH1",NA,NA,NA,0,0,0,0,NA,0,0,0,0,0,0,0,NA,0,0,0,0,11.176,22.606,0,0,0,0,0,0,0,0,0,0,0,0
43.3,"PUHE CS","PUHE CS","RAWS","BI",34.126,20.025,-155.8211111,NA,"PHRH1","32D61558",NA,NA,0,0,0,12.954,12.192,7.62,2.53999999999996,0,4.06400000000008,2.53999999999985,0,0,1.52400000000011,1.26999999999998,11.684,0,0,0,0.254000000000133,1.26999999999987,3.048,0,0,0,1.524,0.254000000000019,0,0,0,0,0.254000000000133
47,"KEMOKU LAVA FLOW","RAWS","RAWS","BI",1706.88,19.47555556,-155.3627778,"USR0000HKEA","KKUH1","FA4447E8",NA,NA,0,0,0,0,0,0,0,0,0,0,0.254000000000133,0,0,0,0,0,0,27.9399999999998,106.172,0,0,0,0,0,0,0,0,0,0,0,0
48,"PALI 2","RAWS","RAWS","BI",847.344,19.3175,-155.2922222,"USR0000HPAL","PLIH1","FA900222",NA,NA,0,0,0,0,NA,0,0,0,0,0,0,0,NA,0,0,0,0,10.922,31.496,0,0,0,0,0,0,0,0,0,0,0,0
54.2,"Glenwood","HELBUSH XL","HydroNet-UaNet","BI",802.2336,19.5076008,-155.1707,"USC00510744","GLNH1",NA,NA,NA,0.887924215249888,0.762,2.85728762664102,2.54,0.639124526029744,9.144,6.02439124880352,21.844,11.938,2.286,4.064,0,0,0,6.604,4.318,0.762,309.372,128.187125937408,8.128,0.57965076339539,3.048,2.032,1.524,5.08,7.366,7.31206550341782,2.032,0,12.192,4.572
63,"KALOKO-HONOKOHAU","RAWS","RAWS","BI",7.62,19.67277778,-156.0202778,NA,"KHOH1","FA667668",NA,NA,0,0.254000000000019,0.507999999999981,0,0.254000000000019,1.524,0,0,0,0,0,0,0,0,0,0,0,0,0,0.761999999999944,0,0.254000000000019,1.27000000000004,0,0,0,0,0,0.253999999999962,0,0
68.21,"KAILUA KONA KE AHOLE AIRPORT","KAILUA KONA KE AHOLE AIRPORT","NWS","BI",27,19.73556,-156.04889,"USW00021510","PHKO",NA,NA,NA,0,0,0,0,NA,0,0,0,0,0,0,0,NA,0,0,0,0,0,0,0.508,0,0,0,0,0,0,0,0,0,0,0
70.16,"Waiaha Stream","NWS","HydroNet-UaNet","BI",460.5528,19.6331997,-155.9486,NA,"WIHH1","9321011E",NA,NA,4.06400000000008,0.253999999999905,8.12799999999993,3.04800000000023,4.57199999999989,3.30199999999991,1.01600000000008,0.253999999999905,2.54000000000019,0.253999999999905,8.12799999999993,2.54000000000019,2.28599999999983,0,2.28600000000006,2.53999999999996,0,0,1.26999999999998,40.1320000000001,6.34999999999991,12.1920000000002,8.12799999999993,0.253999999999905,0.253999999999905,0.253999999999905,0.762000000000171,2.53999999999996,0.762000000000171,7.11199999999985,10.1600000000001
75.1,"PTA KIPUKA ALALA","RAWS","RAWS","BI",1641.348,19.66694444,-155.7077778,"USR0000HPTK","PKAH1","32666200",NA,NA,0,0,0,0,0.762,0.507999999999981,1.01600000000002,0,0.253999999999962,0,0.254000000000019,0,0,0,0,0,0,0,0.253999999999962,0,0,0,0,0,0,0,0,0,0,0,0
79.6,"Kulani NWR","NWS","HydroNet-UaNet","BI",1623.3648,19.5543995,-155.3089,NA,"KNWH1",NA,NA,NA,0.508,0.254,0,0,0.670732750044462,1.27,2.286,2.032,1.016,0,2.794,0,0,0,0.762,0.762,0.254,63.5,114.3,0.254,0.400252949897498,0,0.254,0,0,0,0.391260770859266,0.254,0,0.762,2.032
83,"QuarryRainGageatSaddleRd","USGS","USGS","BI",1286.256,19.68586111,-155.2942222,NA,"SDQH1","DDF6B6E4",NA,NA,1.524,0.254000000000019,0,0,2.03200000000004,3.81000000000006,5.84199999999998,7.11199999999997,4.31799999999987,0.254000000000133,5.58799999999997,0,0,0,0,2.54000000000008,0,70.1039999999999,127.508,2.28600000000029,0.508000000000038,0.507999999999811,1.01600000000008,0.508000000000038,1.52399999999989,0,1.77800000000002,3.048,0,0.253999999999905,3.30200000000013
85.2,"Waiakea Uka","NWS","HydroNet-UaNet","BI",303.8856,19.6585999,-155.1277,"USC00519084","WKAH1",NA,NA,NA,1.778,0.254,4.318,1.778,0.586455107846919,5.842,8.128,16.002,4.826,1.524,5.334,0,0,0,3.556,0.254,1.524,80.772,96.266,5.08,1.32818995283608,5.842,9.398,3.556,5.588,3.81,6.70948772695209,2.794,0,5.08,2.032
87,"HILO INTERNATIONAL AIRPORT 87","NWS","HydroNet-UaNet","BI",11.6,19.7191,-155.053,"USW00021504","PHTO",NA,NA,NA,0.254,1.524,0.508,4.064,0.488358465758646,2.286,4.572,7.62,0.508,1.27,3.302,0.762,0,3.556,4.572,0,0.508,28.448,18.288,3.048,0.508,3.048,3.302,1.778,1.27,4.064,0,2.794,0.762,3.556,3.556
88.8,"Waiakea Exp Farm","UNIV HAWAII","STATE","BI",183,19.644743,-155.0805636,NA,"WEXH1","CD07410A",NA,NA,0.254,0.508,1.524,0.762,NA,4.064,10.16,14.224,3.81,5.08,3.048,0,NA,0.762,8.89,0,1.016,64.008,63.246,6.096,0,NA,3.048,0.508,2.794,5.334,0,0.508,0,3.048,NA
89.11,"Piihonua","NWS","HydroNet-UaNet","BI",296.8752,19.7098007,-155.1395,"USC00518053","PIIH1",NA,NA,NA,0,0.762,3.302,1.778,0.545875366957839,5.842,5.08,7.62,8.128,0.254,4.064,0,0,1.016,4.318,3.81,1.524,72.898,99.314,4.826,0.508,4.826,9.144,4.064,10.16,4.318,6.24522495591447,7.112,0,4.826,1.524
89.15,"HONOLII STREAM NEAR PAPAIKOU NEAR HILO 3N ","USGS","USGS","BI",522.23157,19.7667,-155.1544,NA,"NLIH1","D114953C",NA,NA,0.508000000000038,0.508000000000038,8.63599999999997,2.53999999999996,2.53999999999996,7.87400000000025,10.1599999999999,17.5259999999998,16.2560000000001,5.8420000000001,7.11199999999985,0,0,0.762000000000171,6.60400000000004,1.26999999999998,3.30199999999991,84.5820000000001,NA,8.88999999999987,1.01600000000008,5.8420000000001,12.954,6.34999999999991,12.954,14.732,12.4460000000001,4.06400000000008,0,18.5419999999999,3.55600000000004
91.15,"Mountain View","Mountain View","HydroNet-UaNet","BI",346.5576,19.5674992,-155.0841,NA,"MTVH1",NA,NA,NA,1.016,0.508,4.318,6.858,NA,5.588,10.16,18.542,3.048,2.286,7.62,0,NA,11.43,8.89,0.762,2.032,82.55,68.834,8.89,NA,13.208,8.636,2.286,4.064,8.128,1.27,1.778,0,6.604,4.318
91.9,"Pahoa Beacon","NWS","HydroNet-UaNet","BI",187.1472,19.5149994,-154.9644,NA,"PHAH1",NA,NA,NA,1.27,6.604,1.778,3.302,0,2.794,8.636,10.668,0.508,5.842,3.048,0,0,0.508,5.842,0.254,2.032,54.61,31.496,5.588,1.01443654039075,12.954,7.874,1.27,2.794,13.208,7.0989016289501,4.318,0,3.81,1.27
92.5,"KiholoRainGage","USGS","USGS","BI",283.96692,19.82580556,-155.8925833,NA,"KIRH1","DD60236E",NA,NA,0,0,0,0,0.507999999999981,0.761999999999972,0.508000000000038,0,0,2.286,4.82599999999999,0,0,0,0,0,0,0,0,0,0,0,0,0,0,0,0,0,0,0,0
93.12,"PUUANAHULU","RAWS","RAWS","BI",830.58,19.83277778,-155.7697222,NA,"PULH1","48703040",NA,NA,0,0,0,0,0,0,0,0,0,1.77800000000002,6.09599999999989,0,0,0,0,0,0,0,0,0,0,0,0,NA,0,0,0,0,NA,0,0
94,"KAUPULEHU LAVA FLOW","RAWS","RAWS","BI",372.1608,19.80333333,-155.9180556,NA,"KPLH1","4870E628",NA,NA,0,0,0,0,0,0,0,0.762,0,0,9.39799999999997,0,0,0,0,0,0,0,0,0,0,0,0,0,0,0,0,0,0,0,0
94.5,"PUU WAAWAA","RAWS","RAWS","BI",708.9648,19.795,-155.8452778,"USR0000HPUW","PWWH1","487046D0",NA,NA,0,0,0,0,1.01600000000008,0,0,0,0,6.34999999999997,1.26999999999992,0,0,0,0,0,0,0,0,0,0,0,0,0,0,0,0,0,0,0,0
95.6,"WAIKOLOA","RAWS","RAWS","BI",297.7896,19.92416667,-155.7936111,NA,"WKVH1","4870C0C4",NA,NA,0,0,0,0,0,0,0,0,0,0,0,0,0,0,0,0,0,0,0,0,0,0,0,NA,0,0,0,0,0,0,0
98.2,"PUHO CS","PUHO CS","RAWS","BI",29.5656,19.42194444,-155.9075,NA,"PERH1","32D6803A",NA,NA,0,0,0,0,NA,0,0,0,0,0,0,0,0,0,0,0,0,0,0,NA,0,0,0,0,0,0,0,0,0,0,0
99,"PTA WEST","RAWS","RAWS","BI",1307.592,19.77166667,-155.7022222,"USR0000HPTW","PKWH1","32667176",NA,NA,0,0,0,0,0.507999999999981,0,0,0,0,NA,0.254000000000019,0,0,0,0,NA,0,0,0,0,0,0.253999999999962,0,0,0,0.254000000000019,NA,0,0,0,0
101.1,"PTA KEAMUKU","RAWS","RAWS","BI",1025.9568,19.90222222,-155.6786111,NA,"PKMH1","328FB7BE",NA,NA,0,0,0,0,0,0,0,0,0,0,0,0,0,0,0,0,0,0,2.28599999999999,0,0,0,0,0,0,0.762000000000015,0,0,0,0,0
102.8,"AUHMOA","RAWS","RAWS","BI",2001.9264,19.83638889,-155.6130556,NA,"AHMH1","4870D3B2",NA,NA,0,0,0,0,0.761999999999944,0,0.762,0.253999999999962,0,1.01600000000008,2.79399999999998,0,0,0,0,0,0,3.55600000000004,2.03199999999993,0,0,0,0,NA,0,0,0,0,0,0,0
107.4,"PTA EAST","RAWS","RAWS","BI",1959.864,19.68277778,-155.5452778,"USR0000HPTA","PTAH1","3266D18E",NA,NA,0,0,0,0,0,0,0,0,0,0,0,0,0,0,0,0,0,11.176,26.4160000000001,0,0,0,0,0,0,0,NA,NA,0,0,0
109,"PTA RANGE 17","RAWS","RAWS","BI",1734.312,19.74583333,-155.6261111,NA,"PTRH1","3279630C",NA,NA,0,0,0,0,0.254000000000019,0,0,0,0,0,0,0,0,0,0,0,0,0,1.01600000000002,0,0,0,0,0,0,0,0,0,0,0,0
113.2,"PUU MALI","RAWS","RAWS","BI",2165,19.92666,-155.44,NA,"PMLH1","3181742E",NA,NA,0,0,NA,0,0,0,0,0,0,0,0,0,0,0,0,0.507999999999925,0,29.4640000000001,39.37,0,0,0,0,0,0,0,0,0,0,0,0
129,"HAKALAU","RAWS","RAWS","BI",1950.72,19.82111111,-155.3305556,"USR0000HHAK","HKUH1","8374D370",NA,NA,0,0,0,0.399027958280069,0,0.508000000000038,4.31799999999998,2.53999999999996,1.27000000000021,0.761999999999944,2.28599999999983,0,0,0,0.253999999999905,0.508000000000266,0,63.7539999999999,125.984,0,0.273185268464345,0,0,0,0,0,0,0,0,0,0.761999999999716
133.3,"Laupahoehoe","NWS","HydroNet-UaNet","BI",499.872,19.9792,-155.2372,NA,"LPHH1","B159741A",NA,NA,0,0,1.01600000000053,0.507999999999811,0,1.26999999999998,10.4140000000002,3.80999999999949,1.01600000000053,2.2859999999996,2.28600000000006,0,0,0.508000000000266,0.507999999999811,0.253999999999905,1.52399999999989,80.518,97.79,4.31800000000021,1.77799999999979,0.762000000000171,5.07999999999993,1.26999999999998,11.9380000000001,7.87400000000025,11.6840000000002,1.01599999999962,0.253999999999905,7.36599999999953,1.7780000000007
140.6,"Papaikou Well","NWS","HydroNet-UaNet","BI",345.6432,19.7884998,-155.1313,NA,"PPWH1",NA,NA,NA,0.508,1.778,3.556,1.778,NA,6.096,4.826,13.716,6.858,3.302,7.112,0,NA,5.588,5.842,2.286,NA,79.756,105.156,8.382,NA,9.652,9.906,4.572,17.526,12.446,2.54,2.54,0,4.826,4.826
147.2,"KOHALA RANCH","KOHALA RANCH","RAWS","BI",328.8792,20.08305556,-155.8325,NA,"KHRH1","4870B654",NA,NA,0,0,0,0,0,0,0,0,0,0,3.81,0,0,0,0,0,0,1.524,0.762,0,0,0,0,NA,0,0,0,0,0,0,0
160.3,"Upolu Airport","NWS","HydroNet-UaNet","BI",34,20.265,-155.8582,NA,"UPLH1","B15017A0",NA,NA,0,0,1.01600000000001,0,0,0,0.762,0.762,0.253999999999991,2.54000000000001,1.27,0,0,0,1.77800000000001,0,0.507999999999996,1.77800000000001,8.636,0.50800000000001,0,1.77799999999998,2.03200000000001,0,0,2.54000000000001,0,1.01600000000001,0,0,0
176.3,"Kahua Ranch HQ","KAHUA RANCH","HydroNet-UaNet","BI",987.552,20.1249008,-155.7884,NA,"KASH1","15D293C2",NA,NA,0,0,0,0.507999999999811,0.507999999999811,0,1.77800000000025,3.30199999999968,2.28600000000006,0.25400000000036,0.761999999999716,0.253999999999905,0,0.25400000000036,2.79399999999987,1.77799999999979,0,22.4897117409777,34.5440000000003,0.253999999999905,0.25400000000036,0,0.507999999999811,0,0.507999999999811,1.26999999999998,0.508000000000266,0.507999999999811,0,0.762000000000171,0.507999999999811
185.7,"KawainuiRainGagenearKamuela","USGS","USGS","BI",1237.488,20.08533333,-155.6811667,NA,"KWSH1","DDF6A592",NA,NA,0,3.048,11.684,5.334,5.08,1.524,18.034,22.098,15.24,19.304,8.38199999999998,3.048,1.01600000000001,4.57200000000002,2.032,16.256,10.16,85.852,113.03,23.876,10.414,25.654,29.972,8.63599999999997,25.908,30.9879999999999,20.828,2.54000000000008,0.762000000000057,10.9219999999999,2.03200000000004
192.7,"Kamuela Upper","NWS","HydroNet-UaNet","BI",948.5376,20.0319996,-155.6667,"USC00513080","KUUH1","817075F6",NA,NA,0,0,4.06400000000002,2.53999999999991,2.7940000000001,0.253999999999962,3.30199999999996,7.11199999999997,5.58800000000008,3.55599999999993,2.54000000000008,0.762000000000057,0,3.55599999999993,0,2.79399999999998,2.53999999999996,28.956,30.2260000000001,6.34999999999991,0.254000000000019,7.11199999999997,6.85800000000006,1.26999999999998,12.7,10.6679999999999,5.84199999999998,0.254000000000019,0,4.06400000000008,0
201.3,"Kamuela 1","NWS","HydroNet-UaNet","BI",877.824,20.0394993,-155.6084,NA,"KMUH1","81706680",NA,NA,0,0.26159329146733,1.82683638656233,1.46876435593589,1.13605309050578,0.103277553682324,2.1273880722727,6.90286863893946,4.19045698510557,1.88187457066526,1.03277553682343,0.309832661047042,0,1.62028127919793,0.174395527644887,3.75198600517997,3.0383241047402,32.0035223266014,37.3157871052488,2.54,0,7.112,9.652,0.253999999999998,16.256,7.11199999999999,2.032,0,0,2.794,0
215.5,"Honokaa","NWS","HydroNet-UaNet","BI",591.9216,20.0656,-155.49,NA,"HNKH1","B15047DC",NA,NA,0,0.761999999999716,0.507999999999811,1.27000000000044,0,0,2.28600000000006,11.6840000000002,5.58799999999883,1.27000000000044,0,0,0,0.50800000000072,0.507999999999811,7.61999999999989,5.84199999999964,58.9280000000008,72.8979999999992,6.34999999999945,2.03200000000106,2.53999999999996,15.2399999999998,0.253999999998996,23.3680000000004,9.14400000000205,1.26999999999862,0,0,0,0
250.2,"Ulupalakua Ranch","NWS","HydroNet-UaNet","MA",581.5584,20.6487999,-156.3981,NA,"ULUH1","8170531A",NA,NA,0,0,0,0,5.58799999999997,0.762000000000057,0.253999999999905,0,0,4.57200000000012,0.253999999999905,0,0,0,0.254000000000133,0,0,0,0,0,0,0,0,0,0,0,0,0,0,0,0
255,"KepuniGulchRainGage","USGS","USGS","MA",225.552,20.6195,-156.2518889,NA,"KPNH1","F000D4EA",NA,NA,0,0,0,0,0,1.524,0,0,0,0,0.762,0,0,0,0,0,0,0,0,0,0,0,0,0,0,0,0,0,0,0,0
266,"KAUPO GAP","RAWS","RAWS","MA",1228.344,20.68416667,-156.1519444,"USR0000HKAU","KPGH1","FA45A6E0",NA,NA,0,0,0,0,0,0.253999999999962,0,0,0,0,0.508000000000038,0,0,NA,0,0,0,0,0.761999999999944,0,0,0,0,NA,0,0,0,0,0,0,0
267.8,"KULA 1","KULA 1","RAWS","MA",1998.5736,20.68305556,-156.3216667,NA,"KLFH1","AA10F12E",NA,NA,0,0,0,0,0,0,0,0,0,0,0,0,0,0,0,0,0,0,2.032,0,0,0.253999999999998,0.253999999999998,0,0,0,0,0,0,0,0
302,"MAALAEA BAY","NWS","STATE","MA",302,20.7903,-156.514,NA,"P36","15DF05C6",NA,NA,0,0,0,0,0,0,0,0,0,0.254000000000133,0,0,0,0,0,0,0,0,1.52399999999989,0,0,0,0,0,0,0,0,0,0,0,0
311.2,"Kealia Pond NWR","Kealia Pond NWR","RAWS","MA",3.6576,20.7975,-156.4772222,NA,"KPDH1","32B2C438",NA,NA,0,0,0,0,0,0,0,0,0,0,0,0,0,0,0,0,0,0,1.27000000000001,0,0,0,0,NA,0,0,0,0,0,0,0
311.5,"Kihei 2","NWS","HydroNet-UaNet","MA",54.5592,20.7061005,-156.437,NA,"KHIH1","93202508",NA,NA,1.016,1.27,0.762,1.01599999999999,0,2.032,0,0,0,0.508000000000003,0,0,0,0,0,0,0,0,0,0,0,0,0,0,0,0,0,0,0,0,0
324.7,"Kula Branch Stn","NWS","HydroNet-UaNet","MA",944.88,20.7577991,-156.3217,"USC00515000","KBSH1","93220610",NA,NA,0,0,0,0,0,0,0,0,0,0,0,0,0,0,0,0,0,0,1.52399999999989,0.25400000000036,0,3.30199999999968,0,0,0,0,0,0,0,0,0
348.5,"WestWailuaikiRainGagenrKeanae","USGS","USGS","MA",472.44,20.81436111,-156.1429722,NA,"WWKH1","DD5E710A",NA,NA,2.03200000000015,6.85799999999972,5.33399999999983,0,16.2559999999999,10.1600000000003,27.5533594235501,13.9700000000003,5.58800000000019,9.14399999999978,8.38200000000006,5.07999999999993,0,4.82600000000002,4.31800000000021,7.11199999999963,10.6680000000001,48.0891851963153,117.538798410941,12.9540000000002,6.60400000000027,12.1919999999996,22.3658045874572,1.01599999999962,4.57200000000012,22.8600000000001,6.09599999999955,2.79400000000032,0,9.39800000000014,6.85799999999972
353,"Hana AP","NWS","HydroNet-UaNet","MA",19,20.7946,-156.0157,"USC00511125","HNAH1","B150314C",NA,NA,1.016,1.016,1.524,0,4.318,8.128,9.398,NA,0.253999999999998,NA,2.032,0.507999999999996,0,0.762,0.507999999999996,1.524,2.032,1.27,10.16,3.55599999999998,2.28600000000002,4.06399999999999,2.286,0,0,3.556,0,0.254000000000005,0,0.507999999999996,0
361.1,"Lahainaluna","NWS","HydroNet-UaNet","MA",238.0488,20.8909,-156.6556,NA,"LAHH1","81700366",NA,NA,0,0,0,0,1.01599999999962,0.254000000000133,0.254000000000133,0.253999999999905,0,0.508000000000266,0,0,0,0,0,0,0,0.253999999999678,3.04800000000023,0.254000000000133,0,0,0,0,0,0,0,0,0,0,0
380,"PuuKukuiRainGageatalt","BALDWIN PKRS","USGS","MA",1759,20.89083333,-156.6008333,"USC00514887","PKKH1","DD73556E",NA,NA,1.27000000000044,0.253999999999905,0.761999999999716,0,7.11200000000008,17.7800000000002,45.7199999999998,46.2280000000001,4.06400000000031,69.8499999999999,2.0319999999997,0.762000000000171,0.253999999999905,1.52399999999989,10.922,3.80999999999995,0.25400000000036,20.0659999999998,150.368,0.507999999999356,3.30200000000059,10.9219999999996,17.0180000000005,0,0,8.88999999999942,17.5260000000003,0.761999999999716,0,0.762000000000171,7.36599999999999
386.6,"Wailuku","NWS","HydroNet-UaNet","MA",146.9136,20.8831005,-156.5124,NA,"WUKH1","9321D776",NA,NA,0,0,0,0,0,0,0.507999999999356,1.27000000000044,0,0,0,0,0,0,1.01600000000008,0,0,1.77799999999979,8.89000000000033,0,0,0,0.507999999999811,0,0,0.508000000000266,0,0,0,0,0
390.4,"Waikapu Country Club","NWS","HydroNet-UaNet","MA",145.9992,20.8346996,-156.5135,NA,"WCCH1","9320E016",NA,NA,NA,NA,NA,0,NA,0,0.762,0,0,0,0,0,NA,0,0,0,0,NA,0.508,NA,0,0,0,NA,0,0,0,0,NA,0,0
398,"KAHULUI AIRPORT","NOAA-NWS","NWS","MA",12,20.8887,-156.436,"USW00022516","PHOG",NA,NA,NA,0,0,0,0,NA,0,0.762,2.54,0,0.762,0,0,NA,0,0,0,0,0.762,3.302,0,0,0,0,0,0,0,0,0,0,0,0
426.6,"Pukalani","NWS","HydroNet-UaNet","MA",495.9096,20.8355007,-156.3307,NA,"PUKH1","15D2B52E",NA,NA,0,0,0,0,0,0,0,0.507999999999811,0,0,0,0,0,0,0,0,0,8.12800000000061,21.3359999999993,0,0,0,0,0,0,0,0,0,0,0,0
465.1,"Mahinahina","NWS","HydroNet-UaNet","MA",223.1136,20.9552002,-156.6562,NA,"MABH1","190524C8",NA,NA,0,0,0,0,NA,1.778,5.842,3.302,0.508,7.112,0.254,0,NA,0,1.016,2.54,0.254,5.588,24.638,2.286,1.524,3.048,1.016,0,0,4.572,2.286,0,NA,0,0.762
482.5,"Kahakuloa","Kahakuloa","HydroNet-UaNet","MA",335.28,20.9540997,-156.5342,NA,"KHKH1","781001B6",NA,NA,0,0,1.26999999999998,0.254000000000019,0,6.60400000000004,6.34999999999991,0,0.508000000000038,1.524,0,0,0,0,2.79399999999998,0,2.03200000000004,1.26999999999998,11.684,0,0.254000000000019,0,4.06399999999996,0,0,0,0.254000000000019,0,0,1.2700000000001,1.77800000000002
499.6,"KAHOOLAWE 499.6","COOP","COOP","KO",366,20.55694,-156.575,"USC00512558","KRTH1","15DEF7B8",NA,NA,0,0,0.761999999999716,0,0,NA,NA,NA,NA,NA,NA,NA,NA,NA,NA,NA,NA,NA,NA,NA,NA,NA,NA,NA,NA,NA,NA,NA,NA,NA,NA
524,"MOLOKAI KAUNAKAKAI MOLOKAI AIRPORT","ALOHA AIRLINES","NWS","MO",141,21.15514996,-157.0924625,"USW00022534","PHMK",NA,NA,NA,0,0,0,0,NA,0,0,0.254,0.254,2.032,0,0,NA,0,1.016,0,0.508,0.254,4.572,0,0,0,0,0,0,0,0,0,0,0,0
536.5,"Kaunakakai Mauka","MOLOKAI GEN HOSP","HydroNet-UaNet","MO",28.3464,21.0946007,-157.0174,NA,"KACH1","50A0F2E2",NA,NA,0,0,0,0,0,0,0,0,0,0,0,0,0,0,0,0,0,0,1.77800000000002,0,0,0,0,0,0,0,0,0,0,0,0
538,"MOLOKAI 1","RAWS","RAWS","MO",833.0184,21.115,-156.9475,"USR0000HMLK","MLKH1","487016AC",NA,NA,0,0,0,0,0,0,0.507999999999925,2.03199999999993,1.52400000000011,3.55600000000004,0.253999999999905,0.508000000000152,0,0.761999999999944,2.79399999999998,0,0,2.03200000000004,3.80999999999995,0.254000000000133,0,0.253999999999905,0.507999999999925,0,0,0,0,0,0,0,0
541.2,"Puu ALII WEST","Puu ALII WEST","RAWS","MO",1159.764,21.14083333,-156.9022222,NA,"PAFH1","32D6062E",NA,NA,0,0,2.53999999999996,0,5.07999999999993,5.07999999999993,10.1600000000003,12.6999999999998,2.53999999999996,17.7800000000002,10.1599999999999,0,0,2.04155612541043,7.62000000000035,10.1599999999994,0,12.7000000000003,43.1799999999998,5.08000000000038,7.61999999999989,3.556,8.89,0.508000000000001,1.778,5.842,5.842,0,0,0,2.032
542.11,"Kamalo","NWS","HydroNet-UaNet","MO",8.8392,21.052,-156.871,"USC00513045","KMLH1","50A0D40E",NA,NA,1.26999999999998,0,2.28599999999994,0,1.77800000000002,2.79399999999998,1.524,3.30200000000002,0.507999999999925,4.3180000000001,8.88999999999999,0,0,0.254000000000019,8.63599999999997,3.55600000000004,4.572,2.28599999999994,4.82600000000002,1.524,2.28599999999994,7.11200000000008,2.28599999999983,NA,NA,NA,NA,0,0,0,0.508000000000152
553,"MAKAPULAPAI","RAWS","RAWS","MO",22.86,21.20333333,-156.9661111,"USR0000HMAK","MKPH1","FA9024CE",NA,NA,0,0,0.254,0,NA,1.016,0.508,0.254,0.762,2.54,1.524,0,NA,0.508,0.508,1.778,0.254,1.016,1.524,0.254,0,1.27,0.508,0,0,0.508,1.016,0,0,0,0.254000000000076
656,"LANAI AIRPORT 656","HAWN AIRLINES","NWS","LA",396.2,20.7882389,-156.946639,"USC00515275","PHNY",NA,NA,NA,0,0,0,0,NA,0.254,1.016,0,0,16.256,0.254,0,NA,0.508,0,0,0,0,NA,0,0,0,0,0,0,0,0,0,0,0,0
672.1,"Lanai City","NWS","HydroNet-UaNet","LA",498.0432,20.8262997,-156.9182,"USC00515286","LANH1","50A2F716",NA,NA,1.2700000000001,0,0.253999999999905,0,2.28599999999994,0,0,0,0,1.2700000000001,3.048,0,0,0,0.253999999999905,0.762000000000057,0.508000000000038,0.254000000000019,5.58799999999997,0,0,0.762000000000057,3.30199999999991,0,0,1.524,2.28599999999994,0,0,0,0
679,"LANAI 1","RAWS","RAWS","LA",387.096,20.87333333,-157.0063889,"USR0000HLAN","LNIH1","48702336",NA,NA,0,0,0.761999999999944,0,0,0.254000000000019,0,0,0,0,0,0,0,0,0,0.254000000000019,0,0.253999999999962,4.06400000000002,0,0,0,8.89000000000004,0,0,0,0,0,0,0,0
702.7,"Kapolei-Kalaeloa AP","NWS","NWS","OA",15,21.31667,-158.06667,"USW00022551","PHJR",NA,NA,NA,0,0,0,0,0,0,0,0,0,0,0,0,0,0,0,0,0,0,0,0,0,0,0.254,0,0,0,0,0,1.016,0,0
702.8,"PTWC","NWS","HydroNet-UaNet","OA",1.524,21.3150005,-157.9992,NA,"PTWH1",NA,NA,NA,0.254,0,0,0,0,0,0,0,0,0.508,0,0,0,0,0,0.508,0,0,0,0,0,0,0.762,0,0.254,0,0,0,0,0,0
703,"HONOLULU INTERNATIONAL AIRPORT","USWB","NWS","OA",2.1,21.324,-157.9294,"USW00022521","PHNL",NA,NA,NA,0.254,0,0,0,NA,0,0,0,0,2.794,0,0,NA,0,0,0.762,0,0,0,0,0,0,0.254,0,0,0,0,0,0.254,0,0
721.4,"Palolo Fire Stn","NWS","HydroNet-UaNet","OA",59.436,21.2996006,-157.7944,"USC00517662","PFSH1","19014414",NA,NA,6.09599999999955,0,0,0,3.30200000000059,13.9699999999993,3.04799999999977,1.27000000000044,1.01599999999962,9.39800000000014,1.52400000000034,0.253999999999905,0,0,3.30199999999968,2.53999999999996,0.50800000000072,0.761999999999716,12.192,0,1.77800000000025,1.26999999999953,3.30199999999968,0.50800000000072,0,1.52399999999943,1.52400000000034,0,0,0,0
723.8,"Niu Valley","NWS","HydroNet-UaNet","OA",19.812,21.2896996,-157.7332,"USC00516865","NIUH1","1900D38C",NA,NA,13.716,0,1.26999999999998,0.254000000000019,0.254000000000019,2.28599999999994,1.52400000000011,0.253999999999905,0.508000000000038,4.31799999999998,0.254000000000019,0,0,0,2.53999999999996,0.762000000000057,1.26999999999998,0.508000000000038,4.572,0.253999999999905,2.7940000000001,0,5.07999999999993,2.03200000000004,0,3.048,1.524,0,0,0,0
724.21,"Kamehame","NWS","HydroNet-UaNet","OA",242.316,21.3085995,-157.6791,NA,"KMHH1","190046EE",NA,NA,8.12799999999999,0,0.254000000000076,0,0,0.507999999999981,0.254000000000019,0,0.253999999999962,0.507999999999981,0.254000000000076,0,0,0,4.82600000000002,0,2.03199999999993,1.27000000000004,1.77800000000002,0,1.01599999999996,0,4.572,0.254000000000019,0,1.77800000000002,1.26999999999992,0.254000000000019,0.253999999999962,0,0
724.22,"Hawaii Kai Golf Course","NWS","HydroNet-UaNet","OA",8.8392,21.2991009,-157.6644,NA,"HAJH1","183024DA",NA,NA,3.81,0,0,0,0,0.254000000000019,0,0,2.53999999999996,2.286,0,0,0,0,3.048,0,1.27000000000004,0.253999999999962,1.01600000000002,0,0.762,0,3.81,0.254000000000019,0,0.761999999999944,1.27000000000004,0,0,0,0
728.2,"PALEHUA","RAWS","RAWS","OA",722.376,21.385,-158.1041667,NA,"PLHH1","4870F55E",NA,NA,2.54000000000008,0,1.01599999999996,0.254000000000019,0.254000000000019,1.524,2.03199999999993,2.03200000000004,2.03200000000004,2.28599999999994,0.508000000000038,0.254000000000019,0,0,2.28599999999994,1.77800000000002,0,1.01599999999996,1.01600000000008,1.01599999999996,1.26999999999998,2.7940000000001,3.80999999999995,0.762000000000057,0.507999999999925,0.254000000000019,0.761999999999944,0,0.254000000000133,0,0
740.5,"Kunia","NWS","HydroNet-UaNet","OA",85.0392,21.3869991,-158.0358,NA,"KUNH1",NA,NA,NA,0.254,0,0,0,0.0482420746786714,0,1.016,0.508,2.286,1.524,0.508,0,0,0,1.27,0.762,0,0,0.508,0,0.241210373393335,0.508,1.778,0,0,0,0.279380010430116,0,0,0,0
742.4,"HONOULIULI PHB","FWS","RAWS","OA",1.524,21.35666667,-158.0205556,NA,"HOFH1","327BF39A",NA,NA,1.52399999999994,0,0,0,0,0,0,0,0,0.508000000000095,0,0,0,0,0.507999999999981,0,0,0,0.253999999999962,0,0,0,0.507999999999981,0,0,0,0,0,0,0,0
752.6,"WAIAWA PHB","FWS","RAWS","OA",1.524,21.38694444,-157.9811111,NA,"WWFH1","3274C092",NA,NA,0.253999999999905,0,0,0,0,0,0.508000000000038,1.01600000000008,0.508000000000038,1.77800000000002,1.01600000000008,0,0,0,0.253999999999905,1.52400000000011,0,0,0.507999999999811,0,0,0.253999999999905,1.0160000000003,0,0,0,0,0,0,0,0
772.3,"MoanaluaRGNo.1atalt1000","USGS","USGS","OA",304.8,21.39338889,-157.8401111,NA,"MOGH1","1689664A",NA,NA,12.954,5.334,8.128,0,5.39813537837795,7.112,10.922,0.508,2.794,0.762,11.43,4.572,0,0,2.286,8.382,4.064,1.524,6.39672277610276,2.032,12.954,8.128,24.384,5.334,2.54,12.954,12.192,0,2.286,0,0.508
772.5,"Moanalua Stream","USGS","HydroNet-UaNet","OA",72.2376,21.3736,-157.8801,"USC00516400","MOAH1","1900B66A",NA,NA,1.77800000000002,1.77800000000002,0.508000000000038,0,5.84199999999998,3.55600000000004,4.31799999999998,0.762000000000057,1.01599999999996,1.01599999999996,9.39799999999991,0,0,0,2.28600000000017,3.80999999999995,0.762000000000057,0.761999999999944,13.462,0.254000000000133,3.30199999999991,4.57200000000012,8.88999999999987,0.761999999999944,0,1.52400000000011,3.30199999999991,0,0.508000000000038,0,1.01599999999985
781.12,"Luluku","NWS","HydroNet-UaNet","OA",84.1248,21.3875008,-157.8099,NA,"LULH1","93215162",NA,NA,4.82600000000002,1.77800000000002,2.79399999999987,0,1.27000000000021,2.28599999999983,2.7940000000001,0.253999999999905,0.761999999999944,1.52400000000011,8.12799999999993,7.87400000000025,0.253999999999905,0,0.761999999999944,3.55600000000004,2.03199999999993,0.508000000000038,5.07999999999993,1.77800000000002,10.414,4.06400000000008,15.7479999999998,3.04800000000023,1.01600000000008,5.58799999999997,4.31799999999998,0.253999999999905,0.253999999999905,0,1.27000000000021
782.3,"Nuuanu Upper","NWS","HydroNet-UaNet","OA",248.412,21.3502007,-157.8184,"USC00516938","NUUH1","156097FE",NA,NA,12.192,0.254000000000133,3.80999999999972,0.254000000000133,8.63600000000019,8.1279999999997,3.30199999999991,0.254000000000133,1.77800000000002,6.85800000000017,7.11200000000008,1.26999999999975,0,0,2.28600000000029,4.06399999999985,2.53999999999974,3.30200000000036,14.7316527567654,2.03199999999993,11.1759999999999,7.61999999999989,25.9079999999999,5.58800000000042,1.01599999999985,8.12800000000016,7.54128101804218,0.254000000000133,2.28600000000006,0.253999999999678,2.28600000000006
785.4,"Manoa Lyon Arbo","NWS","HydroNet-UaNet","OA",151.7904,21.3330002,-157.8024,"USC00516128","MNLH1",NA,NA,NA,9.652,4.064,9.906,0,11.2436398483238,20.066,11.684,6.096,3.556,7.112,1.524,0.508,0,0,0,0.508,0,2.54,9.652,0,14.5505927448892,0.254,0.254,7.27529637244523,0.254,12.954,NA,1.016,3.048,1.016,3.302
787.2,"Maunawili","NWS","HydroNet-UaNet","OA",127.1016,21.3509998,-157.7668,NA,"MAUH1","19007374",NA,NA,6.85799999999995,0.254000000000133,3.80999999999995,0,1.26999999999998,4.57199999999989,0.254000000000133,0,1.52399999999989,2.28600000000006,0.253999999999905,0,0,0,0.254000000000133,1.52399999999989,3.55600000000004,1.52400000000011,12.954,0.761999999999944,9.90600000000018,1.26999999999975,22.098,6.09600000000023,1.52399999999989,11.6840000000002,11.1759999999999,0.508000000000038,2.79399999999987,1.77800000000002,0
788.2,"St Stephens Seminary","NWS","HydroNet-UaNet","OA",142.9512,21.3666992,-157.7786,NA,"STVH1","19005598",NA,NA,4.31799999999976,1.52400000000011,1.52400000000011,0.253999999999905,1.52400000000011,3.55599999999981,0.254000000000133,0,1.52399999999989,3.55599999999981,1.0160000000003,0.507999999999811,0,0,0,3.55600000000004,3.55600000000004,0.761999999999944,5.8420000000001,1.01599999999985,7.87400000000002,2.28600000000006,13.2080000000001,4.06400000000008,1.52399999999989,4.06400000000008,4.31799999999998,0,0.507999999999811,0,0.254000000000133
790.11,"Olomana Fire Stn","NWS","HydroNet-UaNet","OA",45.1104,21.3777008,-157.7507,"USC00517052","OFSH1","19011468",NA,NA,2.28600000000006,0.508000000000038,0.507999999999811,0,0,1.52400000000011,0,0,0,2.03199999999993,0,0,0,0,0,1.01600000000008,2.28600000000006,0.507999999999811,1.27000000000021,0,4.31799999999998,0.761999999999716,5.33400000000006,1.52400000000011,0.508000000000038,2.7940000000001,2.28599999999983,0,0.253999999999905,0,0
793.2,"BELLOWS AFS AT WAIMANALO","NWS","STATE","OA",6.66,21.3667,-157.717,NA,"BELH1","B14036D2",NA,NA,0.507999999999981,0,0,0,0,0,0,0,0,0,0,0,0,0,0,0,0,2.03199999999998,4.06400000000002,0,0,0,0.507999999999981,0.762,0,0,0.762,0,0,0,0
795.3,"Waimanalo Nonokio","NWS","HydroNet-UaNet","OA",20.1168,21.3356991,-157.7116,NA,"WMLH1","224185AC",NA,NA,2.54000000000019,0,0,0,0,1.77799999999979,0.254000000000133,0,0.508000000000038,0.761999999999716,0,0,0,0,1.52400000000011,0.508000000000038,0,0,0.508000000000038,0.253999999999905,1.27000000000021,0.253999999999905,6.60399999999981,1.27000000000021,0,2.03199999999993,1.77800000000002,0,0.253999999999905,0,0.254000000000133
801.1,"Waianae Kawiwi","MT VIEW DAIRY","HydroNet-UaNet","OA",19.812,21.4566994,-158.18,NA,"WAIH1","1562920A",NA,NA,0,0,0,0,0,0,0,0,0,0,0,0,0,0,0.253999999999962,0,0,0,1.52400000000006,0,0,0,0.761999999999944,0,0,0,0,0,NA,NA,0
801.2,"WAIANAE BOAT HARBOR","NWS","STATE","OA",4.25,21.4503,-158.184,NA,"WBHH1","15D13434",NA,NA,0,0,0,0,0,NA,NA,NA,NA,NA,NA,NA,NA,NA,NA,NA,NA,NA,0.508,0,0,0,0,0,0,0,0,0,0,0,0
803.2,"WAIANAE VALLEY","RAWS","RAWS","OA",291.6936,21.48055556,-158.1552778,"USR0000HWVA","WNVH1","487005DA",NA,NA,0.761999999999944,0,0.254000000000019,0,0.508000000000038,0,1.26999999999998,1.26999999999998,0.254000000000019,0.507999999999925,1.01600000000008,0,0,0,1.01599999999996,1.524,0,0,2.79399999999998,0,0,0.254000000000019,2.03199999999993,0,0,0,0.254000000000133,0,0.254000000000019,0,0
804,"Lualualei","US VY","HydroNet-UaNet","OA",35.9664,21.4211006,-158.1352,"USC00515647","LUAH1","8170406C",NA,NA,0,0,0,0,0.761999999999944,1.77800000000025,6.35000000000014,3.30199999999991,0.507999999999811,7.11200000000008,0.254000000000133,0,0,0,1.01600000000008,2.53999999999996,0.254000000000133,5.58799999999997,0.645816319999296,2.28600000000006,1.77800000000002,3.048,1.01599999999985,0,0,4.57200000000012,2.28600000000006,0,0,0,0.762000000000171
810.1,"WHEELER ARMY AIR FIELD 810.1","COOP","NWS","OA",255,21.48722,-158.02806,"USW00022508","WAFH1","B14101B2",NA,NA,0.761999999999716,0,0.253999999999905,0,0.50800000000072,2.28600000000006,4.82599999999911,6.09600000000046,0.507999999999811,4.57200000000012,2.28600000000006,0,0,0,0,1.77800000000025,0,0.507999999999811,9.14399999999932,0.254000000000815,0,2.28600000000006,4.06400000000031,0.253999999998996,0,1.52400000000034,2.79399999999987,0.254000000000815,1.26999999999953,0,1.52399999999943
820.6,"Mililani","NWS","HydroNet-UaNet","OA",226.7712,21.4638004,-157.9991,"USC00516261","MITH1",NA,NA,NA,0.320129071531948,0,0,0,2.91109575419885,5.842,4.064,5.334,1.778,3.556,1.27,0.254,0,0,1.27,1.27,0.449955645820687,0,6.36512447602713,0,1.37373766436154,5.69650092803082,5.842,0.254,0,0,2.4518530886215,0.254,0.254,0,0.254
824.2,"Waipio","NWS","HydroNet-UaNet","OA",124.968,21.4199009,-158.0058,NA,"PECH1",NA,NA,NA,0.254,0,0,0,0.314328925851974,0,1.27,2.032,0.254,2.032,0.508,0,0,0,2.032,0.254,0.140848519212957,0.422545557638873,0.762,0,0.303333145357835,2.72252771890495,2.032,0,0,0,0.508,0,0,2.032,0
828,"SCHOFIELD EAST","RAWS","RAWS","OA",381,21.49944444,-157.9933333,"USR0000HSCH","SCEH1","325AB384",NA,NA,1.27000000000044,0,0,0,4.3179999999993,6.85800000000017,6.60400000000027,7.8739999999998,0.253999999999905,20.3200000000006,14.2239999999993,0.253999999999905,0,0,1.52400000000034,6.60399999999936,1.01600000000053,1.01600000000053,38.6079999999993,1.27000000000044,2.28600000000006,9.65200000000004,11.4300000000003,1.30461015824688,0,2.79399999999987,4.31800000000021,0.762000000000626,5.58799999999974,0.253999999999905,4.82600000000002
834.13,"Waiawa CF","NWS","HydroNet-UaNet","OA",235.6104,21.4440994,-157.9669,"USC00519257","WAWH1",NA,NA,NA,0.762,0,0,0,5.35195142687057,4.826,10.414,6.096,3.302,11.43,6.858,0,0,0,5.08,5.334,1.016,3.048,9.09803737322796,1.27,2.93326655231275,11.176,13.97,2.032,0,4.318,5.334,0,1.524,0,0
835.2,"Palisades","NWS","HydroNet-UaNet","OA",261.8232,21.4298,-157.9452,NA,"PACH1",NA,NA,NA,0,0,0,0,5.05967288267085,3.556,4.572,4.826,1.778,12.7,7.874,0.254,0,0,1.778,0.762,0,2.286,9.144,0.508,3.96679653297987,7.62,24.892,1.08149365616147,0,1.778,4.23065913377903,10.16,9.652,3.556,0.508
837.12,"WAIAHOLE STREAM NEAR KAHALUU 2N","USGS","USGS","OA",4,21.48194,-157.8458,NA,"WHSH1","162B784C",NA,NA,5.58799999999997,0,1.01599999999996,0.254000000000076,0.253999999999905,0.254000000000076,NA,0,1.524,6.096,5.842,0.508000000000001,0,0,1.016,0.254,0.508000000000001,0.254,1.27,0.761999999999997,2.794,2.032,2.032,1.778,1.524,3.04799999999999,1.016,1.01600000000001,2.28599999999999,0.253999999999998,2.54000000000001
839.15,"Ahuimanu Loop ","NWS","HydroNet-UaNet","OA",74.0664,21.4319992,-157.8373,NA,"AHUH1","15CE7632",NA,NA,NA,NA,NA,NA,NA,NA,NA,NA,NA,NA,NA,NA,NA,NA,NA,NA,NA,NA,NA,0.508,2.794,3.048,17.526,5.588,0.508,5.334,2.53999999999999,0,0,0.508000000000003,1.524
839.8,"Waihee Pump","USGS","HydroNet-UaNet","OA",64.3128,21.4463997,-157.8584,"USC00519286","WPPH1","195042AC",NA,NA,4.82600000000002,1.01600000000008,5.0799999999997,0,2.28600000000029,4.82599999999979,2.7940000000001,0.254000000000133,2.79399999999987,2.53999999999996,2.53999999999996,8.12799999999993,0,0,1.52400000000011,1.52400000000011,0.253999999999905,1.01600000000008,4.06399999999985,2.79399999999987,5.08000000000015,7.87400000000002,11.1759999999999,5.33400000000006,1.26999999999998,5.07999999999993,3.30200000000013,0,0.253999999999905,0.508000000000038,0
841.2,"KUAOKALA","S&PF","RAWS","OA",267.0048,21.57027778,-158.26,NA,"KKRH1","48710720",NA,NA,0,0,0,0,0,0,0,0.762,0,0.254000000000019,1.01600000000002,0,0,0,0.761999999999944,0.508000000000038,0,0,0.507999999999981,0,0,0.508000000000038,0.507999999999981,0,0,1.01600000000002,2.03199999999998,0,0,0,0
842.1,"MakahaRainGage","USGS","USGS","OA",286.097472,21.50158333,-158.1801667,NA,"MKHH1","DD1423F8",NA,NA,2.286,0,0,0,0,0,1.01600000000008,0.761999999999944,0.762,1.77800000000002,1.524,0.254000000000019,0,0,0,4.572,0,0,3.556,0.254,0,1.27,0.761999999999999,0,0,0,1.778,0,0.254000000000001,0,0
842.8,"MAKUA RANGE","RAWS","RAWS","OA",6.096,21.52861111,-158.2261111,"USR0000HMAR","MKRH1","3266B468",NA,NA,0,0,0,0,0,0,0,0,0,0,0,0,0,0,0,0,0,0,0,0,0,0,0,NA,0,0,0,0,0,0,0
843.7,"DILLIINGHAM","RAWS","RAWS","OA",31.0896,21.57194444,-158.1986111,NA,"DLGH1","3278D278",NA,NA,0.761999999999944,0,0,0,0,0,0,1.524,0,0.508000000000038,2.28600000000006,0,0,0,0,1.77799999999991,0,0,2.28599999999994,0,0,0.508000000000152,2.79399999999998,0,0,1.01599999999996,2.03199999999993,0,0,0,0.508000000000152
855.3,"Poamoho Exp Farm","NWS","HydroNet-UaNet","OA",220.0656,21.5382004,-158.0893,NA,"POAH1",NA,NA,NA,0.744905354876425,0,0,0,0.993109117465754,0,0.762,3.81,0,0.762,3.81,0,0,0,0.508,1.778,0.275716869214175,0,3.556,0.254,0,0.762,2.794,0,0,0,1.016,0,0.148442081464494,0,0.508
858,"SCHOFIELD BARRACKS","RAWS","RAWS","OA",298.704,21.495,-158.0819444,"USR0000HSCO","SCBH1","3266A71E",NA,NA,1.52399999999989,0,0.254000000000133,0,1.01599999999996,1.01599999999996,2.03200000000004,1.26999999999998,0.254000000000019,0.761999999999944,1.01600000000008,0,0,0,0,1.01599999999996,0,0,4.31799999999998,0.508000000000038,0,2.03199999999993,2.28600000000006,0,0,1.01599999999996,2.28600000000006,0,0.253999999999905,0,0.254000000000019
884.4,"PunaluuRainGageatalt","USGS","USGS","OA",73.152,21.55644444,-157.899,NA,"PNSH1","DD989652",NA,NA,3.81000000000131,1.01599999999871,9.14400000000023,0,1.52400000000034,6.85799999999927,4.82600000000002,0.50800000000163,0,5.33399999999892,3.30199999999968,8.38200000000143,0,0,3.55599999999959,5.07999999999993,1.01600000000053,3.04799999999977,3.04799999999886,3.8100000000004,9.39800000000014,8.12800000000061,9.65199999999913,12.4460000000008,3.55599999999959,5.84200000000055,6.60399999999936,0.253999999999905,6.60400000000027,0.253999999998996,0
885.7,"OAHU FOREST NWR","RAWS","RAWS","OA",698.9,21.47747,-157.9369,NA,"OFRH1","8379F6FA",NA,NA,1.52400000000011,0.508000000000038,1.26999999999998,0,7.36599999999999,12.7,3.80999999999995,3.048,1.26999999999998,7.11200000000008,8.12799999999993,1.26999999999998,0,0,9.65200000000004,4.82600000000002,0.254000000000133,2.03199999999993,4.57199999999989,1.52400000000011,4.06399999999985,5.84199999999987,17.018,2.286,0.254000000000133,1.26999999999975,6.09600000000023,0,2.28599999999983,0,3.048
886.4,"KahanaRainGageatalt","USGS","USGS","OA",28.956,21.54041667,-157.8825556,NA,"KNRH1","17B972EE",NA,NA,2.03200000000015,0.254000000000019,9.14399999999989,0.254000000000019,3.80999999999995,8.12800000000004,7.11200000000008,0.253999999999905,0,5.8420000000001,5.84199999999987,6.60400000000004,0,0,2.28600000000006,3.80999999999995,1.52400000000011,2.03199999999993,4.06400000000008,3.30199999999991,7.36599999999999,8.88999999999987,7.11200000000008,9.90599999999995,1.26999999999998,7.62000000000012,4.31799999999998,0,4.57200000000012,1.26999999999998,0.508000000000038
886.8,"Hakipuu Mauka","RILEY W","HydroNet-UaNet","OA",8.5344,21.5067005,-157.8547,"USC00510920","HAKH1","16C69380",NA,NA,4.57200000000012,0.508000000000038,6.09599999999978,0.254000000000133,0.508000000000038,0.761999999999944,1.01600000000008,0,1.01599999999985,6.096,6.60400000000004,0.761999999999944,0,0,8.63600000000019,2.03199999999993,1.52399999999989,0.761999999999944,2.7940000000001,2.03200000000015,3.80999999999995,7.87400000000002,4.06399999999985,4.57200000000012,1.26999999999998,4.57199999999989,1.52400000000011,1.26999999999998,1.01600000000008,0.253999999999905,1.52400000000011
897.11,"KamananuiRainGageatalt","USGS","USGS","OA",219.456,21.62238889,-158.0143056,NA,"KMRH1","DD34C1E4",NA,NA,1.778,0.762,2.032,0.254,3.66994468261146,4.064,3.81,6.858,0,7.62,10.414,4.572,0,0,2.54,7.874,0.508,3.556,8.62741377293439,1.524,8.382,11.43,22.606,5.08,0.254,1.778,6.35,0,1.778,0.508,2.032
897.9,"PupukeaRdRainGageatalt","USGS","USGS","OA",353.568,21.59902778,-158.0169167,NA,"PPRH1","1713D512",NA,NA,0.508,0.508,0.508,0,5.48799133758282,6.096,8.128,9.144,0.508,16.256,12.954,1.778,0,0,1.524,7.366,1.524,4.318,11.7631422841778,1.778,4.826,8.89,16.51,2.794,0.254,2.54,3.81,0,2.54,0.508,1.016
905.22,"Punaluu Pump","NWS","HydroNet-UaNet","OA",3.9624,21.5842991,-157.8916,NA,"PUNH1","19051152",NA,NA,3.048,0,2.28599999999994,0.254000000000133,0.761999999999944,1.52399999999989,0,1.77800000000002,0,2.28600000000006,2.28599999999994,1.2700000000001,0,0,1.01599999999996,2.28599999999994,0,0.762000000000057,0.508000000000038,1.52399999999989,3.04800000000012,8.8900000000001,9.65199999999982,2.03199999999993,0.254000000000133,1.77800000000002,1.26999999999998,0.253999999999905,2.03200000000015,0,0
909,"KAHUKU TRAINING AREA","RAWS","RAWS","OA",181.6608,21.67916667,-157.9894444,"USR0000HKAH","KTAH1","325A861E",NA,NA,1.01599999999996,0.507999999999981,1.27000000000004,0,0.254000000000019,1.26999999999992,0.254000000000076,0.254000000000019,0,8.88999999999993,1.524,1.01600000000008,0,0,0,2.28599999999994,0,0.508000000000038,0.253999999999905,0.762000000000057,1.26999999999998,1.27000000000004,1.524,1.77799999999996,0,0.254000000000076,1.01599999999996,0,0.507999999999981,0,0
911.1,"KII","RAWS","RAWS","OA",1.524,21.68833333,-157.9525,"USR0000HKII","KFWH1","8375210E",NA,NA,0.254000000000019,0.253999999999962,0.254000000000019,0,0,0,0,0,0.253999999999962,2.03200000000004,0.507999999999981,0,0,0,0,1.01600000000002,0,0.253999999999962,0.507999999999981,0,0.762000000000057,1.01599999999996,0.254000000000019,1.26999999999998,0,0,0,0.508000000000038,0.253999999999962,0,0
912,"KAUHUKU 912","KUILIMA  GOLF","COOP","OA",4,21.695,-157.9811,"USC00512570","KAHH1","B1404042",NA,NA,0.762000000000171,0.507999999999356,0.508000000000266,0,0.762000000000171,1.52399999999989,0,0,0,6.09600000000046,3.80999999999949,1.01600000000053,0,0,0.761999999999716,3.30200000000013,0.253999999999905,0,0,0,0.508000000000266,1.52399999999989,0,1.01599999999962,0,0,0,0,0,0,0
926,"PORT ALLEN CAA AIRPORT","FAA","COOP","KA",9,21.89381249,-159.6010997,"USW0022526","PAKH1","B159A272",NA,NA,0,0,0,0,0,0,0,0,0,0,1.27000000000001,0,0,0,0,0,0.254000000000019,0,0,0,0,0.761999999999972,2.03200000000001,0,0,0,NA,0,0.253999999999991,0.508000000000038,0
940.3,"POIPU","NWS","STATE","KA",14.8,21.8828,-159.429,NA,"POIH1","B15997E8",NA,NA,0.254000000000133,0.507999999999811,0.761999999999944,0,1.27000000000021,4.31799999999976,0,0.762000000000171,1.26999999999998,1.01600000000008,9.65199999999982,0,0,0,4.06400000000008,2.03199999999993,0,1.26999999999998,0.254000000000133,0.253999999999905,1.52400000000011,2.53999999999996,15.4940000000001,0.253999999999905,1.01599999999985,0.508000000000038,0,1.01600000000008,4.06399999999985,0.762000000000171,0.253999999999905
946,"WAIMEA HTS","RAWS","RAWS","KA",159.7152,21.96638889,-159.6638889,NA,"WHGH1","487090B8",NA,NA,0,0,0,0,0,0,0,0,0,0,1.01600000000008,0,0,0,0.508000000000038,0.253999999999905,0,0,0,0,0,0,0.508000000000038,0,0,0,0,0,0,0,0
946.1,"WAIMEA TANK AT WAIMEA","NWS","unknown","KA",70,21.964722,-159.666944,NA,"WMTH1","1900E616",NA,NA,0,0,0,0,0,0,0,0,0,0,1.26999999999998,0,0,0,0.253999999999905,0,0.253999999999905,0,0,0,0,0,0.508000000000266,0,0,0,0,0,0,0,0
966.4,"Hanapepe","NWS","HydroNet-UaNet","KA",110.6424,21.9365005,-159.5866,NA,"HNPH1","156011EA",NA,NA,0,0,0,0,0,0.253999999999905,0,0.253999999999905,0,0,6.09600000000012,0,0,0,0,1.01599999999996,0,0,0,0,0,0.254000000000133,1.26999999999987,0,0,0,0,0.254000000000019,0.254000000000133,0,0.253999999999905
986.2,"Kalaheo","KUKUILONO GOLF COU","HydroNet-UaNet","KA",263.0424,21.9183006,-159.5265,NA,"KHEH1","1560740C",NA,NA,0,0.253999999999905,1.01600000000053,0.507999999999811,2.28600000000006,2.03199999999924,2.79400000000078,0.761999999999716,2.03200000000015,1.27000000000044,13.9699999999993,1.01600000000053,0,0,1.77799999999934,6.35000000000036,0.370659768946673,2.37843708403596,1.98558200890576,1.52400000000034,2.28599999999915,6.60400000000027,19.1424676205911,3.4731041750068,0.254,0.508,0,0.762,5.334,8.382,2.032
992.1,"Omao","NWS","HydroNet-UaNet","KA",99.9744,21.9071007,-159.4768,"USC00517116","OMAH1","195001A6",NA,NA,0.762000000000626,0.253999999999905,2.28600000000006,1.52399999999943,0.762000000000626,6.60399999999936,5.08000000000084,0.253999999999905,1.77799999999934,3.04799999999977,14.7320000000009,1.01599999999962,0,0,3.30199999999968,6.35000000000036,0,1.27000000000044,2.79399999999896,1.77800000000025,3.55600000000049,4.3179999999993,12.4460000000008,0.761999999999716,1.52400000000034,0.507999999999811,0,4.57199999999921,6.60400000000118,8.38199999999961,1.77799999999934
1020.1,"LIHUE WEATHER SERVICE OFFICE AIRPORT 1020.1","LIHUE WEATHER SERVICE OFFICE AIRPORT 1020.1","NWS","KA",45,21.98156999,-159.3422063,"USW00022536","PHLI",NA,NA,NA,1.27,0,0.508,0.508,1.81438412842294,2.032,0,0,1.016,0.508,2.286,0,0,0,6.096,0.508,0,0,0.254,1.27,0,2.032,3.302,0,0.254,0.254,0,0,5.08,1.778,2.032
1029,"MANA","RAWS","RAWS","KA",26.2128,22.02944444,-159.7622222,NA,"MNRH1","4870603C",NA,NA,0,0,0,0,0,0,0,0,0,0,0.508000000000038,0,0,0,0,0,0,0,0,0,0,0,0.761999999999944,1.016,0,0,0,0,0,2.54000000000008,0
1036,"PUU OPAE","RAWS","RAWS","KA",652.8816,22.04083333,-159.6958333,NA,"POPH1","4870734A",NA,NA,2.79399999999998,0,0,0,0,0,0,0,0.508000000000038,0.253999999999905,5.12560399594503,0,0,0,1.01599999999996,0.254000000000019,0.254000000000133,0,0,0,0,0.76199999999983,1.52400000000011,0,0,0,0,0,3.80999999999995,1.524,0
1042,"WaialaeRainGagenrWaimea","USGS","USGS","KA",1219.2,22.08972222,-159.5925,NA,"WLGH1","DDF7C28E",NA,NA,0,0.254,0.254,0,0.762,0.508,2.794,0.761999999999999,2.286,5.334,12.7,1.016,0,0,3.302,7.112,1.016,0.253999999999998,2.794,0,0.762,0.508000000000003,10.668,0.761999999999993,0,0,0,1.01600000000001,1.524,1.016,0.508000000000003
1047,"Mt.WaialealeRainGagenrLihue","USGS","USGS","KA",1569.72,22.07088889,-159.4979722,"USC00516565","WLLH1","DD5E818E",NA,NA,45.7200000000003,6.09599999999955,17.5259999999998,22.6060000000007,17.7799999999997,40.8940000000002,15.7480000000005,4.82600000000002,13.9699999999993,12.9540000000006,46.9899999999998,11.6840000000002,0.761999999999716,0,19.8119999999999,43.6880000000001,16.2559999999994,19.3040000000001,33.2740000000003,26.4160000000002,39.8779999999997,53.0860000000002,145.795999999999,38.1000000000004,28.9560000000001,9.90599999999995,4.57200000000012,4.0639999999994,52.8320000000003,43.942,10.4139999999998
1051,"NWailuaDitchRainGagenrLihue","LIHUE PLANTATION","USGS","KA",338.328,22.0625,-159.4677222,"USC00516888","WLDH1","1732B3E0",NA,NA,14.478,1.01600000000001,10.922,3.04799999999999,6.60400000000001,14.732,6.35000000000001,1.524,8.12799999999999,8.38200000000001,27.178,12.446,0.254000000000019,0,2.03200000000001,16.256,3.80999999999997,3.81,6.096,5.08000000000001,10.16,22.098,63.754,11.938,9.90600000000001,2.79399999999998,0.762000000000057,1.01599999999996,20.828,17.78,2.54000000000002
1052.3,"Waiahi Rain Gage","USGS","USGS","KA",248,22.0227,-159.4651,NA,"WIRH1",NA,NA,NA,22.606,0.508,4.826,4.064,NA,10.668,5.08,0.254,6.096,1.524,17.272,5.842,NA,0,5.588,12.954,4.826,5.334,NA,4.826,6.858,14.478,52.578,7.366,6.35,NA,NA,NA,NA,NA,NA
1059,"Lihue Variety Stn","NWS","HydroNet-UaNet","KA",117.0432,22.0240002,-159.3868,NA,"LIHH1","1561501A",NA,NA,12.7,0.507999999999811,4.57199999999989,0.508000000000266,4.57199999999989,3.048,1.01599999999985,0.508000000000266,4.06399999999985,1.52400000000011,9.90599999999995,0,0,0,3.048,8.12799999999993,0.253999999999905,4.57200000000012,2.28600000000006,3.30199999999991,2.7940000000001,8.63599999999997,27.6859999999999,6.096,3.048,1.01600000000008,0,0.761999999999944,5.07999999999993,3.81000000000017,1.01599999999985
1060,"Wailua UH Exp Stn","NWS","HydroNet-UaNet","KA",158.1912,22.0660992,-159.396,"USC00519475","WUHH1",NA,NA,NA,8.30093793378025,1.508110609278,4.826,0.762,3.31025844777546,2.54,1.016,0,5.588,0.508,14.986,0.254,0.0553291584553266,0,3.81,18.034,1.27,3.6374878687353,2.3807312373924,2.27639587406708,4.90373555962239,11.7155317448809,43.18,10.668,4.4974625896789,1.016,0.16598747536598,0,9.216241813179,8.78625445270735,0.254
1061.5,"Wailua UH Exp Stn","NWS","HydroNet-UaNet","KA",158,22.066,-159.3962,NA,"WUHH1","15C163D6",NA,NA,11.176,2.79399999999998,7.62,0.761999999999944,4.06400000000008,2.53999999999996,1.01599999999996,0,5.58800000000008,0.508000000000038,14.986,0.253999999999905,0,0,3.80999999999995,18.0340000000001,1.2700000000001,6.09599999999978,2.28600000000017,2.53999999999996,5.84199999999998,14.9860000000001,45.4659999999999,10.6679999999999,5.08000000000004,1.01600000000008,0,0,10.1599999999999,10.6680000000001,0.253999999999905
1069,"PUU LUA","RAWS","RAWS","KA",1021.08,22.08916667,-159.6791667,NA,"PLRH1","487083CE",NA,NA,0,0.761999999999944,0,0,0,0,0,0,0.507999999999811,0,7.11200000000008,3.80999999999995,0,0,0,0.762000000000171,0,0,0,0,0,3.048,1.01600000000008,0,0,0,0,0,2.28599999999983,0.508000000000038,0
1074,"MAKAHA RIDGE","RAWS","RAWS","KA",544.9824,22.13055556,-159.7152778,"USR0000HMAH","MKAH1","3286026C",NA,NA,1.01600000000008,0,0,0,0,0,0,0,0,1.01599999999996,8.12800000000004,0.507999999999925,0.254000000000133,0,0,0.253999999999905,0,0,0,0,0,0,1.77800000000002,0,0,0,0,0,0.507999999999925,4.31799999999998,0
1076,"Kokee","NWS","HydroNet-UaNet","KA",1279.2456,22.1485996,-159.6448,NA,"KOKH1","1900E616",NA,NA,0,0,0,0,0,0,0,0,0,11.1004158078811,1.26999999999998,0,0,0,0.253999999999905,8.58385376166073,0.253999999999905,0,0,0,0,0,0.508000000000266,0,0,0,0,0,5.51061548432077,0,0
1082,"WaiakoaliRainGagenrWaimea","USGS","USGS","KA",1042.416,22.1245,-159.6220833,"519130","WKRH1","17B79574",NA,NA,0,0,0,0,0.575596334605256,0.508,1.016,1.016,2.286,6.604,4.064,0.762,0.0355581238383674,0,3.302,7.112,0.508,0,0.937101806886248,0.254,1.016,0.508,7.62,0.508,0,0,0,1.016,2.54,1.524,0
1083,"MoCrsgRainGagenrWaimea","USGS","USGS","KA",1042.416,22.11708333,-159.6009722,"USC00516433","MCRH1","D109224A",NA,NA,0,0.254,0,0,0.56981316750756,0.508,1.778,0.508,3.556,6.858,7.366,8.128,0.0352008620570205,0,2.794,7.112,1.016,0.254,1.77732657806328,0.254,1.27,1.016,10.414,0.762,0,0.254,0.254,1.27,4.064,1.778,0.508
1084,"KilohanaRainGafenrHanalei","USGS","USGS","KA",1219.2,22.15408333,-159.5946111,"USC00514610","KLOH1","DDCC972A",NA,NA,1.77800000000025,1.26999999999953,0.508000000000266,0.762000000000171,2.2859999999996,3.30200000000059,3.80999999999949,5.33400000000029,10.6680000000001,48.2599999999998,17.7800000000002,3.04799999999977,0.253999999999905,0.25400000000036,4.82599999999957,28.194,2.54000000000042,4.06399999999985,5.90745114789424,5.33400000000029,9.90599999999995,8.12800000000016,65.5319999999997,11.9380000000001,3.80999999999995,1.26999999999998,0.508000000000266,4.3179999999993,24.1300000000006,9.90599999999949,1.52400000000034
1094.2,"Kapahi","NWS","HydroNet-UaNet","KA",158.496,22.1021004,-159.3856,"USC00513171","KPIH1","15608488",NA,NA,6.35000000000218,0.761999999998807,5.84200000000055,0.761999999998807,5.08000000000175,4.28479180410045,1.7894593529759,0.251808771119099,5.41438888252339,1.7550763111449,15.409367816324,2.24150233246753,0.0629521927797796,0,3.11170555308254,15.8255067099095,1.55484210277236,4.13864667274166,1.778,2.54,5.588,12.7,47.244,7.61999999999999,5.58800000000001,1.27,0,0.762000000000015,10.16,4.82599999999999,0
1111.4,"Anahola","HAWN FRUIT PACKERS","HydroNet-UaNet","KA",75.2856,22.1373997,-159.312,NA,"ANHH1","1560029C",NA,NA,2.79399999999998,0,2.03200000000015,0,3.30199999999979,0.508000000000152,0.253999999999905,0,0.254000000000019,0,5.33399999999995,8.63600000000008,0,0,0.507999999999925,2.79399999999998,1.77800000000002,1.77800000000002,0.508000000000038,0.508000000000152,1.77799999999979,5.8420000000001,23.1139999999999,2.03200000000015,1.01599999999996,0.762000000000057,0,0.507999999999811,3.30200000000013,3.30199999999991,0
1115.1,"PH Wainiha","NWS","HydroNet-UaNet","KA",35.052,22.1959991,-159.5563,NA,"WNHH1","15C03150",NA,NA,NA,0.762,1.01600000000002,1.01599999999996,2.03199999999998,1.27000000000004,1.01599999999996,0.254000000000019,4.31799999999998,4.06400000000002,19.304,8.38199999999995,0,0,0.762,14.224,2.03200000000004,1.77800000000002,11.938,2.53999999999991,5.0800000000001,7.11199999999991,51.054,6.096,0,0.507999999999925,0,2.28600000000017,9.39799999999991,2.54000000000008,1.26999999999998
1117.8,"Hanalei","NWS","HydroNet-UaNet","KA",4.8768,22.1982002,-159.4951,"USC00513386","HNIH1","B159849E",NA,NA,4.82599999999996,1.524,2.286,1.01600000000002,7.62,1.77800000000002,1.26999999999998,1.524,2.286,6.096,16.002,4.82600000000002,0,0,0.507999999999981,5.84200000000004,2.28599999999994,3.81,5.58799999999997,2.286,9.14400000000006,10.414,35.3059999999999,3.55600000000004,3.81000000000006,0.761999999999944,0.254000000000019,2.79399999999998,13.208,5.58799999999997,1.2700000000001
1117.9,"PRINCEVILLE AIRPORT NEAR KILAUEA 4W","NWS","STATE","KA",88.497,22.2114,-159.443,NA,"PRIH1","15D696F8",NA,NA,4.06400000000008,0,1.52399999999989,1.52400000000011,4.06399999999985,3.30200000000013,1.01600000000008,0,1.26999999999975,1.52400000000011,12.954,6.85800000000017,0,0,1.26999999999975,3.04800000000023,2.03199999999993,4.57200000000012,2.03199999999993,1.26999999999975,3.55600000000004,6.09600000000023,19.8119999999999,1.77800000000002,2.28599999999983,1.0160000000003,0,0.507999999999811,7.87400000000002,5.07999999999993,1.27000000000021
1146,"Moloaa Dairy","RAWS","RAWS","KA",85.344,22.18333333,-159.3375,"USR0000HMOL","MLDH1","AAB6D15A",NA,NA,0.254000000000133,2.03199999999993,1.01600000000008,0.508000000000038,1.01600000000008,1.52399999999989,0.508000000000038,0,0.761999999999944,1.26999999999998,5.33400000000006,7.11200000000008,0,0,3.55600000000004,1.26999999999975,0,2.28600000000006,0.508000000000038,2.28600000000006,3.55600000000004,4.31799999999976,13.7160000000001,1.77800000000002,0.761999999999944,1.77800000000002,0,2.53999999999996,4.31800000000021,5.0799999999997,0.508000000000266
54.8,"Nahuku 0201","HiMesonet","HavoNet","BI",1202,19.415215,-155.238394,NA,"004HI",NA,NA,NA,0.81770310931819,0.272059254469499,0.938110976031943,0.5063543968578,0.573348745089246,2.90143112665656,3.51613924286383,6.27145253808971,3.48160521406026,0.503498019262815,2.65741900750465,0,0,0,1.53364305179444,1.55571471553013,0.224280192378726,92.9544550046789,77.4676886298434,2.12271950208333,0.346663833882562,0.703183400410863,0.668573639170719,0.399370762296226,1.2993831662602,1.46842775088762,0.334453434635391,1.05080613589686,0,2.69540178697235,2.11155670809516
87.9,"IPIF","HiMesonet","HIPPNET","BI",112,19.69748,-155.0954,NA,"005HI",NA,NA,NA,0.656269815298157,0.914537987411456,2.6702662130562,2.69956708577407,0.554299906140483,4.68283853083129,6.01002859778654,10.5037058683571,4.46380838869331,1.04661445203211,4.30537208113338,0.288296786134274,0,1.68927833899111,4.31166917236157,1.36962442623641,1.1881843371868,60.8851900811773,70.8639488500722,4.3871687428258,0.502719502473561,4.6272419799344,7.30522936420175,3.1686076222781,5.67996508599852,4.19949572730825,6.34160802342444,4.3446101111087,0.288296786134274,4.57936660024865,2.50142030646296
93.13,"Mamalahoa","HiMesonet","HIPPNET","BI",603,19.80258,-155.850629,NA,"009HI",NA,NA,NA,0,0,0,0,1.10950417244086,0,0,0,0,6.93440107775478,1.38688021555088,0,0,0,0,0,0,0,0,0,0,0,0,0,0,0,0,0,0,0,0
127.5,"Laupahoehoe","HiMesonet","HIPPNET","BI",1152,19.93217,-155.29129,NA,"007HI",NA,NA,NA,0.649790080357908,0.092827154336844,2.16880646843138,2.4758138448976,1.45776318303565,3.23491828060806,12.0980363343302,9.8707172657622,3.25811746455454,2.42833283907601,4.90512817906805,0,0.291552636607134,0.295372422352515,1.77568392055786,0.601976040492888,1.44308019307808,121.699129731922,181.683426191466,4.36720867673206,4.1829629605657,2.57808318327605,6.38832893398679,2.03801121659671,8.98344932069109,5.97067986151439,12.7703947645506,1.61184354240978,0.147686211176125,6.13944321084583,2.31861472539781
132.2,"Spencer","HiMesonet","HIPPNET","BI",469,19.96358,-155.25014,NA,"006HI",NA,NA,NA,0.658308959313753,0.980168988401297,5.59405188867931,2.50827226354608,5.34473568552082,3.35418961360564,14.3868364503116,14.5935219138474,6.81595248935151,7.52299054547342,5.75837188378531,0.886124851356475,0.295374950452161,1.62843209139348,2.20661263389032,4.9696657514586,4.41574876986626,102.295521969299,126.107817941821,11.3657749985704,4.27702063036005,10.0700998724859,15.1856422525831,4.57541703336734,16.6332853889433,15.0578926670216,14.3882650644896,2.37141251234044,0.371153620018381,9.39521326645657,2.39045984751843
279,"POHAKAU PALAHA HN-161","HiMesonet","HaleNet","MA",2460,20.730574,-156.141316,NA,"043HI",NA,NA,NA,0.295926144322497,0.998750737088314,0.776806128846473,0,2.36740915457979,1.84006301876096,8.44308908130293,3.15520063138447,1.37415109147064,1.66788016620131,2.50191413421097,0.739815360806178,0,0.920754086756478,0.740913895601992,1.25988318296221,1.55361225769301,30.9991855723121,77.4983847010565,1.88652917005581,1.43394053936116,1.77555686593479,2.43354601622856,0.147963072161182,0.665833824725587,3.32916912362786,0.887778432967361,0.40689844844345,0,1.36865841749147,1.33496325383842
324.6,"KULA AG HN-119","HiMesonet","HaleNet","MA",964,20.757889,-156.320028,NA,"001HI",NA,NA,NA,0,0,0,0,0,0,0,0,0,0,0,0,0,0,0,0,0,0,1.615237216687,0.269206202781568,0,3.49968063615508,0,0,0,0,0,0,0,0,0
339.5,"NENE NEST HN-152","HiMesonet","HaleNet","MA",2593,20.738194,-156.245833,NA,"013HI",NA,NA,NA,0,0,0,0,0,0.140619314531657,0,0,0,0,0.281238629063377,0,0,NA,0,0,0,0,0.421857943595003,0,0,0,0,NA,0,0,0,0,0,0,0
339.6,"SUMMIT HN-153","HiMesonet","HaleNet","MA",2984,20.710361,-156.25675,NA,"003HI",NA,NA,NA,0,0,0,0,0,0.155053697900534,0,0,0,0,0.310107395801138,0,0,NA,0,0,0,0,0.465161093701638,0,0,0,0,NA,0,0,0,0,0,0,0
489,"Haiku","NWS","HydroNet-UaNet","MA",99.3648,20.9288998,-156.3225,"USC00510822","AIKH1","50A30568",NA,NA,0,0,0.766405420583757,0,1.53281084116752,1.53281084116752,3.06562168233517,3.83202710291879,0.766405420583757,5.36483794408644,3.06562168233505,0,0,NA,2.29921626175141,3.0656216823349,0,3.83202710291894,13.028892149924,1.53281084116765,2.29921626175127,1.07296758881728,2.68241897204319,0.153281084116754,0.536483794408638,1.76273246734267,1.76273246734267,0,0,0,0.613124336467015
705.12,"Aloha Tower","NWS","HydroNet-UaNet","OA",38.1,21.3034,-157.8627,NA,"ALOH1",NA,NA,NA,1.799843091987,0,0,0,1.79269252596527,3.79223418954104,0.827396550445297,0.344748562685686,0.27579885014835,4.14668926593367,0.413698275222772,0.0689497125370876,0,0,0.896346262982386,1.12464709866033,0.137899425074422,0.206849137611263,3.30958620178144,0,0.482647987759861,0.344748562685439,1.04139625407879,0.137899425074422,0,0.413698275222525,0.413698275222772,0,0.145049991096404,0,0
842.9,"MAKUA RIDGE","RAWS","RAWS","OA",533.4,21.54277778,-158.1988889,"USR0000HMRG","MKGH1","3266C2F8",NA,NA,NA,0,0,0,NA,0,1.03186619044908,5.1593309522454,0,1.03186619044908,5.1593309522454,0,NA,0,0.68791079363272,2.40768777771452,NA,0,4.81537555542904,0.34395539681636,NA,1.03186619044908,3.78350936497996,0,0,0,1.37582158726544,0,NA,0,0.68791079363272
