"SKN","Station.Name","Observer","Network","Island","ELEV.m.","LAT","LON","NCEI.id","NWS.id","NESDIS.id","SCAN.id","SMART_NODE_RF.id","X2019.05.01","X2019.05.02","X2019.05.03","X2019.05.04","X2019.05.05","X2019.05.06","X2019.05.07","X2019.05.08","X2019.05.09","X2019.05.10","X2019.05.11","X2019.05.12","X2019.05.13","X2019.05.14","X2019.05.15","X2019.05.16","X2019.05.17","X2019.05.18","X2019.05.19","X2019.05.20","X2019.05.21","X2019.05.22","X2019.05.23","X2019.05.24","X2019.05.25","X2019.05.26","X2019.05.27","X2019.05.28","X2019.05.29","X2019.05.30","X2019.05.31"
2.1,"KAHUKU MAUKA","COOP","COOP","BI",957,19.1089,-155.7467,"USC00512566",NA,NA,NA,NA,0,0,0,0,7.16397942495734,0,0.868361142419072,0,0,1.41108685643099,0.868361142419072,6.94688913935258,0,0,0,8.79215656699311,0,0,0,0,0,0,0,0,3.90762514088582,0,0,0,4.66744114050251,5.53580228292158,0.868361142419072
2.32,"SOUTH KONA 2 2.32","COOP","COOP","BI",647,19.10778,-155.78944,"USC00518652",NA,NA,NA,NA,0,0,0,0,6.6,0,0.8,0,0,1.3,0.8,6.4,0,0,0,8.1,0,0,0,0,0,0,0,0,3.6,0,0,0,4.3,5.1,0.8
2.36,"KAPUA 2.36","COOP","COOP","BI",533,19.14472,-155.84944,"USC00513376",NA,NA,NA,NA,0,0,0.8,0,6.6,0,0,0,0,0,0,8.6,7.1,0,5.8,0,0.5,0,0,0,3.3,0,0,0,0,0,13.7,0,3.3,8.1,0
3.22,"HAWAIIAN OCEAN VIEW 4.7 NNE","HAWAIIAN OCEAN VIEW 4.7 NNE","CoCoRaHS","BI",1273,19.135,-155.747,"US1HIHI0035",NA,NA,NA,NA,0.5,3,2,0,5.3,0,0,2.8,0,0.8,2.8,0,8.6,2.8,16.5,0,2,0,0,0.5,0.5,2.8,0,0,0,5.3,0.8,0.5,10.9,10.7,5.8
3.9,"LOWER KAHUKU CS","LOWER KAHUKU CS","RAWS","BI",953.7192,19.10083333,-155.6697222,NA,"LKHH1","32D620C2",NA,NA,1.80000000000001,1.19999999999999,2.10000000000002,1.79999999999998,0,0,2.5,0.300000000000011,2.5,0.799999999999983,0,2,10.7,12.4,3.79999999999998,0,0,0,0,2.80000000000001,0.5,0,6.09999999999999,11.7,2.30000000000001,5.59999999999999,4.30000000000001,4,1.59999999999999,19,6.59999999999999
4.12,"NAALEHU 4.6 WSW","NAALEHU 4.6 WSW","CoCoRaHS","BI",391,19.0424,-155.6354,"US1HIHI0001",NA,NA,NA,NA,0,0,0,0,3.6,0,0,0,0.5,1.8,0,0,0,2.3,12.4,0.5,0,0,0,0.3,2,2.8,2.5,10.4,0.8,5.8,6.9,5.3,2,9.4,1.5
4.13,"NAALEHU 5.0 WSW","NAALEHU 5.0 WSW","CoCoRaHS","BI",436,19.0424,-155.643,"US1HIHI0010",NA,NA,NA,NA,0,0,0.725110361048138,0,3.10357006812419,0,0,0,0.722335047660518,1.71911819430397,0,0,0,1.43745428051322,8.96716288104844,0.27611328701551,0,0,0,0.165667972209306,1.6622303488683,5.95267429365631,1.38056643507755,12.548038219759,1.83622426124047,3.37024728962179,8.77458044798975,7.16590756849198,3.67022827177084,9.03959248145478,1.10722846144966
4.14,"NAALEHU 4.7 WSW, HI US","CoCoRaHs","CoCoRaHs","BI",393.18,19.0421,-155.6371,"US1HIHI0057",NA,NA,NA,NA,0,0,0,0,2.5,0,0,0,0.8,2,NA,NA,0,2.8,11.7,0,0,0,0,0.5,NA,1.5,2.8,7.9,0,7.1,4.3,6.4,2,8.4,1.5
4.15,"SOUTH POINT NEAR NAALEHU 12SSW","NWS","STATE","BI",295.78,18.9928,-155.668,NA,"SOPH1","B1507246",NA,NA,1.524,0,0,7.874,0.507999999999996,0.254000000000001,2.286,0.507999999999999,0.253999999999998,0,0.254000000000001,0.507999999999999,1.016,1.524,0,0,0,0,0,0.508000000000003,0.761999999999993,0,2.794,1.524,0,3.30199999999999,0,2.794,1.01600000000001,1.26999999999999,0.508000000000003
5.1,"Kamaoa Puueo 5.1","COOP","COOP","BI",317,19.01361,-155.66194,"USC00513054",NA,NA,NA,NA,0,0,1.02944027692287,0,1.58375427218903,0,0,0,0.633501708875611,1.02944027692287,0,0,0,0.237563140828354,3.00913311715915,0,0,0,0,0,0.791877136094513,6.25582937514665,0,9.66090106035306,1.97969284023628,0.237563140828354,7.04770651124117,6.0182662343183,3.64263482603476,5.46395223905214,0.395938568047257
6,"KIOLAKAA A&F 6","STATE DIV FTRY","COOP","BI",587,19.07032619,-155.6355484,"USC00514625",NA,NA,NA,NA,0,0,1.49044974984299,0,2.29299961514306,0,0,0,0.917199846057224,1.49044974984299,0,0,0,0.343949942271459,4.35669926877181,0,0,0,0,0,1.14649980757153,9.05734847981509,0,13.9872976523727,2.86624951892883,0.343949942271459,10.2038482873866,8.71339853754363,5.27389911482904,7.91084867224356,0.573249903785765
6.2,"NAALEHU 5.7 W","NAALEHU 5.7 W","CoCoRaHS","BI",679,19.0732,-155.6632,"US1HIHI0012",NA,NA,NA,NA,0,1.3,1.8,0.3,5.1,0,0,1.8,1,7.4,1,0,0,3.3,17.8,1,0,0.3,0,0,1.5,1.3,0.8,6.4,5.1,9.4,12.7,4.3,1,2,17.3
9.2,"Nene Cabin","Nene Cabin","RAWS","BI",710.4888,19.34805556,-155.1258333,NA,"AHMH1","32D64524",NA,NA,0.77,3.04,0.259999999999998,0,0,0,0,0,0,0,0,2.28,1.52999999999999,3.81,0,0,0,0,0.25,2.8,0.25,0,0,3.05,0,4.32,0.5,0,1.02,1.02,1.52
12.15,"SEA MOUNTAIN 12.15","SEA MOUNTAIN","COOP","BI",21,19.13310292,-155.5152744,"USC00518600",NA,NA,NA,NA,0,0,20.1,0,0,0,0,0,0,0,0,0,0,0,0,0,0,0,0,0,0,0,4.8,0,0,0,0,5.8,0,2.5,0.431834875039286
14,"NAALEHU 14","KAU SUGAR","COOP","BI",206,19.06032754,-155.5855501,"USC00516588",NA,NA,NA,NA,0,0,1.3,0,2,0,0,0,0.8,1.3,0,0,0,0.3,3.8,0,0,0,0,0,1,7.9,0,12.2,2.5,0.3,8.9,7.6,4.6,6.9,0.5
21,"Pahala","KAU SUGAR","HydroNet-UaNet","BI",346.8624,19.2042999,-155.4872,"USC00517421","PPLH1","B16084B2",NA,NA,0,12.446,6.096,0,0,1.016,0.508,8.128,2.286,0.254,0,0,2.54,16.51,3.556,0,0,0,0,0.508,11.176,0.254,0,0.762,1.524,12.7,1.016,4.064,11.43,1.016,0
21.3,"PAHALA MAUKA 21.3","COOP","COOP","BI",332,19.20667,-155.48861,"USC00517437",NA,NA,NA,NA,0,0,13.2,0,0.769229999477027,0.474800080377759,0,1.3,7.1,0,0,0,1.1870002009444,4.8,16,3.6,0,0,0,0.237400040188879,0.8,11.7,0.5,0.8,1.67373761991292,6.05038550464354,3.89787357805053,7.40516783672802,7.11072990304695,4.24195974978224,0.288461249803885
21.4,"HAWAIIAN OCEAN VIEW 1.7 NNE, HI US","CoCoRaHs","CoCoRaHs","BI",733.03,19.0908,-155.7552,"US1HIHI0059",NA,NA,NA,NA,0.5,0,0.3,0,6.1,0.5,0,2.5,0,0.8,2.5,0,7.9,1.8,17.8,1.3,0.5,0,0,0,0,2.8,0,0,0.5,3.6,0,0,0,5.3,5.3
23,"KAHUKU","RAWS","RAWS","BI",1796.4912,19.23222222,-155.78,NA,"KRCH1","32639544",NA,NA,4.30000000000001,0.799999999999955,0.300000000000011,1.69999999999999,6.60000000000002,0,0.5,0.300000000000011,0,2,0.300000000000011,6.09999999999997,1.80000000000001,4.80000000000001,3.5,0.800000000000011,0,0.299999999999955,4.5,1,2.30000000000001,1,1.30000000000001,3.10000000000002,2.5,19.1,8.30000000000001,5.10000000000002,3.29999999999995,1.80000000000001,1.80000000000001
24.1,"OPIHIHALE 2 24.1","TRUMAN LORNA","COOP","BI",396,19.27032215,-155.8738768,"USC00517166",NA,NA,NA,NA,0.8,7.6,7.9,0.5,9.4,0.8,0,0,0,1,5.6,0,0,0,0,1,10.4,0,0,1.5,2.8,0.5,4.6,1,0.8,0,4.1,24.6,1.3,7.9,0
26.2,"KEALAKEKUA 26.2","GREENWELL ESTATE","COOP","BI",442,19.48975723,-155.9122125,"USC00513977",NA,NA,NA,NA,0.117243265760852,0,28.7,0.8,7.97254207173791,0,1.05518939184767,0,0,0.937946126086813,0,0,0.70345959456511,2.31079215529142,6.70888813237896,2.5,3,0,3.98627103586896,3.3960291191071,17.4579426744504,3.51327238486795,0.5,0,0,5.84515325872457,34.2154313294401,13.8347053597805,11.1661450252701,2.77248688237592,0
27,"HONAUNAU 27","TANAKA S","COOP","BI",332,19.4403158,-155.8788789,"USC00511665",NA,NA,NA,NA,0,2.3,4.3,0.8,NA,NA,0,0,8.1,0,0,NA,NA,0.8,10.4,8.1,1,8.6,NA,5.6,9.9,5.6,6.1,2.5,5.1,8.8111564661895,18.5115122087834,NA,7.6,5.1,0
27.6,"Honaunau No. 2","NWS","HydroNet-UaNet","BI",398.0688,19.4629002,-155.8824,NA,"HAUH1","15D12742",NA,NA,0.762,7.112,0,0,12.192,0,2.032,0,0,1.27,0,0,0.762,7.62,3.81,6.858,0.508,1.016,7.112,0.508,2.286,0,1.27,2.032,21.844,5.588,22.606,5.334,12.446,0,1.016
28,"NAPOOPOO 28","KONA EXP STATION","COOP","BI",122,19.46864784,-155.9055458,"USC00516697",NA,NA,NA,NA,NA,0,18.5345875012472,0.516643554041734,NA,NA,NA,NA,0,NA,NA,NA,NA,NA,NA,1.61451110638042,1.9374133276565,0,NA,NA,NA,NA,0.322902221276084,0,3.23527810750326,6.18675988978693,12.9978716950569,NA,NA,NA,0.368935222785459
29.12,"Kealakekua","NWS","HydroNet-UaNet","BI",537.972,19.5181007,-155.9159,NA,"KLEH1","81708572",NA,NA,0.254,19.304,1.524,0.254,8.636,0,2.286,0,0,2.032,0,0,0.762,4.064,2.286,0.762,0.254,2.032,4.318,0.762,26.162,1.016,0,1.524,19.558,2.286,52.324,14.986,15.24,0,2.286
34,"Kapapala Ranch","NWS","HydroNet-UaNet","BI",638.556,19.2754993,-155.4514,"USC00513300","KAYH1","B16097C4",NA,NA,0,16.256,7.874,0.508,0,4.826,1.016,9.652,6.35,0,0,2.032,1.016,7.366,1.778,0.254,0,0,0,3.81,3.302,0.508,1.016,1.27,2.032,6.096,10.922,3.048,6.604,0,0
36.3,"KAPAPALA RANCH","KAPAPALA RANCH","RAWS","BI",1081,19.25811,-155.441781,NA,"KPRH1","AA10E258",NA,NA,0,8.60000000000002,5.10000000000002,0.199999999999989,0,5.89999999999998,1,15,3,0,0,0.5,1.10000000000002,8.09999999999997,1,0,0.300000000000011,0,0,0.199999999999989,0.5,0.5,0,1,0,2.30000000000001,8.19999999999999,3.5,3.60000000000002,0,0
38.9,"KAELAKOMO","KAELAKOMO","RAWS","BI",29.5656,19.29277778,-155.1075,NA,"KMOH1","32807432",NA,NA,0,0,1.29999999999995,0.5,0,0,0,0,0,0,0,0,0,0,0,0,0,0,0.5,2.54000000000008,3.55599999999993,0,3.5,4.572,0,2.29999999999995,2.80000000000001,9.39800000000002,0,4.59999999999997,1
39,"Mauna Loa Observatory","NWS","ESRL/GMD","BI",3397,19.5362,-155.5763,"USC00516198","MOBH1",NA,NA,NA,0,0,1.3,NA,NA,NA,0,0,0,0,NA,NA,NA,0,0,0,0,NA,NA,NA,0,0,0,0,NA,NA,NA,NA,2.3,0,0
39.1,"Mauna Loa Upper","NWS","STATE","BI",3341,19.53863295,-155.5722206,NA,NA,NA,NA,NA,0,0,1.01780190386675,NA,NA,NA,0,0,0,0,NA,NA,NA,0,0,0,0,NA,NA,NA,0,0,0,0,NA,NA,NA,NA,1.80072644530272,0,0
39.2,"MAUNA LOA 5 NNE","MAUNA LOA 5 NNE","USCRN","BI",3398,19.5354,-155.576,"USW00021514","MLBH1","CD07379A",NA,NA,0,0.7,0,0,0,0,0,0,0,0,0,0,0,0,0,0,0.7,0,0,0,0,0,0,0,0,0,0,2.2,0,0,0
43.3,"PUHE CS","PUHE CS","RAWS","BI",34.126,20.025,-155.8211111,NA,"PHRH1","32D61558",NA,NA,0,0,0,0,0,0,0,0,0,0,0,0,0,0,0,0,0,0,0,0,0,0,0,0,0,0,0,0,0,0,0
47,"KEMOKU LAVA FLOW","RAWS","RAWS","BI",1706.88,19.47555556,-155.3627778,"USR0000HKEA","KKUH1","FA4447E8",NA,NA,0,24.13,3.81,14.224,1.26999999999995,NA,3.30199999999999,3.55600000000001,1.27000000000001,0,0,0.253999999999991,0,0,0,0,0,0,0,0,5.07999999999998,0.253999999999991,0,1.77800000000002,0,2.53999999999999,5.84200000000001,9.39800000000002,0,0.253999999999991,0.507999999999981
48,"PALI 2","RAWS","RAWS","BI",847.344,19.3175,-155.2922222,"USR0000HPAL","PLIH1","FA900222",NA,NA,0,7.09999999999997,10,2.20000000000005,0,9.19999999999993,1,1.30000000000007,0,0,0,0,0,0,0,0,0,0,0,0,1.19999999999993,0,1.10000000000002,0.5,0,0,4,3.60000000000002,0.700000000000045,0,0
49,"KEAUMO","RAWS","RAWS","BI",1682.496,19.47361111,-155.3588889,"USR0000HKMO","HKMO",NA,NA,NA,0,24.1,4.09999999999999,14,1.70000000000002,3.40000000000001,3,3.79999999999998,1,0,0,0.300000000000011,0,0,0,0,0,0,0,0,5.09999999999999,0.199999999999989,0,1.80000000000001,0,2.5,5.90000000000001,9.40000000000001,0,0.199999999999989,0.5
54,"HAWAII VOLCNS NP HQ 54","HAW VOL NATL PARK","COOP","BI",1210,19.429741,-155.257146,"USC00511303",NA,NA,NA,NA,0.447094639266036,5.1240970728185,1.3284856932857,3.28357328852065,1.2948847975815,3.71366535621817,1.4205191898798,2.55292372833871,1.70767957832197,1.12378622901061,2.06197597715479,6.90226828607067,0.534543973363093,3.63100979995408,2.87472244172162,0.505294782409265,0.197397503793061,0,0.280286237042959,0.924541679740193,7.08807678427412,0.775941946768253,3.52662255393125,10.9422512053574,2.19072889149501,13.1249343011473,6.4281757487611,9.34566435601139,3.32020146102869,5.99924802758471,13.4456298042759
54.2,"Glenwood","HELBUSH XL","HydroNet-UaNet","BI",802.2336,19.5076008,-155.1707,"USC00510744","GLNH1",NA,NA,NA,0.254,8.382,0.254,0.254,1.016,0.762,1.524,1.016,0.254,0,1.016,3.302,0.254,3.048,4.572,1.016,0,0,0.254,1.778,7.366,0.762,7.62,18.288,4.572,26.416,2.286,18.288,11.176,11.938,27.94
54.8,"Thurston","Thurston","HavoNet","BI",1202,19.41528,-155.23833,NA,NA,NA,NA,NA,0,1.27,1.27,8.382,0,6.604,2.54,2.794,0.508,0.254,0.508,1.016,0.254,1.27,2.032,0,0,0,0,0.762,4.572,0.508,4.826,10.668,0.762,11.43,2.54,6.604,3.49904145287634,5.842,10.16
54.9,"Ola a","Ola a","HavoNet","BI",1040,19.47833,-155.215,NA,NA,NA,NA,NA,0.538917553281075,6.17646827926939,1.6013259755692,3.95794341344293,1.56082423184288,4.47636645960078,1.71226102700667,3.0772353067084,2.05839752775414,1.35458596851795,2.48545822503452,8.31983479588399,0.644326961108045,4.37673536086951,3.46512404442623,0.609070661792613,0.23793839251257,0,0.337850557397693,1.11442119004134,8.54380406868722,0.935302503575037,4.25090938515949,13.1895369102585,2.64065401465068,15.8204927085702,7.74837459977177,11.2650479925144,6.88585994844181,7.23135503002189,16.2070516621243
55.3,"VOLCANO 4.4 S","VOLCANO 4.4 S","CoCoRaHS","BI",1158,19.4338,-155.2417,"US1HIHI0040",NA,NA,NA,NA,NA,NA,NA,NA,NA,NA,NA,NA,NA,NA,NA,NA,NA,NA,NA,1.8,0,0,0,0.5,NA,NA,NA,NA,NA,1.8,NA,NA,NA,NA,NA
55.4,"GLENWOOD NO 2 55.4","COOP","COOP","BI",671,19.52194,-155.14389,"USC00510746",NA,NA,NA,NA,3.52786782080556,7.56007115486918,1.8922906056742,1.28432221504169,12.1936599992861,0.579290695565357,1.2022282717601,0.600909330062586,1.80249131535405,0.153394462027088,0.614003394251401,1.49697902972902,1.79875700711535,2.00929695925223,8.92416992292717,1.06857732285683,0,0.701501989191365,1.22509675375203,6.86950288149664,5.54742847029799,0.470950731684093,5.89583136746114,20.4310140877054,5.35039140574415,28.5338141530247,8.87225031360256,28.0079557164214,12.9906965170505,10.5036003775699,26.2972008232549
55.6,"VOLCANO 4.0","COOP","COOP","BI",1194.8,19.441359,-155.2487445,"US1HIHI0071",NA,NA,NA,NA,0.3,0.5,8.4,1,19.8,0.8,7.6,3.8,3,0.8,0.5,0.8,1.8,0.3,2,1.8,0.5,0,0,0.8,0.8,5.8,1.8,NA,NA,NA,NA,5.3,7.4,5.3,8.4
63,"KALOKO-HONOKOHAU","RAWS","RAWS","BI",7.62,19.67277778,-156.0202778,NA,"KHOH1","FA667668",NA,NA,0,0,3.79999999999998,5.59999999999999,13.7,0,0,0,0,0,0,0,0,1.29999999999998,0,0.5,0,3.80000000000001,0,0,0,0,0,0,8.09999999999999,0.800000000000011,6.29999999999998,0,2.30000000000001,0,1
65.4,"PAHOA 2.1 E","PAHOA 2.1 E","CoCoRaHS","BI",137,19.5043,-154.9165,"US1HIHI0003",NA,NA,NA,NA,0.8,3.6,8.1,0.8,1.5,1.8,0,0,0,0.8,0,0,3.3,0.8,14.7,1.3,0,0.8,0,1.3,8.6,1.3,10.2,17.5,6.4,10.9,4.8,5.8,4.6,5.1,1.8
65.6,"KURTISTOWN 6.6 SSE, HI US","CoCoRaHs","CoCoRaHs","BI",339.63,19.5021,-155.029,"US1HIHI0055",NA,NA,NA,NA,0.8,5.8,0.8,0,0.3,0.5,0,0,0,2.5,0.3,0,0,0.5,6.9,5.8,0.3,0.5,0,4.1,4.1,3.6,3,14,7.1,14,22.4,14,5.1,3.3,5.1
67.7,"PAHOA 2.7 SSE","PAHOA 2.7 SSE","CoCoRaHS","BI",259,19.4654,-154.927,"US1HIHI0051",NA,NA,NA,NA,0.5,5.6,11.4,0.3,4.3,2,0.3,0,0,0.5,0.3,0,6.1,0.5,14.7,2,0.3,0.3,0,10.7,1.5,0.5,4.6,18.5,13.5,11.9,10.9,9.9,5.1,7.6,8.9
68.14,"HONOKOHAU HARBOR 68.14","COOP","COOP","BI",9,19.67944,-156.02333,"USC00511880",NA,NA,NA,NA,0,0,4.6,0,18.5,0,0,0,0,0,0,0,0,0,0,0.5,0.5,2,0,0,0,0,0,0,0,19.1,1,5.6,0,0.8,0
68.21,"KAILUA KONA KE AHOLE AIRPORT","KAILUA KONA KE AHOLE AIRPORT","NWS","BI",27,19.73556,-156.04889,"USW00021510","HKO",NA,NA,NA,0,0,1,0.3,6.9,0,0,0,0,0,0,0,0,0,0,0,0,0,0,0,0,0,0,0,0,0,1,0,0,0,0
68.22,"HOLUALOA 4.0 NW","HOLUALOA 4.0 NW","CoCoRaHS","BI",416,19.6799,-155.9699,"US1HIHI0049",NA,NA,NA,NA,9.1,0,0,NA,NA,NA,0,0,0,0,NA,NA,NA,0,6.9,9.4,6.4,4.8,NA,NA,0,0.5,0,0,NA,NA,NA,NA,9.1,0,0
69.25,"Palamanui","Hilo Forest Service","HIPPNET","BI",297,19.73756,-155.99582,NA,NA,NA,NA,NA,0,0,0,0.762,15.238,0,0,0,0,0,0,0,1.016,0,0.508,1.778,0.254,1.778,0,0,3.556,0.254,0,0.508,0.254,0.254,16.002,0.254,0,0,0
69.26,"KALAOA 2.2 ESE","KALAOA 2.2 ESE","CoCoRaHS","BI",398,19.7189,-155.9859,"US1HIHI0038",NA,NA,NA,NA,NA,NA,NA,NA,17.5,NA,NA,NA,NA,NA,NA,NA,NA,4.6,NA,NA,NA,8.9,NA,NA,NA,NA,0.8,NA,1.5,1.3,14.7,21.3,3.6,NA,NA
69.27,"KALAOA 1.7","KALAOA 1.7","CoCoRaHS","BI",304.5,19.7238,-155.9926,"US1HIHI0006","","",NA,NA,0,0,0,0.3,15.7,0,0,0,0,0,0,0,0,2,0.8,0.8,3.3,2.5,0,0.5,0,0,1.8,0,0,1,1.3,10.2,9.9,0,0.8
70.16,"Waiaha Stream","NWS","HydroNet-UaNet","BI",460.5528,19.6331997,-155.9486,NA,"WIHH1","9321011E",NA,NA,0,4.318,0.254,0.254,13.716,0,0,0.254,0,0.254,0,0,4.572,4.826,19.304,9.652,2.286,4.064,1.778,10.414,8.128,2.286,0.254,0,72.644,3.556,48.768,2.286,11.176,10.922,1.016
70.7,"Puuwaawaa","Hilo Forest Service","HIPPNET","BI",1659,19.72544,-155.87389,NA,NA,NA,NA,NA,0,3.048,0,2.032,22.606,0,1.778,2.286,0,0,0,0,8.89,2.032,6.858,3.302,0,0,0,4.572,0.254,6.35,0,0,2.286,5.842,3.81,0.508,0,1.016,0.508
73.29,"Kainaliu Upper","NWS","HydroNet-UaNet","BI",713.232,19.5310993,-155.9066,NA,"KNUH1",NA,NA,NA,0.113711692122271,6.56984230914104,11.2447984160866,0.615641959892728,7.73239506431443,0,1.02340522910044,0,2.84714967698366,0.909693536978168,0,0,0.682270152733626,2.24118702610206,6.5068046069949,3.88280492700132,1.39718599379735,3.62936201502983,3.86619753215721,3.29373474138691,16.9320786963973,3.40744643350918,2.30579612989541,1.33359666879268,9.07639111946117,5.66908694883448,33.1848022819502,13.417979670428,10.8298010727207,2.68897469492902,1.05165157387456
73.34,"Kainaliu","SCAN","SCAN","BI",416,19.53333333,-155.9333333,NA,NA,NA,2096,NA,3.81,0,3.048,0.508,0,8.636,0,0.254,0,1.524,1.016,0,0,0.508,1.016,2.794,3.556,1.27,3.048,2.286,1.524,38.608,0.254,0,1.524,7.874,12.446,18.796,3.302,4.064,0
74.8,"KEALAKEKUA 4 74.8","COOP","COOP","BI",433,19.5106,-155.9217,"USC00513987",NA,NA,NA,NA,0.133398876516632,7.70729523564271,13.1916379693744,0.722229563674768,9.07112360313098,0,1.20058988864969,0,3.34008368968703,1.06719101213306,0,0,0.800393259099793,2.62920923755308,7.63334366138027,4.55504447544645,1.63908423468827,4.25772236997864,4.53556180156549,3.86398712255867,19.8635710456393,3.9973859990753,2.70500427408732,1.56448553374771,11.4,10.9,22.9,15.7410674289626,12.7047911172241,3.15452348470442,1.3
75.1,"PTA KIPUKA ALALA","RAWS","RAWS","BI",1641.348,19.66694444,-155.7077778,"USR0000HPTK","PKAH1","32666200",NA,NA,0,4.09999999999999,0.200000000000017,0.299999999999983,4.80000000000001,0,0.799999999999983,0.5,0,0,0,0,0.5,0.5,0.300000000000011,0,0,0,0,0.199999999999989,0,0,0,0,0.800000000000011,0.5,8.40000000000001,0.5,0,0,0
79,"KULANI CAMP 79","DEPT SOCIAL SVC","COOP","BI",1576,19.54863532,-155.3005575,"USC00515011",NA,NA,NA,NA,0.577899305907043,4.88927082193082,2.58144403339996,0.930130073284738,6.16016405591522,1.70618720076133,0,2.1427181018394,1.57114377663082,1.09980064364157,1.78062961351492,6.69585022583635,1.32318398605708,2.72331587949341,6.57090600332601,2.15943311640512,0.209485836884111,0.338117915242528,0.293035526543525,0.877758614063711,6.29463898073135,0.927863378440843,2.37809084291185,7.07755121319852,1.11505276746905,9.35583295964461,8.70504836253905,13.0869424756248,2.11831575185438,2.46651531086428,7.42809098878118
79.6,"Kulani NWR","NWS","HydroNet-UaNet","BI",1623.3648,19.5543995,-155.3089,NA,"KNWH1",NA,NA,NA,0,9.906,7.366,0,3.556,3.048,3.556,1.524,1.27,0.508,0.508,1.524,0.254,3.556,0.254,0.254,0,0.254,0,0.254,3.048,0.254,1.524,8.636,0.508,6.858,9.906,6.096,1.778,1.524,6.604
83,"QuarryRainGageatSaddleRd","USGS","USGS","BI",1286.256,19.68586111,-155.2942222,NA,"SDQH1","DDF6B6E4",NA,NA,2.032,15.24,4.318,1.778,5.588,6.60400000000027,3.29582880165304,7.112,7.62,5.334,8.636,30.226,2.032,13.208,6.34999999999999,1.524,1.01600000000001,0.128249788500163,0,1.524,20.574,2.286,1.52400000000002,18.034,5.08000000000001,19.304,26.162,17.018,4.06400000000002,7.87399999999997,21.59
85.2,"Waiakea Uka","NWS","HydroNet-UaNet","BI",303.8856,19.6585999,-155.1277,"USC00519084","WKAH1",NA,NA,NA,1.016,1.016,6.096,0,3.302,0.508,0.762,0,0,0,1.27,0.254,0,1.27,7.62,0,0,0,1.016,9.906,2.54,0.254,3.048,13.97,6.35,16.002,8.382,9.144,11.684,8.128,22.098
87,"HILO INTERNATIONAL AIRPORT 87","NWS","HydroNet-UaNet","BI",11.6,19.7191,-155.053,"USW00021504","HTO",NA,NA,NA,0.508,13.208,1.524,0,0,0,1.016,0,2.54,0,0,0,0,0,6.35,0,0,0,0,2.54,5.588,0.254,4.572,5.334,2.794,4.064,10.414,20.066,0.508,10.414,5.334
87.5,"HILO 5 S","HILO 5 S","USCRN","BI",189,19.645,-155.0827,"USW00021515",NA,NA,NA,NA,2.2,2.7,0,0,0.3,0,0.5,0,2.5,0.2,0.6,0,0,0,8.4,0,0,0,0.9,0.5,7.7,0,2.1,9.3,6.5,17.6,9.9,11,1.5,8.4,10.7
87.8,"HILO 0.4 SW","HILO 0.4 SW","CoCoRaHS","BI",107,19.692,-155.0925,"US1HIHI0039",NA,NA,NA,NA,3.6,4.8,0.8,0.8,0.3,0,0,2.3,0,1.5,0.3,0,0,0,6.1,1.5,0,0,0,1.5,1,6.4,3,12.2,1,6.4,11.9,18.8,0.3,6.1,12.4
87.9,"IPIF","Hilo Forest Service","HIPPNET","BI",111,19.69748,-155.0954,NA,NA,NA,NA,NA,0,12.192,0.508,0.254,0.762,0,1.27,0,0.508,0.254,0,0,0,0.508,6.604,0.254,0,0,0.508,1.27,3.048,1.524,4.318,11.43,4.318,15.494,4.318,13.208,5.08,10.922,15.748
88.1,"KAUMANA 88.1","HILO SUGAR","COOP","BI",343,19.68362898,-155.1405634,"USC00513510",NA,NA,NA,NA,1.38543401761616,6.46833692806254,7.59862100153195,1.13906225966531,12.7222191908701,0.423501102023112,0.9177166297043,0.122555011056383,0,0,0.665877376518302,1.28732638375242,1.4706601326766,0.665877376518302,9.16465502045471,0.648842215439778,0,0.612775055281915,1.5584097194132,5.88537789323202,3.97533538414011,0.227391875993355,3.54573591896281,19.4373502763152,10.1648604427886,19.1745256828963,8.49357434921855,21.9339824036507,8.09946510085594,12.2203254791983,21.2103260849483
88.2,"WAIAKEA SCD 88.2","SHINICHI KANESHIRO","COOP","BI",287,19.65529741,-155.1205634,"USC00519025",NA,NA,NA,NA,1.38920594815936,6.48594737887612,7.6193087212483,1.1421634277276,12.7568562262924,0.424654110193469,0.920215170480387,0.122888674719573,0,0,0.667690269216608,1.29083121014199,1.47466409663488,0.667690269216608,9.18960636548454,0.650608728849306,0,0.614443373597865,1.56265258709563,5.90140120170541,3.98615848272457,0.22801096456158,3.55538940620278,19.4902696750408,10.1925349094785,19.2267295252699,8.51669863525559,21.9936990390953,8.12151639987784,12.2535960776799,21.26807252092
89.11,"Piihonua","NWS","HydroNet-UaNet","BI",296.8752,19.7098007,-155.1395,"USC00518053","PIIH1",NA,NA,NA,1.778,7.366,7.366,0.254,5.334,0,1.27,0,0,0,0.254,2.54,0,0.254,6.858,0.254,0,0,1.27,1.27,3.302,0.254,3.048,19.05,15.748,10.16,3.556,10.16,2.54,16.764,20.066
89.13,"KAIWIKI HOMESTEAD 89.11, HI US","COOP","COOP","BI",379.67,19.7509,-155.1362,"USC00512802",NA,NA,NA,NA,2.02964803982865,7.51118950655986,2.48449942537248,1.53627343796055,10.536318700134,0.443870619213938,0,1.13788160501253,0,1.67814146511989,0.253293244006253,0,1.71383757602129,0.205837622544315,8.62167171357041,3.65555556525339,0.123502573526589,0.919936612553185,0.618885791341021,3.52698684060982,3.69152185114844,4.25089851921857,3.48506442674102,16.3735464894801,3.49834960639659,17.3395419449164,18.1308100997254,29.3691468981586,4.41923798979221,5.09255705989258,10.2254075578124
89.2,"AMAUULU 89.2","HILO SUGAR","COOP","BI",390,19.73529295,-155.1455638,"USC00510150",NA,NA,NA,NA,0.74756368477059,19.4366558040353,2.24269105431177,0,0,0,1.49512736954118,0,3.73781842385295,0,0,0,0,0,9.34454605963238,0,0,0,0,3.73781842385295,8.22320053247649,0.373781842385295,6.72807316293531,7.8494186900912,4.11160026623825,5.98050947816472,15.3250555377971,29.5287655484383,0.74756368477059,15.3250555377971,7.8494186900912
91,"MOUNTAIN VIEW 91","PU SUGAR","COOP","BI",463,19.5487,-155.1101,"USC00516552",NA,NA,NA,NA,6.4,1.5,0,0.162962432227008,3.20957918971145,0,1,0,3.3,0.3,0.3,0,0,1.39778193037921,6.17870104349729,0,0,0,0.841780017270431,4.15559230828644,1.3,0.394912460882661,4.28853340134832,16.4965968923319,8.84590215631592,16.4770490922025,4.60590080076527,11.8659241257264,7.94530305774189,11.9471649894268,22.3187668920027
91.11,"PUNA MACADAMIA O 91.11","COOP","COOP","BI",244,19.61861,-155.08667,"USC00518315",NA,NA,NA,NA,0,0,0,0.731754885980875,8.1729914009918,0,0,0,0,0,0.438193657980553,0.0704228203327488,0.94477955754551,0,8.77309445615227,0,0,0.393658148977296,1.00115153220489,3.78087676303294,0,8.1,0,18.3,6.53009634127448,12.3180736924317,5.45643091652314,13.6865954080943,0,7.1,2
91.12,"HAWAIIAN BEACHES 91.12","COOP","COOP","BI",88,19.533,-154.917,"USC00511300",NA,NA,NA,NA,3.9536538768972,6.83031411024687,3.32575304481565,0.670039023824228,5.88330028192567,0.134007804764846,0.34546301533368,0.723738946276127,0.863657538334199,0.0941631160843318,0,0,1.43567177472855,1.31828362518065,9.9420343756991,1.84553431300412,0.188326232168664,0.496186530378869,0.348420292388599,3.04030641950774,3.92690089925057,0.723333079624847,6.76820083958491,9.42944834536662,3.76115834147215,10.2949917131759,6.5999503832981,16.1863098960494,0.462227086177291,6.69983594336547,4.68645499095467
91.14,"KURTISTOWN 91.14","COOP","COOP","BI",223,19.59,-155.083,"USC00515102",NA,NA,NA,NA,0.508722869518756,9.23808447042542,2.16128660279399,0.942402464748867,9.4573555727498,0.188480492949773,0.485889904250472,1.13101910659424,1.21472476062618,0,0.123642687821704,0,1.35705954923837,0,11.8359254356136,3.08577284927156,0,0.56544147884932,0.894664136229285,6.10212205733382,6.1049169701185,0.884920584180898,5.63794318961081,15.5347842403633,3.97812837345787,15.2900218154615,11.2964358572927,25.6139016507323,2.3841378115929,9.24680715919155,5.69488032766059
91.15,"Mountain View","Mountain View","HydroNet-UaNet","BI",346.5576,19.5674992,-155.0841,NA,"MTVH1",NA,NA,NA,2.54,5.588,0,0,0.254,0,1.016,0,2.286,1.27,0.508,0,0,4.572,10.16,0.254,0,0,5.588,6.858,4.826,0.762,6.096,9.144,12.446,22.606,2.286,11.938,2.032,8.636,17.526
91.17,"PAHOA BEACON 91.9, HI US","COOP","COOP","BI",148.5,19.5407,-154.9728,"USC00517460",NA,NA,NA,NA,NA,4.8,0,0,0.3,0,0,0,NA,NA,0,0.5,NA,9.1,3,0,0.8,0,NA,NA,NA,NA,NA,6.6,NA,NA,14.7,5.6,NA,NA,NA
91.8,"S GLEWNWOOD 91.8","COOP","COOP","BI",694,19.488,-155.149,"USC00518638",NA,NA,NA,NA,3.32448792560208,4.33257435355277,2.67273102015244,0.21366003719433,4.2080791240071,0.509795915596903,1.349362332425,0.393693710515473,1.54063337566381,0.131109995275904,1.06111778756712,1.38676737553044,0.0984234276288682,1.83263182288763,8.10089464624156,0.393693710515473,0,0,1.10365774087677,5.4483968790802,4.49505087765092,0.517769708807215,5.62269593991337,21.6286874062213,11.597861899257,21.6030582863951,6.03879632229619,15.5574125606823,10.4170864636617,15.663927453242,29.2621342177449
91.9,"Pahoa Beacon","NWS","HydroNet-UaNet","BI",187.1472,19.5149994,-154.9644,NA,"PHAH1",NA,NA,NA,9.906,5.334,4.826,0,0.254,0,0,0,0,0.254,0,0,1.27,3.556,8.89,0,0.508,0.254,0,4.064,1.27,0.254,8.89,12.446,7.366,10.668,2.54,18.034,0,6.858,3.556
92,"KEAAU 92","PU SUGAR","COOP","BI",87,19.62918887,-155.0333418,"USC00513872",NA,NA,NA,NA,0.3,1,4.58583964871568,0.617201388494932,6.19384308650651,0.123440277698987,0,2,0,0.175369881644393,0.0809764845226046,0,0.888769999432703,0,12.4,5.1,0,0.37032083309696,0.585936441989763,3.99642227968453,4.3,1.5,5.3,12.6070899138461,2.60536920005147,10.0137924587617,7.39829972539702,7.4,0.8,3.67103777234011,3.74260261656
92.5,"KiholoRainGage","USGS","USGS","BI",283.96692,19.82580556,-155.8925833,NA,"KIRH1","DD60236E",NA,NA,0,3.556,0.508,0,14.732,0,0,0,0,0,0,0,0,0,0,2.54,0,0,0,0,0,0,0,1.016,2.794,0,0,0,0,0,1.016
93.11,"KAPOHO BEACH 93.11","ARRUDA GENVIEVE","COOP","BI",4,19.48892483,-154.8200037,"USC00513368",NA,NA,NA,NA,1.09432484340134,2.20480894877884,2.57515974306184,0.426339933727994,0.513108128737123,0.529845980383688,0,0.548701890088824,0,0.593336161146331,0.0715698117507162,0,0.971384297370095,0.23548710239275,5.78232834539802,0.7405156001418,0,0.23548710239275,0,0.7405156001418,2.77005238989112,1.90948919207017,3.71815867301473,8.06178604270387,2.12246285831106,4.73533442078317,4.25185848046825,6.19232302872566,1.42562065050903,2.95648311668501,3.48806486607996
93.12,"PUUANAHULU","RAWS","RAWS","BI",830.58,19.83277778,-155.7697222,NA,"PULH1","48703040",NA,NA,0,27.178,0.300000000000011,0,18.2,0,2.60000000000002,2.79999999999995,0,0,0,0,1.77800000000002,0.254000000000019,0,1,0,0,0,0,0,0,0,0,6.10000000000002,1.80000000000001,5.30000000000001,0,0.299999999999955,0.200000000000045,0.299999999999955
93.13,"Mamalahoa","Hilo Forest Service","HIPPNET","BI",636,19.80256,-155.85062,NA,NA,NA,NA,NA,0,6.604,0.254,0,10.922,0,0,2.286,0.254,0,0,0,11.176,0.508,5.08,10.922,0.254,0,0,0,0,0,0,0,0,0,3.556,1.27,0.254,0,0.508
93.61,"PAHOA 4.7 NE, HI US","CoCoRaHs","CoCoRaHs","BI",53.95,19.5473,-154.8988,"US1HIHI0065",NA,NA,NA,NA,0.8,4.1,21.6,0,1,3.3,0,0,0,0,0,0,1.3,0.3,11.4,1.5,0,0,0,5.8,6.9,3,4.1,11.9,16.3,14.2,2,3.3,4.3,5.1,3.8
93.62,"PAHOA 5.7 NE","COOP","COOP","BI",27.4,19.5565,-154.8865,"US1HIHI0070",NA,NA,NA,NA,0.5,2,37.8,0.3,0.5,4.1,0,0,0,0,0,0,0.8,0,6.9,0.5,0,0,0,7.1,3,0,6.4,12.7,10.7,13.2,3.8,1.3,0.3,3.6,2.5
93.63,"HAWAIIAN PARADISE PARK 2.4 E","COOP","COOP","BI",10.1,19.594568,-154.936038,"US1HIHI0072",NA,NA,NA,NA,1.5,21.1,3.8,0,2.5,1.3,0,0,0,0,0,0,0,0,10.7,1.3,0,0,0,2.5,5.1,0.8,3.3,10.2,11.2,11.4,3.3,2,2.5,2.3,6.4
93.64,"KEAAU 5.5","COOP","COOP","BI",18,19.613803,-154.955684,"US1HIHI0068",NA,NA,NA,NA,1,4.1,3.3,0,0.8,2.5,0,0,0,0,0,0,0.5,0,7.1,1.8,0,0,0.5,1.8,3,0.5,3.3,6.9,7.4,7.1,12.7,2.3,2.3,1,8.6
93.8,"KONA VILLAGE 93.8","KO VILLAGE RES","COOP","BI",12,19.8314012,-155.9858256,"USC00514765",NA,NA,NA,NA,0,0,0,0,0,0,0,0,0,0,0,0,0,3.8,0,0,0,0,0,0,0,0,0,0,0,0,0,1,0,0,0
94,"KAUPULEHU LAVA FLOW","RAWS","RAWS","BI",372.1608,19.80333333,-155.9180556,NA,"KPLH1","4870E628",NA,NA,0,0.700000000000017,0,0,18.6,0,1.19999999999999,0,0,0,0,0,0.300000000000011,0,0,1.80000000000001,0.199999999999989,0,0,0,0,0,0,0,0,0,0,0,0,0,0
94.5,"PUU WAAWAA","RAWS","RAWS","BI",708.9648,19.795,-155.8452778,"USR0000HPUW","PWWH1","487046D0",NA,NA,0,7.80000000000001,0,0,12.7,0,0,2.10000000000002,0,0,0,0,3.5,0.299999999999983,4.09999999999999,4,0,0,0,0,0,0,0,0,0,0,1,0.800000000000011,0,0.5,0
95.11,"WAIKOLOA VILLAGE 2.7 ENE","WAIKOLOA VILLAGE 2.7 ENE","CoCoRaHS","BI",265,19.9465,-155.7883,"US1HIHI0047",NA,NA,NA,NA,0,0,0,0,28.2,0.3,0,0,0,0,0,0,0.8,0,0,0,0,0,0,0,0,0,5.8,0,0,0.8,6.4,13.7,0.5,0,0
95.6,"WAIKOLOA","RAWS","RAWS","BI",297.7896,19.92416667,-155.7936111,NA,"WKVH1","4870C0C4",NA,NA,0,0,0,0.510000000000005,18.33,0,0,0,0,0,0,0,0.5,0,0,0,0,0,0,0,0,0,6.3,0,3.8,5.90000000000001,2.3,3.00000000000001,0,0,0
95.8,"WAIKOLOA 95.8","BOISE CASCADE","COOP","BI",268,19.93389178,-155.7877744,"USC00519142",NA,NA,NA,NA,0,0,0,0,20.3639496813801,0.216637762567873,0,0,0,0,0,0,0.3,0,0,0,0,0,0,0,0,0,0.3,0,0,0.577700700180995,4.62160560144796,13.5,3.6,0,0
95.9,"WAIKOLOA BEACH RT 95.9","COOP","COOP","BI",24,19.91278,-155.87778,"USC00519144",NA,NA,NA,NA,0,0,0,0,17.3,0,0,1,0,0,0,0,6.1,0,0,0,0,0,0,0,0,0,0,0,0,0,0,0,0,0,0
98.1,"PUUKOHOLA HEIAU 98.1","ROSE FUJIMORI","COOP","BI",43,20.02666416,-155.81944,"USC00518422",NA,NA,NA,NA,0,0,0,12.7,0,0,0,0.5,0,0,0,0,0,0,0,0,0,0,0,0,0,0,0,0.5,0,0,10.2,13.2,0,0,0
98.2,"PUHO CS","PUHO CS","RAWS","BI",29.5656,19.42194444,-155.9075,NA,"PERH1","32D6803A",NA,NA,0,15.8,0,0,4.5,0,1.60000000000002,0,0.699999999999932,0.5,0,0,0.800000000000068,2.29999999999995,0.200000000000045,0.799999999999955,0,0,0,0,0.5,3.80000000000007,0,0,0,0,7.89999999999998,1,14.5,0,0
98.91,"HOLUALOA 0.95","COOP","COOP","BI",527.3,19.6225861,-155.927558,"US1HIHI0067",NA,NA,NA,NA,3.3,NA,12.7,0.3,15.7,NA,NA,1,0.8,NA,1.5,NA,0,10.2,NA,10.2,21.1,11.4,8.4,2.3,0.8,9.4,2.5,NA,0,47.8,18,38.6,54.6,10.7,5.6
99,"PTA WEST","RAWS","RAWS","BI",1307.592,19.77166667,-155.7022222,"USR0000HPTW","PKWH1","32667176",NA,NA,0,7.59999999999999,0,0,2.60000000000002,0,1,1.5,0,0,0,0,0.299999999999983,0,0.700000000000017,0,0,0,0,0,0,0,0,0,1.09999999999999,0.199999999999989,9.90600000000001,0.5,0,0,0
100,"Waikii","PARKER RANCH","STATE","BI",1417,19.82,-155.6508,NA,NA,NA,NA,NA,0,22.606,0.254,0,11.684,0,0,0.508,0.254,0,0,5.588,1.778,0.254,0,0,0,0,0,0,1.016,0.605463906848129,0,0.508,0,2.286,0.908195860272174,8.89,0.254,0,0
101.1,"PTA KEAMUKU","RAWS","RAWS","BI",1025.9568,19.90222222,-155.6786111,NA,"PKMH1","328FB7BE",NA,NA,0,21.9,0,0,28.2,0,0,1.80000000000001,0,0,0,0,0.699999999999989,0,0,0,0,0,0,0,0,0.800000000000011,0,0.800000000000011,0,0,1.19999999999999,25.2,0,0,0
102.8,"AUHMOA","RAWS","RAWS","BI",2001.9264,19.83638889,-155.6130556,NA,"AHMH1","4870D3B2",NA,NA,3,1.5,1.30000000000001,0.800000000000011,0.699999999999989,0.300000000000011,0.199999999999989,0.300000000000011,0,0.299999999999983,0,0,0,0,0,0,0,0,0,0.700000000000017,1,0.5,0.5,0,0.299999999999983,0.300000000000011,0.5,0.199999999999989,0.300000000000011,0.199999999999989,0
103.3,"Mana House","Mana House","SCAN","BI",1288,19.96,-155.54,NA,NA,NA,2097,NA,0.254,6.604,33.528,0,0,7.366,0,0,0,0,0.762,6.096,3.556,0,3.302,3.048,0,0,0,0,5.588,0,0,0,0,0,9.144,0,0,0,1.524
104.1,"Silversword","Silversword","SCAN","BI",2835,19.77,-155.42,NA,NA,NA,2101,NA,4.318,0,4.318,1.778,295.402,32.004,0.254,0,0,0,0,0,0,0,0,0,0,0,0,0,0,1.778,0,0,0,0,0,1.778,1.016,0,0
107.4,"PTA EAST","RAWS","RAWS","BI",1959.864,19.68277778,-155.5452778,"USR0000HPTA","PTAH1","3266D18E",NA,NA,3.79999999999998,5.60000000000002,0.5,0,3,0,0,0.299999999999983,0,0,0,1.20000000000002,0.299999999999983,0,0,0,0,0,0,0,0,0,0,0,0,0.200000000000017,0.799999999999983,0,0,0,0
109,"PTA RANGE 17","RAWS","RAWS","BI",1734.312,19.74583333,-155.6261111,NA,NA,"3279630C",NA,NA,0,3,0.299999999999997,0,2.5,0,0,0.5,0,0,0,0.299999999999997,0.700000000000003,0,0,0,0,0,0,0,0,0,0,0,0,0,3.8,0.800000000000011,0,0,0
113.2,"PUU MALI","RAWS","RAWS","BI",2165,19.92666,-155.44,NA,"PMLH1","3181742E",NA,NA,0,26.7,0.5,0,1.29999999999995,0,0,2.30000000000001,0,0,0.699999999999989,4.90000000000003,0,0,0,0,0,0,0,0,5.80000000000001,0,0,0,0,6.29999999999996,5.10000000000002,8.19999999999999,0,0,0
125.12,"Pua Akala","SCAN","SCAN","BI",1949,19.8,-155.3333333,NA,NA,NA,2098,NA,5.11623439506976,1.13374206176103,4.45488485904249,1.94551553624897,291.910511119746,31.6180534671983,0.250936932279352,0.543251404593829,0,0.354294394300323,0.0708588788600646,0,0,0,1.44079720348798,0.354294394300323,0,0,0,0.354294394300323,0.236196262866882,3.26821460830351,0.708588788600646,2.88159440697596,0.236196262866882,1.51165608234804,2.8107355281159,6.19704826785285,1.07460660797747,1.44079720348798,2.92883365954934
127.5,"Laupahoehoe","Hilo Forest Service","HIPPNET","BI",1145,19.93217,-155.29129,NA,NA,NA,NA,NA,0.762,7.366,8.636,0,11.684,0.508,2.54,1.016,1.524,0,5.08,2.032,0,8.636,2.032,0.254,0,0,0,0,0.508,0.254,0,4.064,0.508,2.286,0.254,0,0,0.762,1.778
128.1,"Hakalau","Hilo Forest Service","HIPPNET","BI",1665,19.83873,-155.30797,NA,NA,NA,NA,NA,0.601692296294746,7.45189285610759,2.99413599767543,0.304848426714229,3.18408201581333,1.41682124541635,0.735685662095096,2.09688617693421,1.58175272703369,0.914545280142686,2.39822392394959,5.93498374536489,0.425507774953826,4.32560419875974,1.7641952993505,0.384284802745257,0.174199100979561,0,0.0461533132139049,0.261298651469339,5.66268863575884,0.437824555485175,0.261298651469342,4.52004545183843,0.962748661460131,4.72509657207368,5.80381138291796,4.26725246881546,0.812460763410324,1.75755627291667,5.41083925768898
129,"HAKALAU","RAWS","RAWS","BI",1950.72,19.82111111,-155.3305556,"USR0000HHAK","HKUH1","8374D370",NA,NA,0.300000000000068,9.09999999999991,1.80000000000007,0,0.299999999999955,0.5,0,1.80000000000007,0,0,0,1,0.199999999999932,1.30000000000007,0.799999999999955,0.200000000000045,0,0,0,0,5.29999999999995,0,0,1.79999999999995,0,2.60000000000002,3.30000000000007,3.5,0.299999999999955,0.700000000000045,3.59999999999991
132.2,"Spencer","Hilo Forest Service","HIPPNET","BI",454,19.96358,-155.25014,NA,NA,NA,NA,NA,5.842,69.596,4.826,11.684,3.302,0,0.254,0,0,0.254,8.89,4.826,0,0.508,2.794,0,0,0,0,0,0,0,0,3.81,4.826,3.81,1.27,0.762,0,4.572,2.54
132.3,"POHAKUPUKA","COOP","COOP","BI",82,19.9522,-155.185,"USC00518067",NA,NA,NA,NA,5.78455585120327,25.8984388570273,1.45990170008048,8.13736358570824,6.15222650899887,0.127314439340746,0.328207974060543,0.0763886636044475,0.820519935151359,0,0.978364094217979,0.217414243159551,0.91666396325337,0.217414243159551,3.73185043717624,3.80964543283875,0,0.381943318022238,0.439724663865715,1.45709213185509,2.64541915698191,0.0820519935151359,3.83421470749161,5.77071364242809,1.08766771385072,7.87148721870595,8.09337791519874,15.0836674095835,1.33539682896513,6.55874907300261,4.61313194070759
132.4,"KAPEHU MAUKA 132.4","COOP","COOP","BI",335,19.95,-155.217,"USC00513329",NA,NA,NA,NA,0.53671418303777,9.74638896039542,3.42030968971293,1.49138401062727,12.8855578518197,0.298276802125455,0,1.78987627301898,0,0,0,0.0906063641109961,2.14759297530328,0,12.4871701889099,4.88334067447264,0,0.894830406376365,0.775519685526183,3.4137273332264,5.43208380627698,1.20818264380778,5.94815813153405,16.3895502479021,4.60964553719674,12.4886103763075,9.03049861293604,27.0232480640929,2.515319547181,9.75559159518053,6.00822810550986
132.5,"KIHALANI 132.5","COOP","COOP","BI",302,19.97278,-155.23944,"USC00514459",NA,NA,NA,NA,8.65455945961679,48.0800874340538,1.42673121647554,12.6105296410554,3.68921368167041,0,0.0750911166566074,0,0,0.0750911166566074,3.82249407535319,6.16472594529349,7.18809688832458,0.415583342729199,2.58309263370202,5.5775468040492,0,0,0.132700554707992,0,0.159735486407213,0,2.25590943003587,2.58607285163703,1.55943177118353,5.13936653036432,3.69296945098285,0.623375014093799,0,4.53645341281075,2.47601837776997
133.1,"LAUPAHOEHOE 133.1","BARNARD EW","COOP","BI",140,19.98027372,-155.2305601,"USC00515427",NA,NA,NA,NA,0.150484864896951,1.65417767586995,5.53101947724272,31.4129829165425,7.11000595256795,0.106718653661739,0,0.640389010196427,0,0,0,0,5.37577530149781,0,6.70156368736796,7.35213071534749,0,0.320155960985216,0.277468499520521,1.22137686328342,1.94351242286615,2.62813575988345,1.95422283234532,8.79587713885575,1.23088972000387,7.57356590616585,6.75910120087779,14.5027268149111,1.21235474088775,5.23559120232999,3.22447141251172
133.3,"Laupahoehoe","NWS","HydroNet-UaNet","BI",499.872,19.9792,-155.2372,NA,"LPHH1","B159741A",NA,NA,12.954,46.736,0,17.526,1.524,0,0,0,0,0,2.286,0.508,0,0.508,0,8.128,0,0,0.254,0,0,0,4.318,2.794,0.254,4.318,6.35,0.762,0,6.096,3.302
137.4,"WAILEA 137.4","WAILEA 137.4","COOP","BI",61,19.8875,-155.12528,"USC00519432",NA,NA,NA,NA,1.05886658411074,6.18109776351088,5.72251044714562,0.95671417001657,6.48458047372563,0.148235031094239,0,1.12980656973258,0,0.614731094401621,0.0808271304545161,0,1.06729222387852,0,6.59064267458481,0.789546733117601,0,0.444705093282716,0.385411080845021,2.1006604030483,1.87956129979082,2.14550300062109,2.03299775530924,11.5353680141475,1.40924934167324,8.73756761933708,9.46518967339999,17.6625759712647,1.44458941652151,3.37834333958719,7.08209733058528
138.2,"KAHUNA FALLS 138.2","COOP","COOP","BI",424,19.86139,-155.16361,"USC00512595",NA,NA,NA,NA,1.80059446213008,5.4843659178014,8.73989076548893,1.59170792239612,12.645021978243,0.226396787100445,0,2.30496261083971,0,0.93886811825735,0.253980867219108,1.30534995414233,1.6300568671232,0,13.0792820158258,4.3237617850778,0,0.679190361301335,1.24130662353232,2.40188827159776,4.53452333857463,3.55054157289388,5.38021726485034,17.6177671171665,8.64049402729227,16.2315928711231,10.3012454202463,26.9757453571801,2.69537878835913,5.15968507685938,10.8163641869366
138.3,"HONOMU 2.8 SW","HONOMU 2.8 SW","CoCoRaHS","BI",385,19.8494,-155.15,"US1HIHI0014",NA,NA,NA,NA,1.59904470837978,9.33436923880348,8.64183475658655,1.84639805766186,10.5457076910728,0.223856759316682,0,1.70617454921465,0,0.92833461583355,0.268910309525677,0,1.61176866708011,0,9.95284245603757,1.19233201288578,0,0.671570277950045,0.582027574223372,2.38221839599088,2.83841476877847,3.24002595930189,3.07012644610497,17.4201069889527,3.75413216503298,16.3587185859239,10.7883967066763,26.6730946721924,2.18154307344595,5.10179669593957,10.6950114685257
140.1,"PAPAIKOU MAUKA NO 2 140","MAU KEA SUGAR","COOP","BI",427,19.78695738,-155.1388973,"USC00517724",NA,NA,NA,NA,0.3,6.4,3.8,2.5,21.6,0.5,0,0.3,0,0,0,0,3.6,0,6.6,1.3,0,1.5,1.3,2.5,3.3,0,2,11.2,0.3,18.5,7.9,32.5,4.6,2.3,5.8
140.5,"KAUKU 140.5","COOP","COOP","BI",457,19.835,-155.149,"USC00513473",NA,NA,NA,NA,1.53002186815841,7.14339104187799,8.39163478907209,1.25793804996978,14.0499463172045,0.467698886446767,1.01349215795655,0.135345201997641,0,0,0.735370241116182,1.42167544145302,1.62414242397169,0.735370241116182,10.1211045904233,0.716557241979211,0,0.676726009988205,1.72104980817168,6.49959273738281,4.39021273742352,0.251123141548117,3.91577904522834,21.4658876595137,11.2256943069763,21.1756339409622,9.37998802389316,24.2230754454344,8.94474840889091,13.4956735444957,23.4238962867251
144.1,"PAPAIKOU 144.1","MAU KEA SUGAR","COOP","BI",61,19.78362447,-155.0922318,"USC00517711",NA,NA,NA,NA,0,7.1,10.4,0.79704299896435,5.46260887151128,0.117314212814579,0,1,0,0.5,0,0,1.71285906369223,0,7.1,0,0,0.562414573335193,0.305016953317904,1.68465813216061,1.5,1,1.5,11.7,2.58584119809842,8.41801826525808,6.21628388476439,15.9426297238433,0,2.5,4.8
144.11,"PEPEEKEO 0.2 SSE","PEPEEKEO 0.2 SSE","CoCoRaHS","BI",178,19.8313,-155.1077,"US1HIHI0002",NA,NA,NA,NA,0.602004710205586,7.22877086474165,3.63188312132139,0.745851755702965,7.48489686953691,0.309283843488791,0.624721268171964,0.0895022106843558,0.961377574124166,0,0.400283730870496,0.0800567461740992,1.07402652821227,0.400283730870496,6.77419495558922,0.387842912965542,0,0.447511053421779,0.708069897661939,4.829442430617,3.90012244234207,0.176194503586516,3.28784199207506,9.76342981078549,3.14843619657342,12.1010821197689,8.94041222567572,20.172998521987,5.24725306932685,7.18964754672698,10.7142058960383
144.12,"PAPAIKOU 1.1 N","PAPAIKOU 1.1 N","CoCoRaHS","BI",108,19.8095,-155.0988,"US1HIHI0011",NA,NA,NA,NA,2.57280064282697,7.639283604545,1.53995394088184,0.981518157783301,7.91577237589588,0.176284322785318,0.885956164464136,0.105770593671191,1.47225545680937,0.215738577410886,0.115642033554177,0,1.26924712405429,0.200193087713418,7.76976949011916,0.558435783098537,0,0.528852968355955,0.658532326955246,2.51802684884155,2.86575053539838,0.714191514703396,4.45179906484186,10.838970586769,3.0571466064298,14.4462051433263,9.14503585966086,25.6388691350827,3.85097114988539,9.77316158473973,10.6367411462516
147.1,"MIDDLE PEN 147.1","KAHUA RANCH","COOP","BI",421,20.10027112,-155.8322151,"USC00516270",NA,NA,NA,NA,0,0,0,0,20.3,0,0,0,0,0,0,0,0,0,0,0,0,0,0,0,0,0,0,0,0,0,0,5.1,0,0,0
147.2,"KOHALA RANCH","KOHALA RANCH","RAWS","BI",328.8792,20.08305556,-155.8325,NA,"KHRH1","4870B654",NA,NA,0,0.699999999999989,0,0.800000000000011,31.2,0,0,4.10000000000002,0,0,0,0,2.29999999999995,0,0,0,0,0,0,0,0,0,0,0,0,0,1.30000000000001,23.1,0,0,0
160.3,"Upolu Airport","NWS","HydroNet-UaNet","BI",34,20.265,-155.8582,NA,"UPLH1","B15017A0",NA,NA,NA,NA,3.02727779650526,NA,NA,NA,NA,NA,NA,NA,NA,NA,NA,NA,NA,3.59489238335,NA,NA,NA,NA,NA,NA,NA,NA,NA,NA,NA,NA,NA,NA,NA
168,"HAWI 168","KOHALA SUGAR","COOP","BI",183,20.23692665,-155.8272119,"USC00511339",NA,NA,NA,NA,NA,NA,6.4,NA,NA,NA,NA,NA,NA,NA,NA,NA,NA,NA,NA,7.6,NA,NA,NA,NA,NA,NA,NA,NA,NA,NA,NA,NA,NA,NA,NA
175.1,"KOHALA MISSION 175.1","BOND ESTATE","COOP","BI",163,20.2252605,-155.7922137,"USC00514680",NA,NA,NA,NA,NA,NA,7.48042436471629,NA,NA,NA,NA,NA,NA,NA,NA,NA,NA,NA,NA,8.88300393310059,NA,NA,NA,NA,NA,NA,NA,NA,NA,NA,NA,NA,NA,NA,NA
176.3,"Kahua Ranch HQ","KAHUA RANCH","HydroNet-UaNet","BI",987.552,20.1249008,-155.7884,NA,"KASH1","15D293C2",NA,NA,0.254,11.938,1.27,1.778,37.592,0,0,0.254,0,0,0,0.508,0.508,0.254,0.254,1.016,0,0,0,0,0,0,0,0,0,0,1.27,6.858,0,0,0.254
178.12,"PONOHOLO RCH 178.11","PONOHOLO RCH 178.11","COOP","BI",762,20.12554592,-155.7774941,"USC00518101",NA,NA,NA,NA,0,0,15.7,0,19.3,0,0,0,0,0,0,0,3.3,0,1.3,0,0,0,0,0,0,0,0,0,0,0,0,2.5,3.8,0,0
179.3,"POLOLU LOOKOUT 179.3","POLOLU LOOKOUT 179.3","COOP","BI",149,20.20694,-155.73778,"USC00518086",NA,NA,NA,NA,NA,NA,9.05752800357075,NA,NA,NA,NA,NA,NA,NA,NA,NA,NA,NA,NA,10.7558145042403,NA,NA,NA,NA,NA,NA,NA,NA,NA,NA,NA,NA,NA,NA,NA
185.7,"KawainuiRainGagenearKamuela","USGS","USGS","BI",1237.488,20.08533333,-155.6811667,NA,"KWSH1","DDF6A592",NA,NA,11.43,30.48,0.254,6.35,32.258,0.254000000000133,0.761999999999944,0,0.254000000000133,2.53999999999996,9.14400000000001,11.9379999999999,3.55600000000004,NA,13.208,6.604,0.253999999999994,0,0.254000000000001,0.254000000000001,0.253999999999998,0,2.032,0.761999999999997,13.716,17.78,5.58800000000001,7.61999999999999,0,10.668,4.572
189,"Waimea Plain","SCAN","SCAN","BI",927,20.01666667,-155.6,NA,NA,NA,2099,NA,0.254,0.254,39.37,1.016,2.794,22.606,0,0,0,0,0,0,13.716,0.762,1.27,1.27,0,0.254,0,0,0,10.668,0,0.254,0.254,0.254,0.254,14.732,4.318,0,0.254
191.1,"LALAMILO FLD OF 191.1","DOWALD","COOP","BI",799,20.01083015,-155.6763867,"USC00515260",NA,NA,NA,NA,NA,NA,13.2,NA,NA,NA,0,0,0,NA,NA,NA,NA,NA,NA,NA,NA,NA,NA,NA,NA,NA,NA,NA,NA,NA,NA,NA,5.1,2.5,NA
192.7,"Kamuela Upper","NWS","HydroNet-UaNet","BI",948.5376,20.0319996,-155.6667,"USC00513080","KUUH1","817075F6",NA,NA,1.778,33.528,1.27,2.286,27.432,0,0,0,0,0.508,0.508,8.89,0,5.588,7.112,1.524,0,0,0,0,0,0,0,0,1.27,0.254,3.556,12.446,0,1.524,0.254
192.9,"PUUKAPU HMSTD 192.9","COOP","COOP","BI",916,20.0375,-155.6347,"USC00518386",NA,NA,NA,NA,0.5,0.8,39.6,0,15.5,0.5,0,0,0,0,1.3,2,8.6,0.3,4.6,4.6,0,0,0,0,0,0,0,0.3,0.3,3,2.5,14.7,0.3,0,0.3
201.3,"Kamuela 1","NWS","HydroNet-UaNet","BI",877.824,20.0394993,-155.6084,NA,"KMUH1","81706680",NA,NA,1.016,26.416,0.508,2.54,12.954,0,0,0,0,0.508,1.016,8.382,0.254,3.048,1.524,1.016,0,0,0,0.508,6.858,0,0,0,0.254,1.27,9.652,1.016,0,0,0
206.1,"KUKUIHAELE 206.1","COOP","COOP","BI",226,20.12167,-155.57417,"USC00514927",NA,NA,NA,NA,2.27580520550127,6.06881388133672,3.57231761100958,23.9934942811809,6.15598182053163,0.0337156326741105,0.101146898022271,0,2.61594187759819,0.689278087412389,9.56732289917327,9.24332643661711,3.92623588227363,3.16909584604319,7.55952399797977,1.65542618301677,0.0337156326740921,0,0.033715632674093,2.14644619670289,0.26133052177567,0,0.404587592089115,0.151720347033417,5.01975769096605,8.99802872118747,1.11261587824507,1.51720347033418,0,2.12408485846785,0.910322082200508
215,"HONOKAA TOWN 215","HONOKAA SUGAR","COOP","BI",326,20.08026947,-155.4672231,"USC00511856",NA,NA,NA,NA,0.171165661269588,3.35748188389917,22.503095529135,0.147003846169727,3.66950158711835,0.123777085127856,0,0.0742662510767138,0,0,0.368783495410734,5.98913565526711,10.4649547146823,0.147003846169727,3.01647593719608,1.62479500878255,0,0,0,0,0.416543233550541,0,0,0,0,2.56170649483359,0.938158086998873,0.0742662510767138,0.0742662510767138,0,0
215.5,"Honokaa","NWS","HydroNet-UaNet","BI",591.9216,20.0656,-155.49,NA,"HNKH1","B15047DC",NA,NA,0,0,0,0,0,0,0,0,5.588,0.762,11.176,9.906,0,2.286,7.112,0.254,0,0,0,4.572,0.254,0,0,0,3.302,7.874,0,0,0,0,0
216.6,"HONOKAA 2.5 SSW","HONOKAA 2.5 SSW","CoCoRaHS","BI",757,20.0417,-155.4777,"US1HIHI0033",NA,NA,NA,NA,0.3,1,43.4,0.3,6.6,0.5,0,0.3,0,0,1,5.3,13.2,0.3,6.9,2.5,0,0,0,0,3.08161916115425,0,0,0,0,3.3,3.3,0.3,0.3,0,0
216.8,"KALOPA 216.8","COOP","COOP","BI",396,20.06111,-155.43528,"USC00512982",NA,NA,NA,NA,0.3,5.8,0,0,3.6,0,0,0,0,0,0,8.4,13.5,0,3.3,2.5,0,0,0,0,0.3,0,0,0,0,3.3,0,0,0,0,0
216.9,"HONOKAA 2.7 ESE","HONOKAA 2.7 ESE","CoCoRaHS","BI",333,20.0606,-155.43,"US1HIHI0034",NA,NA,NA,NA,0,5.1,48.5,0.3,3.6,0,0,0,0,0,0.5,8.1,11.7,0.3,1,2.19518057045228,0,0,0,0,0.5,0,0,0,0,2.8,0.5,0,0,0,0
217.2,"PAAUHAU MAUKA 217.2","COOP","COOP","BI",341,20.07306,-155.44722,"USC00517209",NA,NA,NA,NA,0.152632648020203,1.29519714465509,26.0481791041879,63,5.1,0,0,0,0,0,0.28389011599175,3.49554932656959,9.4,0.26590358589756,1.65430121848477,1.8,0,0,0,0,0.3,0,0,0,0,1.30421898501063,0.72219557396428,0.0571702771268517,0.0571702771268517,0,0
221,"PAAUILO 221","HAMAKUA MILL","COOP","BI",244,20.03860487,-155.3688913,"USC00517312",NA,NA,NA,NA,0.103475789936668,3.32099262704136,12.5573222315471,0.0776741581332811,2.17379937683939,0,0,0,3.24930209340899,0.443086649101226,6.62806111704012,10.7546508261412,7.68570271434802,1.40693410543696,5.53262294135906,1.8423133025269,0,0,0,2.65851989460736,0.380628269859212,0,0,0,1.92004214610531,6.44175453925997,0.129456930222135,0,0,0,0
221.7,"PAAUILO 2.4 SW","PAAUILO 2.4 SW","CoCoRaHS","BI",613,20.019,-155.3988,"US1HIHI0050",NA,NA,NA,NA,0.5,0.8,45.7,2,3,1.8,0.5,0.3,0,0,0,5.1,15,0.8,0.8,0.8,0,0,0,0,0.8,0,0,0,0,0.8,0,0,0,0,0
223,"OOKALA 223","LAUPAHOEHOE SUG","COOP","BI",131,20.01527222,-155.2838932,"USC00517131",NA,NA,NA,NA,0.564306394758578,14.671966263723,1.69291918427573,0,0,0,1.12861278951716,0,2.82153197379289,0,0,0,0,0,7.05382993448222,0,0,0,0,2.82153197379289,6.20737034234436,0.282153197379289,5.0787575528272,5.92521714496507,3.10368517117218,4.51445115806862,11.5682810925508,22.2901025929638,0.564306394758578,11.5682810925508,5.92521714496507
249.1,"MAKENA GOLF CRS 249.1","MAKE GC","COOP","MA",30,20.6420893,-156.4388486,"USC00515842",NA,NA,NA,NA,0,6.4,0,NA,NA,0.8,0,0,0,0,NA,NA,NA,3,0,11.4,1,NA,NA,NA,NA,NA,NA,NA,NA,NA,NA,NA,0,0,NA
250,"ULUPALAKUA RANCH 250","ULUPALAKUA RANCH","COOP","MA",579,20.648174,-156.398497,"USC00518760",NA,NA,NA,NA,0,0,6.6,NA,NA,NA,0,0,0,NA,NA,NA,NA,NA,NA,NA,0.3,NA,NA,NA,NA,NA,NA,NA,NA,NA,NA,NA,0,0,0
250.2,"Ulupalakua Ranch","NWS","HydroNet-UaNet","MA",581.5584,20.6487999,-156.3981,NA,"ULUH1","8170531A",NA,NA,0,6.096,0.762,24.384,3.048,0,0,0,0,0,0,2.286,8.89,6.35,0.254,2.54,5.08,0,0,0,1.524,0,0,0,0,0,0,0,0,0,0
255,"KepuniGulchRainGage","USGS","USGS","MA",225.552,20.6195,-156.2518889,NA,"KPNH1","F000D4EA",NA,NA,0,0,3.048,8.382,0.508,0,0,4.064,0,0,0,0,0,0.253999999999998,0,0,0,0,0,1.524,18.796,0,0,5.842,0,0,0,6.858,0,0,0.507999999999996
258.6,"OHE'O 258.6","HALEAKALA TL PK","COOP","MA",24,20.662925,-156.04248,"USC00517000",NA,NA,NA,NA,0,9.1,77,5.1,15.2,0,0,0,0.5,0,0,0,5.1,0.8,0,12.7,14.2,6.9,1.5,0,0.3,0,2,2.3,1,6.1,0,2.5,2,0.5,3.8
266,"KAUPO GAP","RAWS","RAWS","MA",1228.344,20.68416667,-156.1519444,"USR0000HKAU","KPGH1","FA45A6E0",NA,NA,0,7.46963352955571,8.6232035500664,17.0933199879052,1.73094740857158,0,0,0,0,0,0,0,0.105193511930168,0.0525967559650839,0.210387023860336,0.315580535790503,0,0,0,0,0.35283081358651,0,0.230450029410961,1.30325400911063,0,0,0,1.05236878717584,0,0,1.16707774393813
267,"KULA HOSPITAL 267","KULA SATORIUM","COOP","MA",916,20.70013977,-156.3555187,"USC00515004",NA,NA,NA,NA,0,0,45.5,0,39.9,1.8,0,0,0,0,0,0.5,4.8,26.7,7.9,8.6,16,2.8,1.5,0,0,0,0,0,0,0,0,0,0,0,0
267.8,"KULA 1","KULA 1","RAWS","MA",1998.5736,20.68305556,-156.3216667,NA,"KLFH1","AA10F12E",NA,NA,0.5,7.60000000000002,0.300000000000011,32,16.5,0,0,0,0,0,0.300000000000011,4.5,8.19999999999999,6.80000000000001,0,1,0,0,0,0,1.59999999999997,0,0,1,0,0,0,0,0.199999999999989,0.300000000000011,0.199999999999989
276,"BIG BOG HN-164","HaleNet","HaleNet","MA",1650,20.72655556,-156.09225,NA,NA,NA,NA,NA,1.016,43.942,67.318,8.382,2.032,0.254,0,4.064,0.254,0.254,0,0.508,0,1.016,6.35,10.668,12.192,8.128,6.858,14.732,32.004,4.064,49.278,60.198,17.272,17.272,3.556,36.322,1.016,8.128,80.516
277,"HORSHOE PU'U HN-163","HaleNet","HaleNet","MA",1930,20.73630556,-156.1071389,NA,NA,NA,NA,NA,0.600134193239269,34.5323588141667,36.9019160107524,6.57217474432178,1.14305770230212,0.0621403987736104,0.703145196289655,0.994246380377766,1.82000338949775,0.0621403987736104,0,0.124280797547221,0.430623008075489,0.463873099132186,6.80941346230158,3.9017657727181,4.47410871169995,2.9827391411333,2.51668615033122,8.04300917939031,17.545483237602,1.75504901917527,22.8298200597936,27.6281801847995,9.23879460960309,10.5571918526462,12.1158057671993,34.1597919770205,0.900201289858904,13.7935965340867,35.084294095915
278,"TREE LINE HN-162","HaleNet","HaleNet","MA",2195,20.73422222,-156.1228889,NA,NA,NA,NA,NA,1.12456438609768,46.6874303526847,33.3181411384172,11.0052194640745,1.2940972631192,0.0446371330862183,0,0.781766690361841,0.450072498980277,0.112209694068567,0,5.42750658377752,0.376900742017715,3.98213091590909,5.51864810423738,16.1821112072312,8.07909797293643,6.09557720560558,2.01052157293884,3.88343057850099,8.6391358362423,1.07129119406924,13.1926506212699,17.3888834342534,6.8842409286851,8.2019058678408,0.937379794810584,10.2841769373084,0.26782279851731,2.85209427845309,25.7855774385717
278.1,"Lakes - Subalpine","Lakes - Subalpine","Little HaleNet","MA",2228,20.73492113,-156.1234398,NA,NA,NA,NA,NA,1.04277288488516,43.2917732755902,30.8948554510782,10.2047909316865,1.19997534429085,0.0413905976542953,0,0.724907454916442,0.417337952340571,0.104048490102013,0,5.03275469867786,0.34948810306272,3.69250368810116,5.11726733965927,15.0051584379725,4.99432752489638,3.76815693039825,1.24286192156138,2.40065466394913,9.30164389121212,0.662249562468725,8.15541764004647,12.0947236238734,4.25569216678946,7.01343218085057,3.04582162115815,8.97328992048391,0.389776322798781,2.28627021382862,18.6306658925205
278.11,"Puu Alaea - Cloud forest","Puu Alaea - Cloud forest","Little HaleNet","MA",1993,20.745673,-156.1425145,NA,NA,NA,NA,NA,0.744498027532906,30.9085902397896,22.0576879948073,7.28581154165994,0.856734280169789,0.0295512270780081,0,0.517554856049624,0.297962563886954,0.0742864498795024,0,3.59318505547378,0.249520492091686,2.63629957423764,3.65352369241406,10.7130814598421,5.34862439132393,4.03546943363163,1.33103036506378,2.57095675578671,5.71938758614802,0.709229449872195,8.73396177834592,11.5120037392654,4.55759034860826,5.42992719323734,0.62057576863817,6.80845804764837,0.177307362468049,1.88817873916005,17.0708869844524
278.12,"Puu Alaea - Forest line","Puu Alaea - Forest line","Little HaleNet","MA",2033,20.74567736,-156.1424321,NA,NA,NA,NA,NA,0.846383925897089,35.1384865824125,25.0763223955392,8.28288799691133,0.973979912214978,0.0335953658228536,0,0.58838317192321,0.338739278368143,0.0844526845804056,0,4.08491891349199,0.28366782164376,2.99708192764212,4.15351500176644,12.179185987213,6.08059328978893,4.58773070681356,1.51318427209819,2.92279682658827,6.50209609679199,0.806288779748487,9.92922020638239,13.0874422220693,5.18130481106648,6.17302252683868,0.705502682279927,7.74020781595634,0.201572194937122,2.14657940645124,19.4070686692421
278.2,"Lakes - Forest line","Lakes - Forest line","Little HaleNet","MA",2182,20.735063,-156.1222481,NA,NA,NA,NA,NA,0.69771313018617,28.9662678050442,20.671563881137,6.8279648685213,0.80289636002916,0.0276942025135562,0,0.485031263083469,0.279238339712961,0.0696182253801268,0,3.36738621148593,0.233840409436396,2.47063223813378,3.42393311650632,10.0398621928592,4.12382105767476,3.13873524546325,0.87275710514801,1.60626374578626,3.65564874553902,0.48427283176577,5.45674139794976,7.48054547955354,3.38261098698838,3.88645769270491,0.428884426738676,4.29490471105336,0.151942401603114,1.46784178134198,14.329162809057
278.3,"Lakes - Cloud forest","Lakes - Cloud forest","Little HaleNet","MA",2143,20.73575551,-156.1214124,NA,NA,NA,NA,NA,1.20846962463787,50.1708413774319,35.8040517847926,11.826333466737,1.39065157419161,0.0479675687159166,0,0.840095338724256,0.483653004333433,0.120581807985508,0,5.8324600397291,0.405021805654374,4.2792429786137,5.93040174976427,17.3894799606009,5.78792678330412,4.3669175304232,1.4403528338689,2.78211898552316,10.7796762503718,0.767481099454665,9.45131450681846,14.0165766963252,4.9319221758828,8.12786741760079,3.52980305163983,10.3991467932811,0.451711828465167,2.64955883220007,21.5910809959039
278.4,"Lakes - Alpine","Lakes - Alpine","Little HaleNet","MA",2304,20.73450891,-156.1273482,NA,NA,NA,NA,NA,1.02451210147829,42.5336583432366,30.3538323079219,10.0260871318304,1.17896166991046,0.0406657756438637,0,0.712213053080598,0.410029632316506,0.102226418422642,0,4.94462233081083,0.343367952984203,3.62784146773195,5.02765500711875,14.7423917778558,4.9068680842866,3.70216988897583,1.22109722794185,2.3586149873441,9.138755781167,0.65065241030182,8.01260196342495,11.8829237855167,4.18116752769452,6.89061467394217,2.99248393878636,8.81615186476717,0.382950655281987,2.24623360970375,18.3044102336705
278.5,"Frisbee - Alpine","Frisbee - Alpine","Little HaleNet","MA",2320,20.73857613,-156.1365744,NA,NA,NA,NA,NA,0.165105194369347,16.8660962950031,23.8112353070992,4.36551828603397,0.759267593379673,0.0412762985923366,0,0.660420777477386,0.0412762985923366,0.0412762985923366,0,0.0825525971846733,0.28603813642732,0.308124262583007,1.60398373766306,2.5917189501601,3.96252466486432,2.64168310990955,2.22892012398618,4.78805063671105,10.4016272452688,1.32084155495477,16.0158538742769,19.5649655327676,5.61357660855778,5.61357660855778,1.15573636058543,11.8050213974083,0.330210388738693,2.64168310990955,26.1685232870912
278.6,"Frisbee - Subalpine","Frisbee - Subalpine","Little HaleNet","MA",2191,20.74071537,-156.1350318,NA,NA,NA,NA,NA,0.812033529231484,33.7123950471136,24.0586026647581,7.94672791692267,0.934451046761331,0.0322319016704384,0,0.564503706909142,0.32499158276318,0.0810251818525656,0,3.91913293772862,0.272155194930766,2.87544569389075,3.98494506145714,11.6848950904648,5.83381309338446,4.40153817083529,1.4517718581991,2.80417544532814,6.23820925625924,0.773565640090522,9.52624391839597,12.5562898479386,4.97102213666797,5.92249110021939,0.676869935079206,7.42607235022131,0.19339141002263,2.05946072209335,18.6194349648348
278.7,"Frisbee - Forest line","Frisbee - Forest line","Little HaleNet","MA",2135,20.74195056,-156.1342138,NA,NA,NA,NA,NA,1.06323550420924,44.1412996578381,31.501113702833,10.4050423528192,1.22352279074292,0.0422028167440631,0,0.739132513421656,0.425527489843913,0.10609026226071,0,5.13151382930279,0.356346204299265,3.76496270426621,5.21768488509872,15.2996087918936,7.63849888277074,5.76315076643859,1.90087641468445,3.67164505673349,8.16799470117786,1.01286760185751,12.4731804675378,16.4405688766389,6.50880417821856,7.75460936579309,0.886259151625325,9.72332236952623,0.253216900464379,2.69655338163977,24.3793434757099
278.71,"Frisbee - Cloud forest","Frisbee - Cloud forest","Little HaleNet","MA",2087,20.73622225,-156.1341472,NA,NA,NA,NA,NA,1.03997819426498,43.1757488617819,30.8120554818881,10.1774415117783,1.19675934214145,0.0412796684992468,0,0.722964661721381,0.416219462899817,0.10376963423268,0,5.01926662993931,0.348551455075753,3.68260756827328,5.10355277223777,14.9649437602141,7.47141366475261,5.63708708336942,1.85929647141975,3.59133115943447,7.98932724355794,0.990712043981922,12.2003409856209,16.0809463804844,6.36643000472644,7.5849843365283,0.866873038484182,9.5106335332894,0.247678010995481,2.63756872816485,23.8460675032585
278.8,"Puu Alaea - Alpine","Puu Alaea - Alpine","Little HaleNet","MA",2320,20.74402239,-156.1421477,NA,NA,NA,NA,NA,0.781630053433401,32.1943614200333,17.754020117226,7.87581871113227,0.774181016375328,0,0,0.05583071810239,0.334984308614315,0.05583071810239,0,4.41062673008846,0.311408044541475,3.14264744074838,3.63767486661175,11.8212141635896,NA,NA,NA,NA,NA,NA,NA,NA,NA,NA,NA,NA,NA,NA,NA
278.9,"Puu Alaea - Subalpine","Puu Alaea - Subalpine","Little HaleNet","MA",2075,20.74489428,-156.1421289,NA,NA,NA,NA,NA,0.83288533887941,34.5780790601412,24.6763916908288,8.15078803498745,0.95844635563831,0.0330595688221369,0,0.578999319982112,0.333336881789649,0.0831057876500594,0,4.01977042504984,0.279143734338445,2.94928284975142,4.0872725059379,11.9849457649892,4.92275399515991,3.74682151656349,1.04184164785125,1.91745499168394,4.36387981324062,0.578093953151922,6.51390910071592,8.92979705724948,4.03794478891817,4.63940478168341,0.51197481550767,5.12698272535872,0.181379127286301,1.75221569808807,17.105238680108
279,"POHAKAU PALAHA HN-161","HaleNet","HaleNet","MA",2460,20.73061111,-156.1413056,NA,NA,NA,NA,NA,0,17.272,22.86,5.334,0.762,0,0,0,0,0,0,0,0.508,0.254,1.016,1.524,NA,NA,NA,NA,NA,NA,NA,NA,NA,NA,NA,NA,NA,NA,NA
280.1,"OheoGulchRGatdamnearKipahulu","OheoGulchRGatdamnearKipahulu","USGS","MA",128.016,20.66836111,-156.0522222,NA,NA,NA,NA,NA,0,14.491094639358,60.2456722269371,5.92278441433341,9.99521063097504,0,0,0,0.316109032588805,0,0,0,3.48130949258939,0.634273132233879,0.513994720367162,8.80016150830639,11.6722608605679,6.55180067195023,1.06060894505997,0,0.301947266846866,0,1.3767179776488,2.29621540461033,1.92345930905371,5.87760344886777,0,1.97353162847152,1.26443613035522,0.709095498116321,4.92877021178037
302,"MAALAEA BAY","NWS","STATE","MA",302,20.7903,-156.514,NA,"P36","15DF05C6",NA,NA,0,0,0.253999999999962,10.16,0.254000000000019,0,0,0,0,0.254000000000019,0,1.26999999999998,0,0,0.762,0.254000000000019,0,0,0,0,0,0,0,0,0,0,0,0,0,0,0
307.2,"POHAKEA BRIDGE 307.2","WAILUKU SUGAR","COOP","MA",50,20.81346495,-156.5071787,"USC00518060",NA,NA,NA,NA,0,1.70463490470941,4.03667735910699,NA,NA,5.94741506879851,0,0,0,0,NA,NA,1.75170973592837,0,0.652574055211138,1.76272573054949,4.03889863308663,NA,NA,0.414640922767153,0,0,0,0,NA,0,0.115178034101987,0,0,0,0
311.2,"Kealia Pond NWR","Kealia Pond NWR","RAWS","MA",3.6576,20.7975,-156.4772222,NA,"KPDH1","32B2C438",NA,NA,0,1.09999999999999,0,7.59999999999999,0.200000000000017,0,0,0,0,0,0,1,0,0,0,0,0,0,0,0,0,0,0,0,0,0,0,0,0,0,0
311.5,"Kihei 2","NWS","HydroNet-UaNet","MA",54.5592,20.7061005,-156.437,NA,"KHIH1","93202508",NA,NA,0,0.254,0,8.636,0.254,0,0,0,0,0,0,0,1.778,4.318,0,0,0,0,0,0,0,0,0,0,0,0,0,0,0,0,0
324.6,"KULA AG HN-119","HaleNet","HaleNet","MA",965,20.75788889,-156.3200278,NA,NA,NA,NA,NA,0,19.304,0,37.846,7.62,0,0,0,0,0,0,1.778,9.398,0.762,0.807618608343558,6.19174266396728,0.269206202781186,0,0,3.49968063615542,0.269206202781186,0,0,0,0,0,0,0,0,0,0
324.7,"Kula Branch Stn","NWS","HydroNet-UaNet","MA",944.88,20.7577991,-156.3217,"USC00515000","KBSH1","93220610",NA,NA,0,21.844,0,38.608,7.874,0,0,0,0,0,0,1.778,13.716,0.508,0.762,5.842,0.254,0,0,3.302,0.254,0,0,0,0,0,0,0,0,0,0
328.4,"PU'U PAHU HN-106","HaleNet","HaleNet","MA",960,20.75763889,-156.2775,NA,NA,NA,NA,NA,0.127165590010368,15.0585938066384,0.127351567098659,28.8117342264369,9.90445525714199,0,0,0,0,0,0.0762993540062234,2.30107556206258,6.04011556867033,2.05009525866805,0.0765783196386533,0.458075089669756,0,0,0,0,0.610394832049753,0,0,0.381496770031103,0,0,0,0,0.0762993540062164,0.114449031009335,0.229455993283523
337,"south rim","south rim","CraterNet","MA",2898,20.703948,-156.241101,NA,NA,NA,NA,NA,0,5,2,10.4,2.4,0,0,0,0,0,0,0,0,0,0,0,0,0,0,0,0,0,0,0,0,0,0,0.4,0,0,0.2
337.1,"Sliding Sands","Sliding Sands","CraterNet","MA",2697,20.714563,-156.2394,NA,NA,NA,NA,NA,0,13.0321652794267,1.73695532123449,11.0386618915762,4.07725307653688,0,0,0,0,0,0,0,0,0,0,0,0,0,0,0,0,0,0,0,0,0,0,0.210612085546402,0,0,0.0634118325606355
337.11,"Pohaku Palaha","Pohaku Palaha","CraterNet","MA",2461,20.7300298,-156.140176,NA,NA,NA,NA,NA,NA,NA,NA,NA,NA,NA,NA,NA,NA,NA,NA,NA,NA,NA,NA,NA,NA,0,0,3.2,7.6,1,13.6,14.6,0.2,2.2,0.6,9,0,0,21.4
337.12,"Puu Alaea","Puu Alaea","CraterNet","MA",2282,20.73782363,-156.1453106,NA,NA,NA,NA,NA,0,9.6,15.2,8.4,1,0,0,0,0,0,0,1.8,0.4,1.2,4,3.4,2.8,0.2,0,0.6,1.8,0,4,4,0,0.4,0,4.2,0,0,5.6
337.13,"Paliku","Paliku","CraterNet","MA",1927,20.71236611,-156.1437572,NA,NA,NA,NA,NA,0,21.8,35,14.2,3.2,0,0,0.4,0,0,0,0.6,0,0,0,0.2,0.8,0.6,0.8,1.2,7,0,8.8,16.8,0.2,3.6,0,7.4,0,0.4,23.6
337.2,"Puu o Pele","Puu o Pele","CraterNet","MA",2424,20.709651,-156.224485,NA,NA,NA,NA,NA,0,2.6,3,18.6,2,0,0,0,0,0,0,0,0,0,0,0,0,0,0,0,0.195039517510306,0,0.12738927785152,0.720419031848489,0,0,0,0.581733489791577,0,0,0.645142859720494
337.3,"Lava lake","Lava lake","CraterNet","MA",2270,20.718443,-156.212261,NA,NA,NA,NA,NA,0,3.8,3.4,7.8,0.6,0,0,0,0,0,0,0,0,0,0,0,0,0,0,0,0.2,0,0,1,0,0,0,0.4,0,0,0.4
337.4,"Silversword loop","Silversword loop","CraterNet","MA",2186,20.731704,-156.205387,NA,NA,NA,NA,NA,0,4.8,4.4,5.2,0.4,0,0,0,0,0,0,0,0,0,0,0.2,0,0,0,0,0,0,0,0.2,0,0,0,0.2,0,0,0.2
337.5,"Leleiwi","Leleiwi","CraterNet","MA",2722,20.74337371,-156.2288651,NA,NA,NA,NA,NA,0,16.2,3,22.8,10,0,0,0,0,0,0,0,NA,0,1.6,4,0.8,0,0,0,0,0,0,0.6,0,0,0,1,0,0,0.2
337.6,"Puu Nole","Puu Nole","CraterNet","MA",2261,20.717807,-156.188007,NA,NA,NA,NA,NA,0,1.2,8.6,7.4,0.4,0,0,0,0,0,0,0,0,0,0,0,0,0,0,0,0.4,0,0.4,1.2,0,0,0,1,0,0,1.4
337.7,"Hanakauhi","Hanakauhi","CraterNet","MA",2645,20.73567887,-156.1754875,NA,NA,NA,NA,NA,0,3.4,9.2,1.2,0.2,0,0,0,0,0,0,0,0,0,0.2,0.4,NA,0,0,0,1.6,0,1.8,2.4,0,0,1.4,3.8,0,0,2.8
337.8,"Aloha Park","Aloha Park","CraterNet","MA",2455,20.73555054,-156.1587809,NA,NA,NA,NA,NA,0,0,0,0,0,0,0,0,0,0,0,0,0,0,0,0,NA,0,0,0,0,0,0,0,0,0,0,0,NA,NA,NA
337.9,"Laie","Laie","CraterNet","MA",2051,20.7229056,-156.1544823,NA,NA,NA,NA,NA,0,6.6,23.2,5,0.6,0,0,0,0,0,0,0,0,0,0,0,0,0,0,0.2,2.4,0,4.2,7.6,0,1,0,2.8,0,0,9.8
338.4,"HALEAKALA SUMMIT 338","SMITHSONIAN INST 1","COOP","MA",3037,20.71667,-156.26667,"USC00511008",NA,NA,NA,NA,NA,NA,0,NA,NA,0,0,0,0,0,0,0.3,0,NA,NA,0.8,0,0,0,0,0,0,0,0,0,0,0,0,0,0,0
339.4,"PARK HQ HN-151","HaleNet","HaleNet","MA",2120,20.75980556,-156.2481667,NA,NA,NA,NA,NA,0,24.89,0.254,23.622,12.446,0,0,0,0,0,0,2.032,0,0,0.254,0.254,0,0,0,0,0,0,0,0,0,0,0,0,0,0,0.508
339.5,"NENE NEST HN-152","HaleNet","HaleNet","MA",2590,20.73819444,-156.2458333,NA,NA,NA,NA,NA,0,21.34,1.27,7.112,4.064,0,0,0,0,0,0,0,0,0,0,0,0,0,0,0,0,0,0,0,0,0,0,0.254,0,0,0
339.6,"SUMMIT HN-153","HaleNet","HaleNet","MA",2990,20.71036111,-156.25675,NA,NA,NA,NA,NA,0,14.732,2.286,18.034,6.604,0,0,0,0,0,0,0,0,0,0,0,0,0,0,0,0,0,0,0,0,0,0,0,0,0,0
348.5,"WestWailuaikiRainGagenrKeanae","USGS","USGS","MA",472.44,20.81436111,-156.1429722,NA,"WWKH1","DD5E710A",NA,NA,3.556,106.934,28.448,23.622,1.778,0,0,0.254000000000019,1.524,0.254000000000019,0,20.0659999999999,0.254000000000019,13.716,14.2239999999999,50.292,12.192,9.90600000000006,0.507999999999925,0,0.508000000000038,0,0.508000000000038,3.81000000000006,5.84199999999998,9.14400000000001,0,1.77799999999991,0,1.77800000000002,11.4300000000001
350,"PAAKEA 350","EMI","COOP","MA",390,20.81179461,-156.1171956,"USC00517194",NA,NA,NA,NA,0,35.49131407425,NA,NA,NA,NA,NA,NA,NA,0.72728102611168,NA,NA,NA,NA,5.52733579844877,8.14554749245081,NA,NA,NA,NA,NA,0,NA,NA,NA,NA,NA,NA,NA,NA,NA
353,"Hana AP","NWS","HydroNet-UaNet","MA",19,20.7946,-156.0157,"USC00511125","HNAH1","B150314C",NA,NA,1.01600000000008,2.53999999999996,8.12800000000016,11.6839999999997,15.2400000000002,12.192,12.192,7.8739999999998,5.8420000000001,4.06400000000031,2.79399999999987,2.28600000000006,1.77799999999979,1.52399999999989,1.52400000000034,1.26999999999998,1.52399999999989,2.79399999999987,4.06399999999985,3.55600000000004,4.31800000000021,4.31800000000021,1.26999999999953,1.01600000000053,2.0319999999997,1.52399999999989,0,4.06400000000031,0,0.507999999999811,9.39800000000014
355,"HANA AIRPORT 355","HAWN AIRLINES","COOP","MA",24,20.792,-156.017,"USC00511125",NA,NA,NA,NA,0.8,3,8.6,12.4,14.5,12.4,11.4,7.4,5.3,3.8,2.8,2.3,NA,1.3,1.5,1.5,1.5,2.8,4.1,3.6,4.1,4.1,1,1.3,1.8,1.5,0,4.1,0,0.5,8.9
361.1,"Lahainaluna","NWS","HydroNet-UaNet","MA",238.0488,20.8909,-156.6556,NA,"LAHH1","81700366",NA,NA,0,3.81,0,5.08,0,NA,0.254,0,NA,0,NA,NA,NA,0,0,0,0,0.254,0,NA,NA,NA,NA,0,0,NA,NA,0,0,NA,NA
364,"WAHIKULI 364","PIONEER MILL","COOP","MA",177,20.89679257,-156.6621736,"USC00518955",NA,NA,NA,NA,0,0,4.60417738266683,0.309524529927182,3.52084152792169,0.116071698722693,0,0,0,0,0,0,0,0,0,0,0.696430192336159,0,0,0,0,0,0,0,0,0,0,0,0,0,0
380,"PuuKukuiRainGageatalt","BALDWIN PKRS","USGS","MA",1759,20.89083333,-156.6008333,"USC00514887","PKKH1","DD73556E",NA,NA,0,63.5,9.652,42.672,3.048,0,0,0.508000000000038,0.254000000000019,0.253999999999905,0,0.762000000000057,0.253999999999905,2.03200000000004,4.82600000000002,5.58800000000008,4.82599999999991,3.81000000000006,0.253999999999905,0,0.508000000000152,0.253999999999905,0,1.77800000000002,3.30199999999991,3.04800000000012,0.254000000000019,0.253999999999905,0.254000000000019,1.77800000000002,22.606
386,"WAILUKU 386","WAILUKU SUGAR","COOP","MA",55,20.89345755,-156.4971783,"USC00519484",NA,NA,NA,NA,0,11.9841828288817,19.8438760407702,NA,NA,12.659619006488,0,0,0,1.4389484121115,NA,NA,3.86560098884673,0,3.54583467504417,6.7442602769722,8.83621304245426,NA,NA,1.46099900439608,0,0.199853946126597,0,0,NA,NA,0.522988191370515,0.799415784506388,0,0,0
386.6,"Wailuku","NWS","HydroNet-UaNet","MA",146.9136,20.8831005,-156.5124,NA,"WUKH1","9321D776",NA,NA,0,13.208,1.778,16.002,0.762,0,0,0,0,0,0,2.794,0,0.254,4.064,9.144,1.27,0,0,0,0,0,0,0,0,0,0,0,0,0,0
390,"WAIKAPU 390","WAILUKU SUGAR","COOP","MA",130,20.8491,-156.5092,"USC00519376",NA,NA,NA,NA,0,0,6.6,NA,NA,10.2,0,0,0,0,NA,NA,4.6,0,0.3,2.3,7.6,NA,NA,0,0,0,0,0,NA,0,0,0,0,0,0
390.4,"Waikapu Country Club","NWS","HydroNet-UaNet","MA",145.9992,20.8346996,-156.5135,NA,"WCCH1","9320E016",NA,NA,0,12.446,0.254,8.636,0,0,0,0,0,0,0,3.302,0,0.508,1.524,2.286,0.508,0,0.254,0,0,0,0,0,0,0,0,0,0,0,0
396,"PUUNENE 396","HC&S","COOP","MA",18,20.8717927,-156.4538466,"USC00518543",NA,NA,NA,NA,0,0,3.51075187136365,NA,NA,5.425707437562,0,0,0,0,NA,NA,2.44688766792012,0,0.159579630516529,1.22344383396006,4.04268397308541,NA,NA,0,0,0,0,NA,NA,0,0,0,0,0,0
398,"KAHULUI AIRPORT","NOAA-NWS","NWS","MA",12,20.8887,-156.41,"USW00022516","HOG",NA,NA,NA,0,5.3,0,9.7,0.3,0,0,0,0,0,0,0.3,0,0,7.1,0.8,0,0,0,0,0,0,0,0,0,0,0,0,0,0,0
400,"SPRECKELSVILLE 400","HC&S","COOP","MA",20,20.897526,-156.41427,"USC00518688",NA,NA,NA,NA,NA,3.72070282626815,3.50064532800984,6.34129884266369,NA,NA,NA,NA,NA,NA,NA,NA,NA,NA,NA,NA,NA,NA,NA,NA,NA,NA,NA,NA,NA,NA,NA,NA,NA,NA,NA
406,"PAIA 406","HC&S","COOP","MA",50,20.9051221,-156.3738494,"USC00517566",NA,NA,NA,NA,0,8.09853974349186,16.0340193044846,0.943775898832241,5.3656072049023,4.3249330849171,0,0,0,0,0.249229349071966,0,1.39261624303044,0,1.34776298141204,3.68812335561038,7.69471479265733,5.21402642586339,0.398608088518354,0.494714071870031,0,0,0,0,0.136916539280118,0.245235617772012,0.137420575519453,0.420109589466332,0,0,0.0511241569154475
410,"KEAHUA 410","HC&S","COOP","MA",120,20.85846016,-156.3805162,"USC00513910",NA,NA,NA,NA,NA,2.2658205642177,5.36559854905461,NA,NA,NA,NA,NA,NA,NA,NA,NA,NA,NA,NA,NA,NA,NA,NA,NA,NA,NA,NA,NA,NA,NA,NA,NA,NA,NA,NA
423,"HALIIMAILE 423","MAUI PINE","COOP","MA",326,20.86679262,-156.3405177,"USC00511075",NA,NA,NA,NA,0,4.00931047821399,15.3778081786113,1.11101681487743,10.6832914636811,0.590015848445235,0,0,0,0.260599137877674,0.160368700232415,0,0.160368700232415,0,0.345709223840972,3.27892226029964,5.77403284566827,5.68894238308864,0.100230437645259,0,0,0,0,0.200460875290519,0.0601382625871556,0.100230437645259,0,0,0,0,0.160368700232415
426.6,"Pukalani","NWS","HydroNet-UaNet","MA",495.9096,20.8355007,-156.3307,NA,"PUKH1","15D2B52E",NA,NA,0,13.716,0,21.082,0.508,0,0,0,0,0,0,5.08,0.254,0,0.254,0.254,0,0,0,0,0,0,0,0,0,0,0,0,0,0,0
446,"KAILUA 446","EMI","COOP","MA",213,20.89012208,-156.2121892,"USC00512679",NA,NA,NA,NA,0,24.4,47.367112172799,22.0918201132218,9.82401180472703,0,0,0.0437873516195632,0.509274691021823,0.5,0,4.13332166852336,2.55860328092509,2.75899791754338,3.8,5.6,20.1144705995619,6.90776044337282,0.827226447152497,0,0.460212015547851,0,1.07377702845698,3.58859865650232,2.84845203101508,4.58426175021861,0,1.53926436785922,0.986202325217853,1.90130382379767,5.86657791252856
457.1,"PUUKOLII 457.1","COOP","COOP","MA",128,20.93194,-156.67611,"USC00518407",NA,NA,NA,NA,0,0,11.9,0.8,9.1,0.3,0,0,0,0,0,0,0,0,0,0,1.8,0,0,0,0,0,0,0,0,0,0,0,0,0,0
462.4,"KAPALUA W.MAUI AIRPORT 462.4","KAPALUA W.MAUI AIRPORT 462.4","NWS","MA",73,20.9625,-156.6753,"USC00513317",NA,NA,NA,NA,0,5.3,16.5,0.5,6.6,1,0,0,0,0,0,0,0,0,0.5,3.6,13,0.8,0,0,0,0,0,0,0,0,0,0,0,0,0
465.1,"Mahinahina","NWS","HydroNet-UaNet","MA",223.1136,20.9552002,-156.6562,NA,"MABH1","190524C8",NA,NA,0,19.05,3.048,7.62,0.508,0,0,0,0.508,0,0.508,0,0,0,4.318,18.034,3.048,1.016,0,0,0,0,0,0,0,0,0,0,0,0,0
466,"MAHINAHINA 466","PIONEER MILL","COOP","MA",257,20.94678808,-156.6555055,"USC00515715",NA,NA,NA,NA,0,10.2,14.7,2.5,17,0.3,0,0,0,1.3,0.8,0,0.8,0,0.8,9.7,0,26.9,0.5,0,0,0,0,1,0.3,0.5,0,0,0,0,0.8
474,"FIELD 46 474","MAUI PINE","COOP","MA",319,20.9951177,-156.6391163,"USC00510541",NA,NA,NA,NA,0,9.93489175260294,16.9393256521993,1.64893820099057,14.0619526880602,1.03481712975788,0,0,0,0.489324590308054,0.385201578250766,0,0.385201578250766,0,1.10096379021502,6.05724871052783,11.57476499288,13.6646962990131,0.240750986406729,0,0,0,0,0.481501972813458,0.144450591844037,0.240750986406729,0,0,0,0,0.385201578250766
482,"WAIHEE VALLEY 482","WAILUKU SUGAR","COOP","MA",91,20.94012106,-156.5255102,"USC00519315",NA,NA,NA,NA,0,20.3,36.3,0.80868517018269,5.33732212320575,12.7,0,0,0,3.6,2.40876101787048,1.45362052271609,6.4,0,5.6,10.2,10.2,0.431298757430768,0.48676972101866,1.3,0,0.5,0,0,0.194707888407464,0.24338486050933,0.218070996973305,2,0,0,0
482.4,"KAHAKULOA MAUKA 482","NWS","COOP","MA",334,20.9539,-156.5342,"USC00512450",NA,NA,NA,NA,0,15.3616433250932,27.4693424975804,NA,NA,0,0,0,0,0,5.1,3.3,0,6.4,4.23769471037053,7.71865822246061,1.3,0,0,0,0,0,0,0,NA,NA,0,0,0,0,0
482.5,"Kahakuloa","Kahakuloa","HydroNet-UaNet","MA",335.28,20.9540997,-156.5342,NA,"KHKH1","781001B6",NA,NA,0.254,64.77,23.114,12.954,2.286,0,0,0,0,0,5.08,3.302,0,6.35,12.192,17.272,1.778,0,0,0,0,0,0,0,0,4.064,0,0,0,0,0
484,"WAIEHU CAMP 484","WAILUKU SUGAR","COOP","MA",98,20.91623388,-156.5088444,"USC00519275",NA,NA,NA,NA,0,7.4,10.2,0.61805954743085,4.07919301304361,14.5,0,0,0,0,0.186013472590248,0,2.5,0,2.5,5.1,9.1,0.49444763794468,0.558040417770743,1.8,0,0,0,0,0.148810778072198,0.186013472590248,0.5,0,0,0,0
485,"HAMAKUAPOKO 485","HC&S","COOP","MA",98,20.91345401,-156.3455169,"USC00511086",NA,NA,NA,NA,0,8.69393117427858,18.9429445665516,1.4348643890519,5.11351157292878,0.774774480746785,0,0,0,0.06267249216285,0.23317897480443,0,1.60893492615057,0,1.48074182006076,4.17809822466025,11.8442284582219,0.619819584597428,0.69953692441329,0,0,0,0,0,0.186543179843544,0.349768462206645,0,0,0,0,0.116589487402215
486.7,"HAIKU 3.2 SE","HAIKU 3.2 SE","CoCoRaHS","MA",416,20.92011989,-156.3071849,"US1HIMI0001",NA,NA,NA,NA,0,NA,NA,NA,0,0,0,0,0,0,1,0,6.9,0,4.8,10.4,7.6,0,3,0,0,0,0,0,0.8,1.5,0,0,0,0,0.5
489,"Haiku","NWS","HydroNet-UaNet","MA",99.3648,20.9288998,-156.3225,"USC00510822","AIKH1","50A30568",NA,NA,0,36.322,5.08,17.526,2.286,0,0,0,0,0,0,0.762,0,0,5.842,11.938,12.446,2.032,0,0,0.254,0,0,2.032,1.524,0,0,0,0,1.524,2.286
490.7,"KUIAHA 490.7","COOP","COOP","MA",341,20.89306,-156.30306,"USC00514806",NA,NA,NA,NA,0.392540333856875,21.6739564461697,24.6451315613556,4.23650636251226,14.0874844038333,1.02225251103933,0,0.0280385952754931,0.168231571652946,0.134761177019723,0.380524509403211,2.21504902676378,0.408563104678704,1.51408414487652,2.8210308666902,9.91333573212986,12.7800782333942,14.5922865004376,0.29390500892798,0,0.0560771905509863,0,0.0560771905509863,0.896234565886386,0.787584382362496,1.24721724829469,0,0.196270166928427,0,0.19627016692844,1.64226129680032
492.2,"HALEHAKU 492.2","COOP","COOP","MA",210,20.91,-156.282,"USC00511016",NA,NA,NA,NA,0.420699546924839,40.2846987711538,9.67468736144558,20.1526806397286,2.39735641945001,0,0,0.0450749514562361,0.270449708737397,0.144428384105688,0,4.2548650847945,0.0450749514562361,2.43404737863657,6.09889863159073,14.4787905740776,13.4980150258506,3.60844022613209,0.0901499029124522,0,0.321464542829848,0,0.0901499029124723,2.52664139118251,2.4246117229976,1.62269825242438,0,0.315524660193613,0,1.70341249969789,4.11020457478687
493,"HONOKOHUA 493","MAUI LAND&PINE CO","COOP","MA",38,21.00011804,-156.655505,"USC00511887",NA,NA,NA,NA,0,5.47436986162253,9.62924231729481,0.937346965846944,7.99358561656119,0.588246846487211,0,0,0,0.355825789525251,0.218969716630924,0,0.218969716630924,0,0.472036318006231,4.47708734405216,6.579731635758,7.7677632839153,0.136856072894327,0,0,0,0,0.273712145788654,0.0821136437365963,0.136856072894327,0,0,0,0,0.218969716630924
494,"HONOLUA FIELD 49 494","MAUI LAND&PINE CO","COOP","MA",61,21.010978,-156.633839,"USC00511914",NA,NA,NA,NA,NA,NA,14.7055003486578,1.1138922303947,9.49914304489921,0.699040606873084,0,0,0,NA,0.260211719815545,0,0.260211719815545,0,NA,NA,7.81899575524931,9.2307880483515,0.162632324884715,0,0,NA,0,0.325264649769431,0.0975793949308293,0.162632324884715,0,0,0,0,0.260211719815545
497,"NAKALELE FIELD 60 497","MAUI LAND&PINE CO","COOP","MA",104,21.02511528,-156.6005068,"USC00516645",NA,NA,NA,NA,NA,NA,8.24843683363664,1.40279537987018,9.53900858311721,0.168335445584421,0,0,0,NA,0.448894521558457,0,0.448894521558457,0,NA,NA,0,15.0940782874031,0.280559075974036,0,0,NA,0,0.561118151948071,0.168335445584421,0.280559075974036,0,0,0,0,0.448894521558457
499.11,"LUA MAKIKA","RAWS","RAWS","KO",335.28,20.5625,-156.5630556,"USR0000HLUA","HLUA",NA,NA,NA,0.151680255069508,4.17195738752885,2.37158996278284,9.46118893836635,2.05790188316782,0,0,0,0,0.151680255069508,0.15168025506948,0.101120170046358,0.404480680185317,2.74229116645511,0,2.67215370483684,8.2075143822632,0.252800425115838,0.252800425115838,0.252800425115838,0.404480680185346,0.252800425115838,0.353920595162167,0.80896136037069,1.35479472614948,0.67879574711725,0,0,0.252800425115838,0,0
499.12,"KEALIALALO","RAWS","RAWS","KO",251.46,20.54361111,-156.6408333,"USR0000HKLL","KLLH1","32792006",NA,NA,0.189480740457468,0.315801234095768,1.57900617047884,9.15823578877727,0.442121727734068,0,0,0,0,0.189480740457468,0.189480740457432,0.126320493638336,0.5052819745532,0.126320493638336,0,2.27376888548951,8.33715258012827,0.315801234095768,0.315801234095768,0.315801234095768,0.505281974553236,0.315801234095768,0.442121727734068,1.01056394910647,0.947403702287304,0.315801234095768,0,0,0.315801234095768,0,0
499.13,"HAKIOAWA","RAWS","RAWS","KO",365.76,20.58027778,-156.5711111,"USR0000HHAI","HKIH1","3279159C",NA,NA,0.300000000000011,0.5,2.5,14.5,0.699999999999989,0,0,0,0,0.300000000000011,0.299999999999955,0.200000000000045,0.799999999999955,0.200000000000045,0,3.59999999999997,13.2,0.5,0.5,0.5,0.800000000000011,0.5,0.699999999999989,1.60000000000002,1.5,0.5,0,0,0.5,0,0
499.9,"KANELOA","RAWS","RAWS","KO",248.412,20.52222222,-156.5658333,"USR0000HKAN","KAOH1","32793370",NA,NA,0,4.60000000000002,1.29999999999998,2.5,2,0,0,0,0,0,0,0,0,3.09999999999999,0,1,1.80000000000001,0,0,0,0,0,0,0,0.699999999999989,0.5,0,0,0,0,0
511,"MAUNALOA 511","MOLOKAI RANCH CO","COOP","MO",314,21.13348648,-157.2121842,"USC00516190",NA,NA,NA,NA,0,0,0,NA,NA,NA,0,0,5.3,0,NA,NA,NA,11.4,11.9,10.7,1,NA,NA,NA,NA,NA,NA,NA,NA,NA,NA,NA,NA,NA,NA
524,"MOLOKAI KAUNAKAKAI MOLOKAI AIRPORT","ALOHA AIRLINES","NWS","MO",141,21.15514996,-157.0924625,"USW00022534","HMK",NA,NA,NA,0,0,2.3,12.4,1.3,0,0,0,0,0,0,0,5.6,0,3,1.3,0,0,0,0,0,0,0,0,0,0,0,0,0,0,0
536,"KAUNAKAKAI 536","MOLOKAI RANCH","COOP","MO",3,21.08876308,-157.0216311,"USC00513541",NA,NA,NA,NA,0,0,0,0,10.9,0,0,0,0,0,0,0,0,0,1.5,0,0,0,0,0,0,0,0,0,0,0,0,0,0,0,0
536.5,"Kaunakakai Mauka","MOLOKAI GEN HOSP","HydroNet-UaNet","MO",28.3464,21.0946007,-157.0174,NA,"KACH1","50A0F2E2",NA,NA,0,0,0.254,13.208,1.27,0,0,0,0,0,0,0,0,1.016,0,0,0,0,0,0,0,0,0,0,0,0,0,0,0,0,0
536.6,"KAUNAKAKAI 3.5 ESE","KAUNAKAKAI 3.5 ESE","CoCoRaHS","MO",13,21.068,-156.963,"US1HIMI0002",NA,NA,NA,NA,NA,NA,NA,NA,NA,NA,NA,NA,NA,NA,NA,NA,NA,NA,0,0,0,0,0,0,0,0,0,0,0,0,0,0,0,0,0
538,"MOLOKAI 1","RAWS","RAWS","MO",833.0184,21.115,-156.9475,"USR0000HMLK","MLKH1","487016AC",NA,NA,0,4.79999999999995,0.200000000000045,15.3,5.10000000000002,0,0,0,0,0.200000000000045,0.299999999999955,0,0,1.80000000000007,0.199999999999932,0.5,0.300000000000068,0.699999999999932,0,0,0,0,0,0,0,0,0,0,0,0,0
541.2,"Puu ALII WEST","Puu ALII WEST","RAWS","MO",1159.764,21.14083333,-156.9022222,NA,"PAFH1","32D6062E",NA,NA,2,32,4,24,9,0,0,0,1,4,3,1,7,33,16,22,17,7,2,0,0,0,2,5,3,0,0,0,0,0,5
542.11,"Kamalo","NWS","HydroNet-UaNet","MO",8.8392,21.052,-156.871,"USC00513045","KMLH1",NA,NA,NA,0,3.048,0,6.858,0,0,0,0,0,0,0,0,0,0,0.254,0.3,0.254,0,0,0,0,0,0,NA,0.508,0,0,0,0.254,NA,NA
550.3,"MAUNALOA 3.2 NNW","MAUNALOA 3.2 NNW","CoCoRaHS","MO",93,21.1804,-157.2319,"US1HIMI0006",NA,NA,NA,NA,0,0.5,NA,0,15.7,NA,0,NA,6.4,NA,0,0,NA,1,5.8,6.9,NA,0,0,0,0.3,0,NA,NA,NA,0,0,NA,0,NA,0
553,"MAKAPULAPAI","RAWS","RAWS","MO",22.86,21.20333333,-156.9661111,"USR0000HMAK","MKPH1","FA9024CE",NA,NA,0.5,NA,NA,35.6,7.80000000000001,0,0,0,0.299999999999955,1,0,0,0,0,5.90000000000003,7.59999999999997,3,1,0.300000000000011,0,0,0,0,0.300000000000011,0,0,0,0,0,0,0
563,"KALAUPAPA 563","CIVIL AIR PATROL","COOP","MO",9,21.19014673,-156.9824624,"USC00512896",NA,NA,NA,NA,0,3.8,12.7,NA,NA,NA,0,0,0,0,NA,NA,NA,0,3.8,7.1,17.3,NA,NA,NA,NA,0,1.3,0,NA,NA,NA,NA,0,0,0
672.1,"Lanai City","NWS","HydroNet-UaNet","LA",498.0432,20.8262997,-156.9182,"USC00515286","LANH1",NA,NA,NA,0,38.862,2.794,5.334,0.254,0,0,3.048,0,0.254,0,0.3,4.572,4.572,0,8.89,6.35,NA,0,0.254,0.254,0,2.3,0.254,0,0,0,0.762,0.254,0,0
679,"LANAI 1","RAWS","RAWS","LA",387.096,20.87333333,-157.0063889,"USR0000HLAN","LNIH1","48702336",NA,NA,0,4.90000000000001,5.29999999999998,6.09999999999999,0.300000000000011,0,0,0.5,0,0.199999999999989,0,0,1.80000000000001,0.5,0,1.30000000000001,3,0.799999999999983,1,1.5,0,0,1.30000000000001,0,0,0,5.09999999999999,5.59999999999999,0,0,0
702.2,"HONOLULU OBSERV 702.2","USC&GEODETIC SURVEY","COOP","OA",2,21.313926,-157.999529,"USC00511918",NA,NA,NA,NA,0,0,NA,NA,0,0,0,2.3,0,0,0,0,0,0.3,NA,0,1.5,0,0,0,0,0,1.3,0,0.3,NA,0,2.3,0,0,0
702.7,"Kapolei-Kalaeloa AP","NWS","NWS","OA",15,21.31667,-158.06667,"USW00022551","HJR",NA,NA,NA,0,0.3,0,8.1,4.6,0,0,0,0,0,0,0,0,0,0,0,0,0.5,0,0,0,0,0,0,0,0,0,0,0,0,0
702.8,"PTWC","NWS","HydroNet-UaNet","OA",1.524,21.3150005,-157.9992,NA,"PTWH1",NA,NA,NA,0,0,0,15.494,0.508,0,0,2.286,0,0,0,0,0,0,0.254,0,0,1.524,0,0,0,0,1.27,0,0,0.254,0,2.286,0,0,0
703,"HONOLULU INTERNATIONAL AIRPORT","USWB","NWS","OA",2.1,21.324,-157.9294,"USW00022521",NA,NA,NA,NA,0.3,0,0,6.1,0.8,0,0,0.3,0,0,0,0,0,0,0,0,0,0.3,0,0,0,0,0,0,0,0,0,0,0,0,0
703.1,"HONOLULU FIRE STATION 703.1, HI US","COOP","COOP","OA",1,21.3287,-157.9298,"USC00511925",NA,NA,NA,NA,0.5,0,0,7.1,0.5,0,0,0,0.568520375072357,0,0,0,0,0,1,0,0,0.3,0,0,0,0,0,0.57766713826005,0,0,0,0.098564547173598,0.5,0,0
705,"BERETANIA PUMP STN 705","BWS","COOP","OA",6,21.305169,-157.8522571,"USC00510211",NA,NA,NA,NA,0.3,0,0,8.9,0.3,0,0,0.8,0,0,0,0,0,0.5,0.5,0,0.5,1.5,0,0,0,0,0,0,0,0.3,0,2.8,0,0,0
705.12,"Aloha Tower","NWS","HydroNet-UaNet","OA",38.1,21.3034,-157.8627,NA,"ALOH1",NA,NA,NA,0.254,0,0,7.874,0.254,0,0,0.762,0,0,0,0,0,0.508,0.254,0,0.508,1.524,0,0,0,0,0,0,0,0.254,0,0.254,0,0,0
706.5,"Niuhelewai HCC JD","J_Delay","PrivateObs","OA",2,21.32180556,-157.8694722,NA,NA,NA,NA,NA,0,0,0,12.5,0.6,0,0,0,0,0,0,0,0,0,0,0,0,1.8,0,0.3,0,0,0,1.6,0,0,0,2.2,0.3,0,0
707.2,"EWA KALAELOA AIRPORT","LYDECKER RC","STATE","OA",14,21.30489073,-157.8305905,"USW00022551",NA,NA,NA,NA,0,0.3,0,8.1,4.6,0,0,0,0,0,0,0,0,0,0,0,0,0.5,0,0,0,0,0,0,0,0,0,0,0,0,0
707.5,"HONOLULU 2.0 SW","CoCoRaHS","CoCoRaHS","OA",12,21.3004,-157.8293,"US1HIHN0023",NA,NA,NA,NA,0.3,1,0,0,8.9,0,0,0,0.5,0,0,0,0,0.32395528729368,1.8,0,0.5,3.3,0,0,0,0,0,0.3,0.5,0.3,0.5,0,3.8,0,0
709,"PUNCHBOWL CRATER 709","T MEM CEMETERY","COOP","OA",108,21.31016855,-157.846146,"USC00518316",NA,NA,NA,NA,0.389678318209785,1.29303512907662,0.202095042269241,0,7.20109645883066,0,0.161676033815393,0,0.142819752810465,0.0606285126807724,0.405033987658126,0.0606285126807724,0,0.277603284317559,1.19553661710805,0.739113257386311,0.376695404523673,3.21496879235301,0.565866118353876,0.440685601982167,0,0,0,0.0856918516862793,0.142819752810465,0.349259309755936,0.203448265491238,1.01891424254264,1.52695962646135,0.101891424254264,0.169819040423773
711.6,"ManoaRGatKanewaiFld,Honolulu","USGS","USGS","OA",11.5824,21.29322222,-157.8127222,NA,NA,NA,NA,NA,0.700116506088197,1.58628007218125,0,4.0114793156518,2.96250185045602,0,0,0,0,0.0596080327675727,0.218843385671877,0,0,0.247896507991082,0.943158905794553,0.0596080327675727,1.86302721926499,2.88217164244957,0.357648196605436,0.30069987669714,0,0,0.0596080327675727,0.178824098302718,0,0.287868775567039,0.104790209555706,2.63143790804862,0.597986009391769,0.0902099630091421,0.15034993834857
711.7,"H-1RainGageatKapiolaniAve","USGS","USGS","OA",6.096,21.28944444,-157.8155556,NA,NA,NA,NA,NA,0.39288956835622,1.02541678787505,0,4.70882013764109,2.26962450032521,0,0,0.270165074744981,0,0,0.126748599413641,0,0,0.25327975757342,0.912596021226262,0,1.24225415305268,2.57295899776558,0,0.23935192480857,0,0,0,0,0,0.283003524414079,0.0549430219710702,2.43283584362813,0.475986568164352,0.0718055774425711,0.119675962404285
712.1,"MANOA 712.1","BEAUMONT MRS J","COOP","OA",61,21.31044568,-157.8147571,"USC00516122",NA,NA,NA,NA,1.3,2.8,0,0.3,11.7,0,0,0,0,0,0.8,0,0,0,7.9,0.8,2,6.9,1.3,0,0,0,0,0,0,0,0.5,0,0,0,1.5
713,"UNIV OF HAWAII 713","UH MET DEPT","COOP","OA",24,21.29933514,-157.8167017,"USC00518815",NA,NA,NA,NA,0.3,1.3,0,0,8.6,0,0,0,0,0,0.3,0,0,0.435285255189675,1.36453332026178,0.236123417486876,0.285475288925171,2.73890694509871,0,1,0,0,0,0,0,0.3,0,3,1.3,0.3,0.5
715,"WAIALAE KAHALA","TINKER SPENCER","COOP","OA",15,21.27433592,-157.7880917,"USC00519185",NA,NA,NA,NA,0,2.5,0,0,9.1,0,0,0,0,0,0,0,0,0,0.3,0.3,1.3,0.8,1.3,0.5,0,0,0,0,0,0,0,0,0,0,0
716,"MANOA TUN 2 716","BWS","COOP","OA",198,21.32794416,-157.7914236,"USC00516130",NA,NA,NA,NA,4.1717026542632,8.25221070604635,0.68367552567633,8.26708260721142,0.395753065395492,0,0,0.490007767142258,0.251345871324708,1.04354483595632,0.594668848854186,0,3.67249483506889,3.53371409971098,4.10151990573357,2.23743772474869,10.8884615954572,6.16661612595098,3.38624680637349,0.374741211445067,0.123395340120359,1.24632297665838,2.84767130860858,3.98160848906831,0.676932408934426,0.635107795053674,1.13393718045973,7.47600030060883,0.0942547017467655,0.366612427021899,1.78856173764655
717.2,"WAIKIKI 717.2","PURINTON J","COOP","OA",3,21.27183682,-157.8180917,"USC00519397",NA,NA,NA,NA,0.3,0.8,0.0674943472583035,0,8.9,0,0,0,0,0,0,0,0,0,0.3,0,0,3,0,0,0,0,0,0,0,0,0,0,0,0,0.5
718,"PALOLO VALLEY 718","BWS","COOP","OA",302,21.32183297,-157.7717015,"USC00517664",NA,NA,NA,NA,0.3,0,0.3,0,0.3,0,0,0.3,0,0.3,0,0,0.3,0,0,0.3,0,0,0.3,0,0,0.3,0,0,0,0.3,0,0,0,0.3,0
720.6,"HONOLULU 2.7 SSE","CoCoRaHS","CoCoRaHS","OA",113,21.285,-157.7816,"US1HIHN0010",NA,NA,NA,NA,7.4,0.5,0.3,0,7.6,0,0,0,0,0,0,0,0,0,0.8,0.5,0.5,5.1,0.5,0,0,0,0,0,0,0,0,0,14,0,0.5
721,"WILHELMINA RISE 721","BWS","COOP","OA",335,21.29766804,-157.7853133,"USC00519980",NA,NA,NA,NA,0.3,0.3,0,0.3,0,0,0,0.3,0,0.5,0.8,0,0,0.3,4.8,0.5,4.3,6.1,0,0.3,0,0,0,0,0,0.5,0.5,7.6,1,0.3,0.8
721.4,"Palolo Fire Stn","NWS","HydroNet-UaNet","OA",59.436,21.2996006,-157.7944,"USC00517662","PFSH1","19014414",NA,NA,1.016,3.302,0,7.874,0.508,0,0,0,0,0,0.254,0,0,0,2.032,0,3.048,5.588,0,0,0,0,0,0,0,0.508,0.254,3.556,0.762,0,0
723.4,"PAIKO DRIVE 723.4","GRUBB DL","COOP","OA",3,21.28172556,-157.7282194,"USC00517540",NA,NA,NA,NA,14.5,0,2.8,6.6,0,0,0,0,0,0.5,0,0,0,1.3,0,1.8,5.3,0.5,0,0,0,0,0,0,0,0,0,0,0,0,0
723.8,"Niu Valley","NWS","HydroNet-UaNet","OA",19.812,21.2896996,-157.7332,"USC00516865","NIUH1","1900D38C",NA,NA,4.826,6.35,2.54,7.62,0.508,0,0,0,0.254,2.54,0.254,0,0.508,0.254,4.572,0,3.556,9.652,0,0,0,0,0,0,0,0.508,0,0,0,0,0
724.19,"HAWAII KAI GC 724.19","UNOAA-NWS","COOP","OA",9,21.29889,-157.66444,"USC00511308",NA,NA,NA,NA,5.588,1.524,0,18.542,0,0,0,0,0,4.318,2.032,0,1.524,0.254,2.794,0,1.524,4.572,0,0,0,0,0,0,0,0,0,0,0,0,0
724.21,"Kamehame","NWS","HydroNet-UaNet","OA",242.316,21.3085995,-157.6791,NA,"KMHH1","190046EE",NA,NA,1.778,0.254,3.556,14.224,0,0,0,0,0,2.286,0,0,1.524,1.016,4.572,0,2.286,8.636,0,0,0,0,0,0,0,0,0,4.064,0,0,0
728.2,"PALEHUA","RAWS","RAWS","OA",722.376,21.385,-158.1041667,NA,"PLHH1","4870F55E",NA,NA,2.30000000000001,1.19999999999999,0.300000000000011,6.59999999999999,1,1,0.299999999999997,0,0,0,0.5,0,0.5,0.299999999999997,1.2,0,1.3,2.30000000000001,0,0,0,0,0.5,0,0,0,7.59999999999999,3.09999999999999,0.700000000000017,0,0
734.5,"HONOULIULI STREAM TRIBUTARY NEAR WAIPAHU 4WNW","NWS","STATE","OA",195.72,21.4019,-158.067,NA,"HOUH1","DD7ED01C",NA,NA,0,0,0,0,0,0,0,0,0,0,0,0,0,0,0,0,0,0,0,0,0,0,0,0,0,0,0,0,0,0,0
740.5,"Kunia","NWS","HydroNet-UaNet","OA",85.0392,21.3869991,-158.0358,NA,"KUNH1",NA,NA,NA,0,0,0,5.08,0.762,0,0,0,0,0,0,0,0,0,1.016,0,0,0.762,0,0,0,0,0,0,0,0,0,2.794,0,0,0
741,"EWA PLANTATION 741","EWA PLANTATION","COOP","OA",12,21.3401713,-158.0339215,"USC00510507",NA,NA,NA,NA,0,0,0,NA,0,0,0.717510279065223,1.67244449839898,0,0.165579295168897,0,0,0,0.494110426521942,0.88308957423412,0,1.0907246728689,0,0,0,0,0,0.94529471648638,0.275965491948163,0.43628986914756,NA,0,1.94840999034714,0,0,0
742.4,"HONOULIULI PHB","FWS","RAWS","OA",1.524,21.35666667,-158.0205556,NA,"HOFH1","327BF39A",NA,NA,0,0,0,2,1,0,0,0,0,0,0,0,0,0,0,0,0,1,0,0,0,0,0,0,0,0,0,0,0,0,0
750,"WAIPAHU 750","OAHU SUGAR","COOP","OA",18,21.38683459,-158.0072536,"USC00519738",NA,NA,NA,NA,0,0,0,NA,NA,NA,1.3,0,0,0.3,NA,NA,NA,0.5,0.8,0,0,NA,NA,NA,0,0,0,0.5,NA,NA,NA,0.5,0,0,0
752.6,"WAIAWA PHB","FWS","RAWS","OA",1.524,21.38694444,-157.9811111,NA,"WWFH1","3274C092",NA,NA,0,0,0,2,1,0,0,0,0,0,0,0,0,1,0,0,0,0,0,0,0,0,0,0,0,0,0,0,0,0,0
764.6,"AIEA HEIGHTS 764.6","G FOWLER","COOP","OA",238,21.39488776,-157.91031,"USC00510123",NA,NA,NA,NA,1.8,4.1,1,0,10.7,0,0,0,0.5,0.8,2.8,0,0,1.5,3.3,1.3,0.8,6.4,2.3,0.5,0,0,0,0,0.3,0.8,0.3,0,3.8,0,0.5
764.7,"AIEA 0.7 ENE","CoCoRaHS","CoCoRaHS","OA",175,21.393,-157.9186,"US1HIHN0014",NA,NA,NA,NA,1,2.8,1,0,8.6,0,0.8,0,0,0.3,1.5,0.3,0,0,2,2.8,0.3,2.5,2.8,0.5,0,0,0,0,0,0.8,0.3,0,0,0,0
770,"MOANALUA 770","ROXBURGH J","COOP","OA",6,21.34794527,-157.8950332,"USC00516395",NA,NA,NA,NA,0.3,1.3,0,2.3,10.9,0,0,0,1.3,0,0,0,0,0.5,0.8,0,0,2,0.5,0,0,0,0,1.5,0,0.5,0,0.3,20.8,0,0
771.11,"N.HalawaValleyRGattunnel","USGS","USGS","OA",335.28,21.40488889,-157.8504444,NA,"TNLH1","DD75A524",NA,NA,12.192,47.244,2.54,13.716,0.254,0,0,1.26999999999998,1.77800000000002,2.286,4.82599999999996,0,16.002,21.336,10.414,8.63600000000002,21.844,14.478,8.38199999999995,12.446,0.253999999999962,0.762000000000057,12.954,5.33399999999995,3.048,0.762000000000057,3.80999999999995,1.27000000000004,5.58799999999997,1.01599999999996,2.47736121743047
771.9,"NHalawaRainGagenrHonolulu","USGS","USGS","OA",210.312,21.382,-157.9033333,NA,NA,NA,NA,NA,1.85803939269536,1.67494966145171,0,9.54498421106456,0.530833791385377,0,0,0.683719933638509,0,0.370683777716001,0.685821114980778,0,0,1.26097010903697,2.48693559840466,0.0843689420744485,3.18662869991969,4.11558506472995,2.46441664080825,0,0,0,0.420884382982807,1.14831823275087,0.121779314177194,0.299105068805613,0.193778783065445,3.1557050169542,0.0715787089103882,0.980723821101852,0
772,"MoanaluaRaingagenrHonolulu","USGS","USGS","OA",103.058976,21.37823611,-157.8700306,NA,NA,NA,NA,NA,6.23384702715713,13.0263415612787,0.577763948872766,15.5529069386417,0.443613351605256,0,0,1.5537924806161,0.395708074859554,1.45015497040141,2.12850672502934,0,4.35156943924528,8.22056466700966,7.20356018737501,2.78746424963756,11.8550969440025,8.61601942202427,5.34915608135271,2.37485814126219,0.0471226206286272,0.668165705558797,4.01237625397179,3.200921566209,0.763020638920943,0.631045045992473,1.12109040611269,8.54699457111825,1.17797347171243,2.3447484103181,0.395098382754663
772.1,"N.HalawaRaingagenrAiea","USGS","USGS","OA",97.536,21.39295833,-157.8908639,NA,NA,NA,NA,NA,2.03944451833742,1.83847926958289,0,10.4768853682019,0.58266044855954,0,0,0.750473254883086,0,0.406874580523737,0.752779579919773,0,0,1.38408183743197,2.72974146488193,0.0926060971086593,3.4977473887678,4.51740013317953,2.70502392401104,0,0,0,0.461976398941101,1.26043147109672,0.133668939271133,0.328307459669968,0.212697899972734,3.46380454775015,0.0785671208537694,1.07647438951637,0
772.3,"MoanaluaRGNo.1atalt1000","USGS","USGS","OA",304.8,21.39338889,-157.8401111,NA,"MOGH1","1689664A",NA,NA,10.922,40.386,1.524,14.478,0.508,0,0,1.73333969909068,2.4173008789709,2.25075250673435,3.25540150913227,0,15.2374245199743,14.467478173946,8.35076808333551,5.05145115384923,18.4647517993617,13.7786740141378,7.68011549139737,4.11118188881792,0.0761480738014047,1.07972627115627,7.5767904819562,8.08859018391822,1.6432816787683,0.745128502117568,3.40641174193074,9.10560888132985,1.67525762363114,1.04946408873865,0.638461537314001
772.5,"Moanalua Stream","USGS","HydroNet-UaNet","OA",72.2376,21.3736,-157.8801,"USC00516400","MOAH1","1900B66A",NA,NA,2.54,2.286,0,11.938,0.254,0,0,1.778,0,1.016,1.27,0,0,1.27,5.334,0,6.096,5.334,4.572,0,0,0,0.762,1.016,0,0.762,0.508,7.366,0.254,3.048,0
772.6,"MoanaluaRaingagenrKaneohe","USGS","USGS","OA",350.52,21.38823333,-157.8486389,NA,NA,NA,NA,NA,10.7562627409698,24.1681852742252,3.26491677996702,19.5196312678452,0.557437770520703,0,0,0.487813548781458,0.572043783851428,2.04695634206363,3.98529392639921,0,5.7988108889339,14.7874267150701,10.4502331563683,4.14986038007059,27.5419135382284,14.0657256029686,5.33108460156987,0.572043783851428,0.0749358368661153,2.10026551348361,5.35077251847222,6.98848988058789,1.6337781986838,1.25422130982161,0.977104835247328,16.7969832185791,0.109495632483493,1.38222755298752,2.28175802684539
773,"KAPALAMA 773","KAMEHAMEHA SCH","COOP","OA",188,21.33933391,-157.8567005,"USC00513268",NA,NA,NA,NA,2.5,0.3,0.5,1.0380846373435,11.5859181658521,0,0.3,0.3,0,0,0.843412046667902,0,0,3,3.6,0.5,0.8,4.08306821502855,0.80463288827404,0.58782256920168,3,0.5,0,0,0.07551682368763,0.565637128752579,0.07551682368763,1.52128593316822,0.5,1.5,0
775,"NUUANU RES 5 775","BWS","COOP","OA",125,21.339125,-157.835905,"USC00516933",NA,NA,NA,NA,2.8,2.5,0,15.7,2,0,0,0,0,0.5,0.5,0,0,0.3,1.5,0.5,6.9,6.1,3,0,0,0,0.5,1.5,0,0.5,0.3,6.4,0,0,0
777,"KALIHI RES SITE 777","BWS","COOP","OA",277,21.37516437,-157.8222555,"USC00512960",NA,NA,NA,NA,2.3,2.8,1,3.6,0.3,0,0,0.3,0,0.5,0.3,0,4.6,0.8,0.5,0.5,1.8,3,2.3,0.3,0.3,0,1.5,2.5,0.5,0.5,1,7.1,0,0,0.3
777.3,"Wilson Tunnel","NOAA-NWS","HydroNet-UaNet","OA",314.5536,21.3771,-157.8166,NA,"WITH1",NA,NA,NA,9.93714371744187,13.8936533008254,8.90270645125865,22.6123371386573,1.08017123027908,0,0,0.979384644338698,1.36435050744623,1.54774129293113,3.32166754442481,0,8.38793919909814,7.85615832727747,6.86332215352938,2.43395420929044,19.2212816062104,11.3908408800767,5.1617809161241,0.275095476567976,0.0591797762796665,0.793932187378079,4.33121906767243,6.53344991711256,1.35673374374337,1.14345575282894,2.11288419425153,9.8090742535671,0,0.716883080060694,0.994912630421308
780.5,"TANTALUS 2 780.5","NEWMAN N","COOP","OA",404,21.32711168,-157.8239234,"USC00518738",NA,NA,NA,NA,4.08328027442143,9.31472407799702,0.876588193191886,6.01301166402249,8.02934984444442,0,0,0.222704135704537,0.591403189892812,1.23019287685178,2.48228495790035,0,0.983609932695038,2.63038326186511,7.43259722077734,2.12650407794191,7.27609787930838,9.12480673354613,3.75602890453303,0.591403189892812,0,1.00216861067042,1.97649920437776,2.61677359452831,0.638789686958972,0.868298656331911,0.861493822663508,4.03651245964473,2.88562686272009,0.222704135704537,1.84411395323083
781,"KANEOHE MAUKA 781","STATE HOSPITAL","COOP","OA",61,21.40849568,-157.8105878,"USC00513113",NA,NA,NA,NA,2.6851781868384,1.84654379252149,4.01391398196742,1.21807519596169,6.94786406569427,0,0,0.138867403387409,0.285193577478821,0.471926715539184,0.535238165412515,0,1.16798069885591,1.18964045986769,4.29062040731015,0.364979123984626,1.07247716138393,2.07265551311871,1.79394825721708,0.0717986020094304,0.250044587933694,0.0670688013779786,0.822432573450237,1.061761246815,2.65075733680692,0.364979123984626,0.239328673364768,9.11426659533921,1.06947591554558,1.35043990003267,0.0717986020094304
781.11,"LulukuRaingageatalt","USGS","USGS","OA",67.056,21.39184444,-157.809475,NA,NA,NA,NA,NA,5.334,15.494,21.59,22.606,0.508,0,0,1.524,3.302,1.524,1.778,0,15.24,4.318,2.794,1.016,8.89,8.636,5.842,0.508,0,0.391649479259078,3.302,7.112,0.762,0.762,3.81,3.556,0,0,0
781.13,"KANEOHE 0.8 SW, HI US","CoCoRaHs","CoCoRaHs","OA",20,21.4039,-157.8017,"US1HIHN0027",NA,NA,NA,NA,NA,NA,NA,NA,NA,NA,NA,NA,NA,NA,NA,NA,NA,NA,3,0,3.3,6.4,6.4,0.3,0,0,NA,0.3,3,0.5,0.3,0,0.3,NA,0
781.7,"LULUKU 781.7","NWS","COOP","OA",84,21.3873,-157.8098,"USC00515655",NA,NA,NA,NA,NA,NA,NA,NA,0,0,0,NA,NA,NA,NA,NA,NA,NA,NA,NA,NA,NA,NA,0.5,0,NA,NA,NA,NA,2.3,2.3,3.6,0,0.3,NA
781.9,"RBKamooaliiRaingagenrKaneohe","USGS","USGS","OA",59.484768,21.38628889,-157.7928083,NA,NA,NA,NA,NA,4.2559863067839,9.81188594931313,8.9029538229606,11.9055498606485,0.24546664985547,0,0,0.512588418459549,1.4338915627056,1.08455122017708,1.04564288374986,0,6.96611232925191,6.20211190134767,3.07838895330807,1.41104737203915,8.16263227103928,5.56553812998569,3.10884787419667,0.494146128863094,0,1.49207687404574,2.13019410392695,3.90902410809107,0.455237792435874,0.380633948733587,1.40581078565268,5.37385489040036,0.0746038437022872,0.323283322709911,0.696302541221347
782.3,"Nuuanu Upper","NWS","HydroNet-UaNet","OA",248.412,21.3502007,-157.8184,"USC00516938","NUUH1","156097FE",NA,NA,9.906,13.208,1.016,22.86,0.762,0,0,1.27,0.254,1.778,2.032,0,5.334,13.716,8.89,4.572,17.018,11.43,4.826,0.254,0,2.032,4.572,6.35,0.762,0.254,0.508,16.256,0,1.778,1.524
783,"NUUANU RES 4 783","BWS","COOP","OA",320,21.35266525,-157.807534,"USC00516928",NA,NA,NA,NA,9.9,18.5,6.6,17.3,0.3,0,0,0,1.3,2.3,1.8,0,7.4,19.1,8.6,4.3,20.8,10.7,4.6,1.3,0,3,4.1,6.1,0.8,0.5,0.5,16.8,0.3,1.3,2.8
784,"PAUOA FLATS 784","BWS","COOP","OA",549,21.33516641,-157.8105899,"USC00517810",NA,NA,NA,NA,9.9,22.6,0.5,21.6,0.5,0,0,0.8,0.8,2.3,1.5,0,5.3,10.2,12.4,6.1,32.3,15.7,7.4,0.8,0,3.6,7.1,9.4,1.5,1,2.3,14.5,0.3,0.8,5.3
785.11,"WAIHI STREAM NEAR HONOLULU 3NE","USGS","USGS","OA",108,21.3283,-157.801,NA,"WISH1","16EA459A",NA,NA,0,0,0,0,0,0,0,0,0,0,0,0,0,0,0,0,0,0,0,0,0,0,0,0,0,0,0,0,0,0,0
785.4,"Manoa Lyon Arbo","NWS","HydroNet-UaNet","OA",151.7904,21.3330002,-157.8024,"USC00516128","MNLH1",NA,NA,NA,20.828,16.51,0.762,29.464,2.794,0,0,0,0,1.778,8.636,0,3.556,8.636,13.208,2.794,45.466,19.558,6.096,0,0.254,0.762,7.112,7.874,3.556,3.302,2.032,14.986,0,0.762,2.286
787.1,"MAUNAWILI 787.1","HSPA","COOP","OA",127,21.351,-157.7668,"USC00516222",NA,NA,NA,NA,5.23338300044113,10.225682258607,7.1,32,0,0,0,0,1.68069164678603,1.51213814280474,0.956089390626377,0,7.19249613760019,7.84177984209533,4.05721824179471,1.45386099724336,8.42912309310944,5.674011085301,3.7204586110068,0.5,0,0.663679507346595,2.94125049914352,4.64765072205106,0,0.5,5.97241843227179,3.08016174835672,0.0941262565796528,0,0.337515379990752
787.2,"Maunawili","NWS","HydroNet-UaNet","OA",127.1016,21.3509998,-157.7668,NA,"MAUH1","19007374",NA,NA,7.112,7.366,12.954,31.242,0.762,0,0,0,0,1.778,4.318,0,2.54,8.382,7.112,0.762,12.192,6.604,2.54,0.508,0,1.27,2.794,6.35,0,0,4.572,1.524,0.508,0,0.762
788,"ST STEPHENS SEMINARY","ST STEPHEN SEMIN","COOP","OA",143,21.3666,-157.7785,"USC00518601",NA,NA,NA,NA,3.17329838033407,7.14230527402549,7.25066134846468,18.1086532878411,0,0,0,0.0528060528165131,1.47956332252009,1.10663833023575,0.513741133128375,0,6.28477633473109,4.51649973332462,1.9901363671044,0.489966235938631,4.56141714671902,3.39042909162081,2.82001776050087,0,0,0.484026585165013,2.02072293349703,3.39230814896256,0.3,0.3,2.27225559287225,3.62654248181001,0,0,0.0528060528165131
788.1,"PALI GOLF COURSE 788.1","C&C PARKS & RECR","COOP","OA",146,21.37183016,-157.7839226,"USC00517656",NA,NA,NA,NA,4.6,5.8,18.3,NA,NA,NA,0,0,0.5,4.1,2.3,0,0,14,11.7,1,3.3,3.13668202045696,4.87928314293305,9.4,0,0,1.8,1.3,2.26538145921892,NA,NA,1.74260112247609,6.6,0,0
788.2,"St Stephens Seminary","NWS","HydroNet-UaNet","OA",142.9512,21.3666992,-157.7786,NA,"STVH1","19005598",NA,NA,5.08,9.652,18.034,28.448,0,0,0,0,2.286,2.286,0,0.254,5.588,11.938,4.318,0.508,7.112,2.286,3.302,0,0,0,3.302,4.064,0,0.508,4.064,5.334,0,0,0
790.11,"Olomana Fire Stn","NWS","HydroNet-UaNet","OA",45.1104,21.3777008,-157.7507,"USC00517052","OFSH1","19011468",NA,NA,4.064,0.254,17.272,22.098,0,0,0,0.254,0.254,1.524,0.508,0,0.508,3.302,1.778,0,2.54,2.032,2.286,0,0,0,0,0,0.254,1.524,0,1.27,0,0,0
793.1,"WAIMANALO EXPERIMENTAL FARM","CoCoRaHS","CoCoRaHS","OA",38,21.3727,-157.725,"US1HIHN0022",NA,NA,NA,NA,0.5,1,7.6,0,15.2,0,0,0,0,0.3,0.3,0,0,1,0,1.5,0,1.5,0,0,0,0,0.8,0,0,0,0,0,1.8,0,0.3
793.2,"BELLOWS AFS AT WAIMANALO","NWS","STATE","OA",6.66,21.3667,-157.717,NA,"BELH1","B14036D2",NA,NA,1.524,0,7.366,12.954,0,0,0,0,0.254000000000005,0,0,0,1.778,0.253999999999998,1.778,0,0.762,0,0.508000000000003,0,0,0,0,0.507999999999996,0,0,0,0,0,0,0
795.1,"WAIMANALO EXP F 795.1","HAES","COOP","OA",18,21.33516407,-157.7105906,"USC00519523",NA,NA,NA,NA,2.5,0,4.3,NA,NA,0,0,0,0.3,0,0,0,0,0,4.1,0,0,0.8,0.5,0,0,0,0,0.5,0,0.5,0,0,0,0,0
795.3,"Waimanalo Nonokio","NWS","HydroNet-UaNet","OA",20.1168,21.3356991,-157.7116,NA,"WMLH1","224185AC",NA,NA,1.778,0.508,11.176,15.24,0,0,0,0,0,0,0,0,0.508,0,3.302,0.254,1.27,1.016,0,0,0,0,0.254,0,0,0,0,0,0.254,0,0
798,"WAIANAE 798","CAPITAL INVESTMENT","COOP","OA",3,21.44683495,-158.1855845,"USC00519231",NA,NA,NA,NA,0,0,19.3,7.6,0,0.8,0,0,0,0,0,0,0,0,0,0,0,0,0,0,0,0,0,0,0,0,0,0.5,0,0,0
799,"WAIAWA PHB","RAWS","RAWS","OA",453.8472,21.48,-158.1072222,NA,"SCSH1","328FC12E",NA,NA,1.63258295470531,14.2557631720208,0.137418452819384,76.8800505167688,1.57786761158559,0.45806150939793,0.137418452819378,0,0,0.373268700729221,0.229030754698965,0,2.21979715858814,2.59756505821958,1.56427931337847,0,0.96874866294653,4.3625004278903,0.392491000885587,0,0,0,0.229030754698965,1.11980610218766,0.0957634669329514,0,6.57296571119359,6.69572242590227,0.320643056578559,0,0
800.3,"MAKAHA CTRY CLUB 800.3","Alan Mair","COOP","OA",80,21.47833333,-158.1963889,"USC00515758",NA,NA,NA,NA,0,0,22.9,0,2.5,0,0,0,0,0,0,0,0,0,0,0,0,0,0,0,0,0,0,0,0,0,0,36.8,0,0,0
801.1,"Waianae Kawiwi","MT VIEW DAIRY","HydroNet-UaNet","OA",19.812,21.4566994,-158.18,NA,"WAIH1",NA,NA,NA,0,9.398,0,6.604,0,0.254,0,0,0,0,0,0,0,0,0,0,1.524,0,0,0,0,NA,0,0,0,0,2.286,0,0,0,0
801.2,"WAIANAE BOAT HARBOR","NWS","STATE","OA",4.25,21.4503,-158.184,NA,"WBHH1","15D13434",NA,NA,0,21.336,0.254000000000001,6.34999999999999,0,1.016,0,0,0,0,0,0,0,0,0,0,1.27,0,0,0,0,0,0,0,0,0,1.524,0,0,0,0
