"SKN","Station.Name","Observer","Network","Island","ELEV.m.","LAT","LON","NCEI.id","NWS.id","NESDIS.id","SCAN.id","SMART_NODE_RF.id","X2020.11.01","X2020.11.02","X2020.11.03","X2020.11.04","X2020.11.05","X2020.11.06","X2020.11.07","X2020.11.08","X2020.11.09","X2020.11.10","X2020.11.11","X2020.11.12","X2020.11.13","X2020.11.14","X2020.11.15","X2020.11.16","X2020.11.17","X2020.11.18","X2020.11.19","X2020.11.20","X2020.11.21","X2020.11.22","X2020.11.23","X2020.11.24","X2020.11.25","X2020.11.26","X2020.11.27","X2020.11.28","X2020.11.29","X2020.11.30"
3.9,"LOWER KAHUKU CS","LOWER KAHUKU CS","RAWS","BI",953.7192,19.10083333,-155.6697222,NA,"LKHH1","32D620C2",NA,NA,0,0.254000000000019,6.096,7.87400000000002,0,0.253999999999962,16.002,3.30200000000008,0.253999999999962,5.58800000000002,0,9.14400000000001,0,1.524,1.26999999999998,1.26999999999998,0.254000000000019,26.9240000000001,3.55599999999981,8.38200000000006,1.524,21.8439999999999,6.35000000000002,0.762000000000057,12.192,6.35000000000002,0,3.30199999999991,0.762000000000057,0
4.15,"SOUTH POINT NEAR NAALEHU 12SSW","NWS","STATE","BI",295.78,18.9928,-155.668,NA,"SOPH1","B1507246",NA,NA,0,0,1.27,2.54,0,0,23.622,0,0,5.588,0,2.286,0,0,2.54,0,0,6.35,0,3.81,0,3.556,0.508,0,1.016,1.524,0.508,0,0,0
9.2,"Nene Cabin","Nene Cabin","RAWS","BI",1991.7737,19.2564,-155.6144,NA,"NENH1","32D64524",NA,NA,0,2.28600000000006,1.26999999999998,1.52399999999989,1.26999999999998,0,6.85799999999995,0,9.90599999999995,4.57200000000012,4.06400000000008,9.39799999999968,3.81000000000017,0.761999999999944,1.0160000000003,0,0.507999999999811,4.06399999999985,NA,2.28600000000006,0.253999999999905,30.9880000000003,5.58799999999997,1.52399999999966,4.57200000000012,2.03199999999993,0,6.35000000000014,NA,0.508000000000038
21,"Pahala","KAU SUGAR","HydroNet-UaNet","BI",346.8624,19.2042999,-155.4872,"USC00517421","PPLH1","B16084B2",NA,NA,0,0,2.03199999999924,8.88999999999987,0,0,6.85800000000063,0,0,5.07999999999947,0,1.7780000000007,0,0.507999999999356,3.55600000000049,0,0,1.26999999999953,0.25400000000036,2.53999999999996,0,16.002,0.508000000000266,0,1.77799999999979,0,0,0,0,18.5419999999999
23,"KAHUKU","RAWS","RAWS","BI",1796.4912,19.23222222,-155.78,NA,"KRCH1","32639544",NA,NA,0,0,0,6.60399999999981,1.27000000000021,0.507999999999811,18.796,0.253999999999905,0,0.254000000000133,1.01600000000008,0,1.77800000000002,0.253999999999905,0.761999999999944,0,0.508000000000038,1.77800000000002,0.254000000000133,0.507999999999811,0.761999999999944,0.254000000000133,10.6679999999999,6.09600000000023,11.4299999999998,16.51,0,0.508000000000038,0.253999999999905,0
27.6,"Honaunau No. 2","NWS","HydroNet-UaNet","BI",398.0688,19.4629002,-155.8824,NA,"HAUH1","15D12742",NA,NA,0,0,0,7.87400000000071,0,8.88999999999942,4.82600000000002,1.01599999999962,0,3.55600000000049,2.79399999999987,0,4.06400000000031,0,5.84199999999964,0,1.52400000000034,1.52400000000034,3.55599999999959,0,0,0,4.0639999999994,0,25.9080000000004,84.8360000000002,0.507999999999811,12.4459999999999,0,5.84199999999964
29.12,"Kealakekua","NWS","HydroNet-UaNet","BI",537.972,19.5181007,-155.9159,NA,"KLEH1","81708572",NA,NA,0,0,0,3.80999999999949,0.25400000000036,0.762000000000171,0,0,0,1.26999999999953,0.508000000000266,0,1.27000000000044,0,2.53999999999996,0,0,0,2.79399999999941,0,1.52399999999989,2.03200000000061,15.2399999999998,0,13.9700000000003,141.478,0,18.7959999999994,0,6.35000000000036
34,"Kapapala Ranch","NWS","HydroNet-UaNet","BI",638.556,19.2754993,-155.4514,"USC00513300","KAYH1","B16097C4",NA,NA,1.77799999999979,2.28600000000006,1.01600000000053,9.65199999999959,0,0,5.07999999999993,0,0,7.36599999999953,0,0,0,0,2.03200000000061,0.253999999999905,0,3.55600000000004,0.253999999999905,0,0,32.7659999999996,0.254000000000815,0,5.58799999999974,0.253999999999905,0,0,0,25.9080000000004
36.3,"KAPAPALA RANCH","KAPAPALA RANCH","RAWS","BI",1081,19.25811,-155.441781,NA,"KPRH1","AA10E258",NA,NA,0.508000000000038,0,0,4.06400000000008,0.253999999999905,0,3.048,0,0,6.85799999999995,0,1.26999999999998,0.253999999999905,0.508000000000266,6.096,0,0,1.01599999999985,0,0.254000000000133,0,29.4639999999999,0.253999999999905,0,2.7940000000001,0.253999999999905,0,0,0,5.8420000000001
38.9,"KAELAKOMO","KAELAKOMO","RAWS","BI",29.5656,19.29277778,-155.1075,NA,"KMOH1","32807432",NA,NA,0,0,0,10.668,0.253999999999991,0,20.066,0.253999999999991,4.572,20.828,4.82600000000002,4.572,0.253999999999962,0.762,0.254000000000019,0,0,0.508000000000038,0,2.53999999999996,1.26999999999998,11.176,2.286,0.253999999999962,54.356,7.36599999999999,0,0,1.52400000000006,0
43.3,"PUHE CS","PUHE CS","RAWS","BI",34.126,20.025,-155.8211111,NA,"PHRH1","32D61558",NA,NA,0,0,0,0,0,0,0,0,0,0,3.81000000000017,0,NA,0,0,0,0,0,0,0,13.4620000000002,0.253999999999678,0,0,0,NA,9.14400000000001,18.5419999999997,0,1.77800000000025
47,"KEMOKU LAVA FLOW","RAWS","RAWS","BI",1706.88,19.47555556,-155.3627778,"USR0000HKEA","KKUH1","FA4447E8",NA,NA,0.253999999999991,0.507999999999981,0,1.77800000000002,0.253999999999991,0,6.60400000000004,0.761999999999972,3.04799999999997,12.7,3.81,4.82599999999996,0,0.762000000000057,1.26999999999998,0.254000000000019,0,1.01599999999996,0,0,4.31800000000004,78.74,16.256,0,1.01599999999996,0.508000000000038,0,0,0,6.35000000000002
70.16,"Waiaha Stream","NWS","HydroNet-UaNet","BI",460.5528,19.6331997,-155.9486,NA,"WIHH1","9321011E",NA,NA,0,0,0,0,7.36600000000001,10.414,5.08000000000001,0,0,0.253999999999991,0.762,0,16.256,0.50800000000001,0.253999999999991,0,2.53999999999999,1.01599999999999,1.27000000000004,1.26999999999998,0.762,7.62,14.224,1.26999999999998,7.62,215.646,0,2.79399999999998,0,2.54000000000002
75.1,"PTA KIPUKA ALALA","RAWS","RAWS","BI",1641.348,19.66694444,-155.7077778,"USR0000HPTK","PKAH1","32666200",NA,NA,0,0,0,2.286,0,0.254000000000019,0.507999999999981,0.253999999999962,0,0,0,0,0,0,0.508000000000038,0,0,0.507999999999981,0,0,0,1.524,0,3.30200000000002,0.507999999999981,0,0,0,0,6.35000000000002
83,"QuarryRainGageatSaddleRd","USGS","USGS","BI",1286.256,19.68586111,-155.2942222,NA,"SDQH1","DDF6B6E4",NA,NA,0.253999999999998,0,2.032,5.08,0,0,30.988,11.938,4.318,47.244,25.908,56.545104670693,7.87400000000002,2.286,1.01600000000002,4.57199999999997,0.253999999999991,29.718,4.06400000000002,7.11199999999997,159.354385890137,303.022,84.0740000000001,1.01599999999996,21.59,13.208,0,0.254000000000019,0.253999999999905,2.79399999999998
92.5,"KiholoRainGage","USGS","USGS","BI",283.96692,19.82580556,-155.8925833,NA,"KIRH1","DD60236E",NA,NA,0,0,0,0,0,1.27,0,0,0,0,0,0,2.032,0,0,0,0,0.762,0,0,0,0,0,0,0,0,0,0,0,0
93.12,"PUUANAHULU","RAWS","RAWS","BI",830.58,19.83277778,-155.7697222,NA,"PULH1","48703040",NA,NA,0,0,0,0,0,2.28599999999994,0,0.508000000000038,0,0,0,0,4.06399999999996,0,0,0,0,2.53999999999996,0,0,0,0,0,0,0,0,0,0,0,2.7940000000001
94,"KAUPULEHU LAVA FLOW","RAWS","RAWS","BI",372.1608,19.80333333,-155.9180556,NA,"KPLH1","4870E628",NA,NA,0,0,0,0.507999999999981,0,0.254000000000019,0,0,0,0,0,0,8.63599999999997,0,0,0,0,5.07999999999998,0.254000000000019,0.254000000000019,0,0,0,3.55599999999998,0,0,0,0,0,0
94.5,"PUU WAAWAA","RAWS","RAWS","BI",708.9648,19.795,-155.8452778,"USR0000HPUW","PWWH1","487046D0",NA,NA,0,0,0,4.3180000000001,0,1.52399999999989,0,0,0,0,0,1.01599999999996,0.762000000000057,0,0,0,0,3.55600000000004,0,5.33400000000006,0,0.761999999999944,0,0.507999999999925,0,0,0,0,0,0.254000000000019
95.6,"WAIKOLOA","RAWS","RAWS","BI",297.7896,19.92416667,-155.7936111,NA,"WKVH1","4870C0C4",NA,NA,0,0,0,0,0,0,0,0,0,0,0,0,0,0,0,0,0,0,0,0,0,0,0,0,0,0,0,0,0,0
98.2,"PUHO CS","PUHO CS","RAWS","BI",29.5656,19.42194444,-155.9075,NA,"PERH1","32D6803A",NA,NA,0,0,0,0,0,0,0,0,0,0,0,0,0,0,0,0,0,0,0,0,0,0,1.27000000000004,0,NA,NA,0,0,0,0
99,"PTA WEST","RAWS","RAWS","BI",1307.592,19.77166667,-155.7022222,"USR0000HPTW","PKWH1","32667176",NA,NA,0,0,0,2.54000000000002,1.524,0,0.254000000000019,0.253999999999962,0,0,0,0,0.507999999999981,0,0,0,0,3.048,0,0.508000000000038,0,NA,0,0.253999999999962,0,0,0,NA,0,21.0820000000001
102.8,"AUHMOA","RAWS","RAWS","BI",2001.9264,19.83638889,-155.6130556,NA,"AHMH1","4870D3B2",NA,NA,0,0,0,0,0.507999999999996,0,0.254000000000005,0,0,0,0,0,0.253999999999998,0.253999999999998,0,0,0,0,0.254000000000005,0,0,0.507999999999996,0.254000000000005,0,0.253999999999998,0.253999999999998,0,0,0,0
107.4,"PTA EAST","RAWS","RAWS","BI",1959.864,19.68277778,-155.5452778,"USR0000HPTA","PTAH1","3266D18E",NA,NA,0,0,0,0.507999999999925,0,0,9.39800000000002,0.508000000000038,0,0.761999999999944,0.254000000000019,4.06399999999996,0,0.508000000000152,0,0,0,1.77799999999991,0,0,3.81000000000006,39.37,6.09599999999989,0,0,0,0,0,5.58799999999997,0
109,"PTA RANGE 17","RAWS","RAWS","BI",1734.312,19.74583333,-155.6261111,NA,"PTRH1","3279630C",NA,NA,0,0,0,0,0,0,4.06399999999996,NA,0,0,0,0,0,0,0,NA,0,0,0,0,0,5.08000000000004,0,0,8.63599999999997,0,0,0,0,0
113.2,"PUU MALI","RAWS","RAWS","BI",2165,19.92666,-155.44,NA,"PMLH1","3181742E",NA,NA,0,0,0,0,0,0,0,0,0,0,0,0.507999999999925,0,0,0,2.03200000000015,0,3.80999999999995,0,0,12.954,59.4360000000001,2.03199999999993,0,0,0,0,0,0,0
129,"HAKALAU","RAWS","RAWS","BI",1950.72,19.82111111,-155.3305556,"USR0000HHAK","HKUH1","8374D370",NA,NA,0.25400000000036,0,0.903644485187104,0.762000000000171,0,0,17.018,3.80999999999949,1.52400000000034,39.3699999999999,11.6840000000002,25.1459999999997,2.28600000000006,0.762000000000171,1.52399999999989,3.55600000000004,0.112955560648384,15.2399999999998,0.25400000000036,1.52399999999989,70.866,272.034,68.072,2.79399999999998,23.368,4.82600000000002,0.254000000000019,0,1.01599999999996,0
133.3,"Laupahoehoe","NWS","HydroNet-UaNet","BI",499.872,19.9792,-155.2372,NA,"LPHH1","B159741A",NA,NA,0,2.03200000000015,0,1.77799999999979,0,0,7.11200000000008,14.9859999999999,0,34.7979999999998,17.5260000000003,21.3359999999998,3.04800000000023,0,0,10.6679999999997,0,10.6680000000001,7.87400000000025,1.77799999999979,36.3220000000001,90.424,18.0340000000001,0.253999999999905,38.6079999999997,13.2080000000001,12.4460000000004,6.09599999999955,2.79144499527409,0
147.2,"KOHALA RANCH","KOHALA RANCH","RAWS","BI",328.8792,20.08305556,-155.8325,NA,"KHRH1","4870B654",NA,NA,0,0,0,1.01600000000002,0,0.762,0,0,0,0,0,0.507999999999981,0,0,0,0,0,2.79399999999998,0,0,0,0,2.286,0,0,0,0,0,0,0
160.3,"Upolu Airport","NWS","HydroNet-UaNet","BI",34,20.265,-155.8582,NA,"UPLH1","B15017A0",NA,NA,0,0,1.524,2.03199999999993,0,0.254000000000133,10.6679999999999,2.03200000000004,0,4.82600000000002,8.12800000000004,0.761999999999944,0,0,0,0.254000000000019,0.253999999999905,4.572,6.85800000000017,2.03199999999993,3.80999999999995,20.5740000000001,4.06399999999996,2.28600000000006,2.03199999999993,0.762000000000057,0.507999999999925,0.762000000000057,5.07999999999993,0
176.3,"Kahua Ranch HQ","KAHUA RANCH","HydroNet-UaNet","BI",987.552,20.1249008,-155.7884,NA,"KASH1","15D293C2",NA,NA,0,0.253999999999991,0.253999999999991,1.524,0.254000000000019,0.253999999999991,1.77799999999999,4.31800000000001,0,3.30199999999999,18.796,20.32,0,0,0,0.50800000000001,0,9.39800000000002,2.79399999999998,1.77799999999999,6.60399999999998,30.48,7.62,0.253999999999962,0.254000000000019,0.507999999999981,3.55600000000004,0.762,1.524,0
185.7,"KawainuiRainGagenearKamuela","USGS","USGS","BI",1237.488,20.08533333,-155.6811667,NA,"KWSH1","DDF6A592",NA,NA,0,8.38200000000006,6.34999999999991,13.2079999999996,0.25400000000036,2.0319999999997,33.7820000000002,27.9400000000001,2.28600000000006,32.0039999999999,20.3200000000002,62.23,0.507999999999811,0,0.253999999999905,11.6840000000002,4.57200000000012,47.2439999999997,46.9900000000002,25.4000000000001,26.924,156.718,80.2640000000001,5.08000000000038,23.6219999999994,18.7960000000003,11.9379999999996,3.8100000000004,5.84199999999964,0.253999999999905
192.7,"Kamuela Upper","NWS","HydroNet-UaNet","BI",948.5376,20.0319996,-155.6667,"USC00513080","KUUH1","817075F6",NA,NA,0,1.77800000000002,1.26999999999992,1.01600000000002,0,0,5.07999999999998,5.84200000000004,0,5.33399999999995,0.254000000000019,7.36599999999999,0,0,0,2.03200000000004,0.253999999999962,21.0820000000001,18.034,5.33399999999995,8.12799999999999,26.67,17.272,0.254000000000019,5.58799999999997,1.77800000000002,13.208,0.762000000000057,0.507999999999925,0.254000000000019
201.3,"Kamuela 1","NWS","HydroNet-UaNet","BI",877.824,20.0394993,-155.6084,NA,"KMUH1","81706680",NA,NA,0.253999999999905,2.03200000000015,0.761999999999716,1.77800000000025,0,0.253999999999905,1.52399999999943,5.07999999999993,0.254000000000815,2.79399999999987,0.253999999999905,4.82600000000002,0,0,0,1.01599999999962,0.253999999999905,6.85800000000017,9.39800000000014,2.28600000000006,0.507999999999811,26.6700000000001,6.60400000000027,0,1.26999999999953,0.762000000000626,8.88999999999942,0.50800000000072,0.761999999999716,0
215.5,"Honokaa","NWS","HydroNet-UaNet","BI",591.9216,20.0656,-155.49,NA,"HNKH1","B15047DC",NA,NA,1.77799999999979,12.4460000000004,0,2.2859999999996,0,0,2.28600000000006,6.85799999999972,0,17.018,10.6680000000001,26.1620000000003,0,0,0,9.14399999999978,0,14.732,8.12800000000016,0.507999999999811,8.12800000000016,157.226,NA,0,0.508000000000266,1.26999999999998,7.36599999999999,0.253999999999905,1.52400000000034,0.253999999999451
250.2,"Ulupalakua Ranch","NWS","HydroNet-UaNet","MA",581.5584,20.6487999,-156.3981,NA,"ULUH1","8170531A",NA,NA,0,0,0,0,1.27000000000004,0,0.253999999999962,0.254000000000019,0,0,0,0,0,0,12.7,0,0,6.35000000000002,0,0.761999999999944,0,0,0,0,0,0,0,0.254000000000019,0,0
255,"KepuniGulchRainGage","USGS","USGS","MA",225.552,20.6195,-156.2518889,NA,"KPNH1","F000D4EA",NA,NA,0,0,0,0.254000000000001,0,0,0,0.507999999999999,0,0,0,0,0,0,0,0,0,0,0,0,0,0,0,0,0,0,0,0,0,0
267.8,"KULA 1","KULA 1","RAWS","MA",1998.5736,20.68305556,-156.3216667,NA,"KLFH1","AA10F12E",NA,NA,0.254000000000019,0,0,0,0,0,6.35000000000002,0,0,0,0,0,1.26999999999998,0,0,0,0,0.253999999999905,0,0,0,0,0,1.01600000000008,0,1.2700000000001,0,0,0,0
302,"MAALAEA BAY","NWS","STATE","MA",302,20.7903,-156.514,NA,"P36","15DF05C6",NA,NA,0,0,0,0,0,0,0,0,0,0,0,0,0,0,0,0,0,0,0,0,0,0,0,0,0,0,1.016,1.778,0,0
311.2,"Kealia Pond NWR","Kealia Pond NWR","RAWS","MA",3.6576,20.7975,-156.4772222,NA,"KPDH1","32B2C438",NA,NA,0,0,0,0,0,0,0,0,0,0,0,0,0,0,0,0,0,0,0,0,0,0,0,0,0,0,0,0,0,0
311.5,"Kihei 2","NWS","HydroNet-UaNet","MA",54.5592,20.7061005,-156.437,NA,"KHIH1","93202508",NA,NA,0,0,0,0,0,0,0,0,0,0,0,0,0,0,0,0,0,0,0,0,0,0,0,0,0,0,0,0,0,0
324.7,"Kula Branch Stn","NWS","HydroNet-UaNet","MA",944.88,20.7577991,-156.3217,"USC00515000","KBSH1","93220610",NA,NA,0,0,0,0,0,0,0,0,0,0,0,0,0,0,0,0,0,0.253999999999905,0,0,0,0,0.254000000000133,1.26999999999998,0,0.253999999999905,0,0,0,0
348.5,"WestWailuaikiRainGagenrKeanae","USGS","USGS","MA",472.44,20.81436111,-156.1429722,NA,"WWKH1","DD5E710A",NA,NA,0,3.302,26.162,1.016,0,9.65199999999999,18.686305989198,19.558,6.858,16.6047531534853,19.812,19.304,21.8086987184546,5.84200000000001,9.39799999999997,8.89000000000004,1.01599999999996,60.1692697751433,9.65199999999993,19.8095499788304,61.4107197183331,NA,62.8014159077252,3.41795352522845,12.446,18.6527468895837,17.526,2.53999999999996,7.11200000000008,3.80999999999995
353,"Hana AP","NWS","HydroNet-UaNet","MA",19,20.7946,-156.0157,"USC00511125","HNAH1","B150314C",NA,NA,0,1.52399999999989,5.58799999999974,6.60399999999981,0,0,4.57200000000057,2.28600000000006,1.77799999999979,3.04799999999977,5.33399999999983,4.06400000000031,2.03200000000015,2.2859999999996,4.31800000000021,8.12800000000016,2.79399999999987,13.7159999999999,0.508000000000266,15.2399999999998,15.4940000000001,1.26999999999998,5.07999999999993,NA,0.507999999999811,0.25400000000036,6.09599999999955,6.60400000000027,13.2080000000001,0.761999999999716
361.1,"Lahainaluna","NWS","HydroNet-UaNet","MA",238.0488,20.8909,-156.6556,NA,"LAHH1","81700366",NA,NA,0,0,0,1.26999999999998,0,0,0,0,0,0,6.60400000000004,0,0,0,0,0,0,6.60400000000004,0,0,0.761999999999944,0,0,0,0,0,0.507999999999925,0,0,0
380,"PuuKukuiRainGageatalt","BALDWIN PKRS","USGS","MA",1759,20.89083333,-156.6008333,"USC00514887","PKKH1","DD73556E",NA,NA,0,0.253999999999991,27.178,1.01600000000001,0.507999999999996,4.318,28.448,18.288,4.31799999999998,22.606,50.546,23.876,32.004,6.09599999999995,1.01600000000008,5.07999999999998,0.253999999999962,96.52,2.53999999999996,24.4334528237925,NA,NA,28.0383884863191,NA,5.58799999999997,27.1779999999999,27.6859999999999,19.3040000000001,28.9560000000001,0.253999999999905
386.6,"Wailuku","NWS","HydroNet-UaNet","MA",146.9136,20.8831005,-156.5124,NA,"WUKH1","9321D776",NA,NA,0,0,0,0,0,0,0,0,0,0,0.507999999999811,0.253999999999905,0,0,1.52399999999989,0.25400000000036,0,2.28600000000006,0,0.761999999999716,0.253999999999905,0,0,0,0,0,3.04800000000023,1.77799999999979,1.01600000000008,0
426.6,"Pukalani","NWS","HydroNet-UaNet","MA",495.9096,20.8355007,-156.3307,NA,"PUKH1","15D2B52E",NA,NA,0,0,0,0,0,0,0,0,0,1.01600000000002,12.446,0.762,0,0,0,0,0,1.77800000000002,0,0,1.01599999999996,0.507999999999981,0,4.82600000000008,0,0,1.01599999999996,2.03199999999998,0,0
482.5,"Kahakuloa","Kahakuloa","HydroNet-UaNet","MA",335.28,20.9540997,-156.5342,NA,"KHKH1","781001B6",NA,NA,0,0,18.5420000000001,0,0,0.761999999999944,2.53999999999996,0,0,0.254000000000133,1.52399999999989,5.8420000000001,1.01599999999985,0,14.9859999999999,6.09600000000023,0,3.30199999999991,0.508000000000038,9.65200000000004,19.8119999999999,2.7940000000001,4.82599999999979,5.8420000000001,0,0,1.52399999999989,1.77800000000002,15.24,0
489,"Haiku","NWS","HydroNet-UaNet","MA",99.3648,20.9288998,-156.3225,"USC00510822","AIKH1","50A30568",NA,NA,0.254000000000133,0,9.65199999999982,0,0,9.65200000000004,9.65200000000004,6.60400000000004,0.507999999999811,3.30200000000013,1.01600000000008,2.28600000000006,4.31799999999998,0.507999999999811,6.60400000000004,0,0,14.2240000000002,1.01599999999985,4.67507306556102,NA,10.6680000000001,12.4460000000001,NA,0.254000000000133,0,3.55600000000004,5.33399999999983,3.55600000000004,0.254000000000133
499.9,"KANELOA","RAWS","RAWS","KO",248.412,20.52222222,-156.5658333,"USR0000HKAN","KAOH1","32793370",NA,NA,0,0,0,0,0,0,2.794,0,0,0.253999999999998,0,0,0,0,0.508000000000003,0,0,6.096,0,1.01599999999999,0,0,0,0,0,0,0,5.08000000000001,0,0
536.5,"Kaunakakai Mauka","MOLOKAI GEN HOSP","HydroNet-UaNet","MO",28.3464,21.0946007,-157.0174,NA,"KACH1","50A0F2E2",NA,NA,0,0,0,0,0,0,0,0,0,0,0,0,0,0,0,1.01600000000001,0,0,0,0,0,0,0,0,0,0,0,0,2.54000000000001,0
538,"MOLOKAI 1","RAWS","RAWS","MO",833.0184,21.115,-156.9475,"USR0000HMLK","MLKH1","487016AC",NA,NA,0,0,0,0.762000000000057,0,0,0,0.761999999999944,0.761999999999944,0.254000000000133,4.572,0.253999999999905,0.254000000000019,0,8.63599999999997,0,0,1.77800000000002,0,1.01599999999996,2.28600000000006,0.254000000000019,0,2.03199999999993,0,1.2700000000001,5.07999999999993,6.60400000000004,13.716,0
541.2,"Puu ALII WEST","Puu ALII WEST","RAWS","MO",1159.764,21.14083333,-156.9022222,NA,"PAFH1","32D6062E",NA,NA,0,0,3.55600000000004,1.77800000000002,0,1.77799999999996,6.096,7.36599999999999,9.90600000000001,7.11200000000002,13.716,8.38200000000001,7.87400000000002,1.27000000000004,4.06399999999996,6.096,0.253999999999962,16.51,0.761999999999944,15.4940000000001,NA,NA,17.78,NA,0.507999999999925,6.85800000000006,7.36599999999999,7.62,37.0839999999999,0.508000000000038
679,"LANAI 1","RAWS","RAWS","LA",387.096,20.87333333,-157.0063889,"USR0000HLAN","LNIH1","48702336",NA,NA,0.254000000000019,0,1.26999999999998,0,0,0,3.048,0,0,0,0,0,0,0,0,0,0,3.048,0,2.79399999999998,0.508000000000038,0,0,3.30199999999991,0.254000000000019,0,0,0,1.524,0
721.4,"Palolo Fire Stn","NWS","HydroNet-UaNet","OA",59.436,21.2996006,-157.7944,"USC00517662","PFSH1","19014414",NA,NA,0.253999999999905,0,0.254000000000133,2.53999999999996,0,0.254000000000133,0.507999999999811,0.253999999999905,0,0,7.11200000000008,1.27000000000021,3.30199999999991,0.508000000000038,1.01599999999985,1.01600000000008,0,5.08000000000015,0,2.28599999999983,13.97,8.88999999999987,8.38200000000029,17.0179999999998,0,2.79399999999987,2.28600000000006,1.01600000000008,7.2515096257158,5.33399999999983
723.8,"Niu Valley","NWS","HydroNet-UaNet","OA",19.812,21.2896996,-157.7332,"USC00516865","NIUH1","1900D38C",NA,NA,0,0,2.28600000000006,0.253999999999905,0,0,1.27000000000044,0.507999999999811,0.253999999999905,0,3.80999999999949,0,0.254000000000815,0,4.82600000000002,3.04799999999977,0.253999999999905,9.90599999999995,0.253999999999905,4.31800000000021,12.4459999999999,2.28600000000006,1.77800000000025,14.4779999999992,0.253999999999905,0.762000000000626,0,0.761999999999716,10.9220000000005,5.84199999999964
724.21,"Kamehame","NWS","HydroNet-UaNet","OA",242.316,21.3085995,-157.6791,NA,"KMHH1","190046EE",NA,NA,0,0,0,0,0,0,0.253999999999905,0,0,0,1.77800000000025,0,0,0,0,0.253999999999451,0.25400000000036,4.82600000000002,0,0.761999999999716,5.8420000000001,1.26999999999998,0,1.26999999999998,0,0,0.762000000000171,0.507999999999811,3.30200000000013,2.28600000000006
728.2,"PALEHUA","RAWS","RAWS","OA",722.376,21.385,-158.1041667,NA,"PLHH1","4870F55E",NA,NA,0,0,0.253999999999905,0.508000000000038,0.254000000000019,0.507999999999925,1.524,0.508000000000038,5.58799999999997,0,1.77800000000002,0,0.761999999999944,0,0,2.03200000000004,0.254000000000133,8.88999999999987,0.508000000000038,0.254000000000019,1.26999999999998,0.761999999999944,0.254000000000019,1.01600000000008,0.254000000000019,0.253999999999905,0,0,0.508000000000038,0
734.5,"HONOULIULI STREAM TRIBUTARY NEAR WAIPAHU 4WNW","NWS","STATE","OA",195.72,21.4019,-158.067,NA,"HOUH1","DD7ED01C",NA,NA,0,0,0,0,0,0,0,0,0,0,0,0,0,0,0,0,0,0,0,0,0,0,0,0,0,0,0,0,0,0
742.4,"HONOULIULI PHB","FWS","RAWS","OA",1.524,21.35666667,-158.0205556,NA,"HOFH1","327BF39A",NA,NA,0,0,0,0.254000000000133,0.508000000000038,0,0.508000000000266,0.253999999999678,2.03199999999993,0,0,0.508000000000266,0,0,0.253999999999678,0,0,1.0160000000003,0,0,0,0,0,0.253999999999678,0.508000000000266,0,0.762000000000171,0,0.761999999999944,0
752.6,"WAIAWA PHB","FWS","RAWS","OA",1.524,21.38694444,-157.9811111,NA,"WWFH1","3274C092",NA,NA,0.253999999999905,0,0,0,0,0.762000000000171,1.01599999999962,0,1.01600000000008,0.508000000000266,1.01600000000008,0,1.01599999999962,0,0,0,0,1.77800000000025,0.253999999999905,0.508000000000266,0.761999999999716,0,0,2.28600000000006,7.36599999999999,1.01599999999962,5.08000000000038,0,0.253999999999905,0.253999999999905
771.11,"N.HalawaValleyRGattunnel","USGS","USGS","OA",335.28,21.40488889,-157.8504444,NA,"TNLH1","DD75A524",NA,NA,0,0,28.956,12.446,0.762,1.27000000000001,29.21,11.684,14.732,1.77799999999999,3.55600000000001,8.38200000000001,11.43,0.253999999999991,10.414,17.272,4.57200000000003,35.052,2.03199999999998,23.622,27.1780000000001,23.876,37.338,93.472,12.7,1.77799999999996,7.11199999999997,2.28599999999994,12.1920000000001,2.79399999999998
772.5,"Moanalua Stream","USGS","HydroNet-UaNet","OA",72.2376,21.3736,-157.8801,"USC00516400","MOAH1","1900B66A",NA,NA,0.25400000000036,0,0.253999999999905,3.30199999999968,0,1.27000000000044,5.84199999999964,4.31800000000067,10.6679999999997,7.62000000000035,12.4459999999995,4.31800000000021,7.36599999999999,1.52399999999989,1.01600000000008,0.25400000000036,0,12.9539999999997,0,10.1600000000003,16.0019999999995,9.39800000000014,14.4780000000001,28.7019999999998,1.77800000000025,0.761999999999716,3.8100000000004,0.761999999999716,8.38200000000052,4.3179999999993
782.3,"Nuuanu Upper","NWS","HydroNet-UaNet","OA",248.412,21.3502007,-157.8184,"USC00516938","NUUH1","156097FE",NA,NA,0,0.254000000000019,6.858,2.79399999999998,0.254000000000019,1.77800000000002,21.844,8.38199999999995,18.542,2.286,11.176,4.82599999999996,16.51,1.01599999999996,17.5260000000001,1.77800000000002,2.79399999999998,25.146,1.524,21.59,37.846,24.3839999999999,23.1529100747045,91.948,4.572,2.28599999999994,4.06399999999996,0,7.87400000000014,11.684
785.11,"WAIHI STREAM NEAR HONOLULU 3NE","USGS","USGS","OA",108,21.3283,-157.801,NA,"WISH1","16EA459A",NA,NA,0,0,0,0,0,0,NA,0,NA,0,NA,0,NA,0,NA,0,0,NA,0,NA,NA,NA,NA,1.524,0,0,0,0,NA,NA
787.2,"Maunawili","NWS","HydroNet-UaNet","OA",127.1016,21.3509998,-157.7668,NA,"MAUH1","19007374",NA,NA,0.254000000000019,0,NA,NA,0.254000000000019,0,8.38200000000001,2.03199999999998,0.507999999999981,0,7.62,NA,NA,0,44.958,0.508000000000003,1.524,21.336,0.507999999999996,21.59,30.734,10.414,12.7,20.32,2.79399999999998,1.524,3.04799999999997,0,20.32,7.11199999999999
788.2,"St Stephens Seminary","NWS","HydroNet-UaNet","OA",142.9512,21.3666992,-157.7786,NA,"STVH1","19005598",NA,NA,0.254000000000133,0,2.03199999999993,4.06399999999985,0,0.254000000000133,7.11199999999985,1.0160000000003,0.761999999999716,0.254000000000133,7.36599999999999,0,5.58799999999997,0.508000000000038,24.384,1.26999999999998,0.253999999999905,16.7640000000001,1.26999999999998,12.7,13.2080000000001,6.34999999999991,8.63599999999997,19.558,4.06400000000008,0.253999999999905,1.77800000000002,0,4.06400000000008,5.33400000000006
790.11,"Olomana Fire Stn","NWS","HydroNet-UaNet","OA",45.1104,21.3777008,-157.7507,"USC00517052","OFSH1","19011468",NA,NA,0.253999999999905,0,1.01600000000053,2.53999999999996,0,0,4.0639999999994,1.01599999999962,0,0,4.31800000000112,0,1.01599999999962,0.507999999999811,7.60225706603412,1.52399999999943,0.254000000000815,5.84199999999964,0,4.31800000000021,7.36599999999999,1.77799999999934,1.27000000000044,7.61999999999989,5.07999999999993,1.01600000000053,0.507999999999811,0,2.28599999999915,4.06400000000122
793.2,"BELLOWS AFS AT WAIMANALO","NWS","STATE","OA",6.66,21.3667,-157.717,NA,"BELH1","B14036D2",NA,NA,0,0,1.26999999999998,0,NA,NA,NA,NA,NA,NA,NA,NA,NA,NA,NA,NA,NA,NA,NA,NA,NA,NA,NA,NA,NA,NA,NA,NA,NA,NA
795.3,"Waimanalo Nonokio","NWS","HydroNet-UaNet","OA",20.1168,21.3356991,-157.7116,NA,"WMLH1","224185AC",NA,NA,0,0,0.254000000000005,0.253999999999991,0.254000000000005,0,0,0,0,0,1.01600000000001,0.253999999999991,0.762000000000015,0,7.11199999999999,0.253999999999991,0.254000000000005,5.58799999999999,0,2.032,6.604,0.254000000000019,1.01599999999999,2.794,0.253999999999991,0.254000000000019,0,2.53999999999999,1.27,1.27000000000001
801.2,"WAIANAE BOAT HARBOR","NWS","STATE","OA",4.25,21.4503,-158.184,NA,"WBHH1","15D13434",NA,NA,0,0,0,0.254000000000019,0.253999999999905,0,0,0,1.77800000000002,0,0.508000000000038,0,0,0,0,0,0,1.26999999999998,0.254000000000019,0,0,0,0.761999999999944,0,0,0.762000000000057,0,0,0,0
803.2,"WAIANAE VALLEY","RAWS","RAWS","OA",291.6936,21.48055556,-158.1552778,"USR0000HWVA","WNVH1","487005DA",NA,NA,0,0,0,2.03199999999993,2.03200000000015,0,0.507999999999925,0.761999999999944,1.26999999999998,0.254000000000133,4.06399999999985,0,0.508000000000152,0,0,0,0,4.06399999999985,0,0,1.77800000000002,0.508000000000152,0.761999999999944,1.01599999999996,0.762000000000057,0.76199999999983,1.77800000000002,0,6.60400000000016,0
804,"Lualualei","US VY","HydroNet-UaNet","OA",35.9664,21.4211006,-158.1352,"USC00515647","LUAH1","8170406C",NA,NA,0,0,0.508000000000038,0,0,1.26999999999998,6.60399999999998,2.286,1.27000000000001,1.01599999999999,9.14400000000001,3.30199999999999,2.286,0,2.286,0.254000000000019,0,9.398,0,14.224,15.24,11.176,9.39800000000002,20.32,0,0,3.80999999999995,2.79400000000004,0.762,0
810.1,"WHEELER ARMY AIR FIELD 810.1","COOP","NWS","OA",255,21.48722,-158.02806,"USW00022508","WAFH1","B14101B2",NA,NA,0.254000000000133,0,0,0.508000000000038,0,0,1.01600000000008,1.01599999999985,1.52400000000011,4.06400000000031,10.1599999999996,1.26999999999998,9.65200000000027,0.253999999999678,0.508000000000266,0.508000000000038,0,3.80999999999972,0.508000000000266,2.28600000000006,4.31799999999976,0.508000000000266,4.82599999999979,10.6680000000001,2.03199999999993,0.507999999999811,2.28600000000029,0,2.28600000000006,7.11199999999985
828,"SCHOFIELD EAST","RAWS","RAWS","OA",381,21.49944444,-157.9933333,"USR0000HSCH","SCEH1","325AB384",NA,NA,0,0,0,0,0,2.79399999999998,5.84200000000004,5.07999999999998,16.764,11.176,21.59,17.2719999999999,20.3200000000001,3.048,0.761999999999944,0.762000000000057,0.254000000000019,13.208,0.254000000000019,9.90599999999995,11.176,6.096,7.36599999999999,17.7800000000001,2.53999999999985,1.77800000000002,2.03200000000004,1.2700000000001,6.85799999999995,21.082
837.12,"WAIAHOLE STREAM NEAR KAHALUU 2N","USGS","USGS","OA",4,21.48194,-157.8458,NA,"WHSH1","162B784C",NA,NA,0,0,2.03200000000001,24.13,0,1.016,5.588,0.508000000000003,3.81,0,8.382,2.032,3.81,1.01600000000001,5.842,5.84200000000001,2.54,14.986,0.253999999999991,1.77800000000001,9.652,1.01600000000001,2.032,5.58799999999999,3.30199999999999,3.30200000000001,0,1.27000000000001,7.11199999999998,0
839.15,"Ahuimanu Loop ","NWS","HydroNet-UaNet","OA",74.0664,21.4319992,-157.8373,NA,"AHUH1","15CE7632",NA,NA,0,0,11.938,41.1479999999999,0.254000000000133,0.254000000000019,12.1919999999999,1.2700000000001,2.54000000000008,2.03199999999993,3.30200000000002,2.53999999999996,11.176,0.507999999999925,24.6379999999999,0.508000000000152,2.28599999999983,26.162,1.52400000000011,7.87400000000002,11.1759999999999,4.31799999999998,17.78,33.7820000000002,6.85799999999995,0,3.80999999999995,0,14.9860000000001,0.507999999999811
839.8,"Waihee Pump","USGS","HydroNet-UaNet","OA",64.3128,21.4463997,-157.8584,"USC00519286","WPPH1","195042AC",NA,NA,0,0.253999999999905,6.096,37.846,0.254000000000133,1.52399999999989,12.954,4.76988813695143,7.92866847611186,1.02727828552333,6.23483795664773,2.84982454422521,8.48970018002583,2.286,8.382,8.128,2.032,28.956,1.778,9.90600000000001,17.78,5.842,18.034,39.878,5.334,2.03200000000001,3.30199999999999,0,11.684,2.28600000000003
841.2,"KUAOKALA","S&PF","RAWS","OA",267.0048,21.57027778,-158.26,NA,"KKRH1","48710720",NA,NA,0,0,0,0,1.52400000000006,0,0.253999999999962,0,0,0,0.507999999999981,0,0,0,0,0,0,0.762,0,0.254000000000019,1.524,0,0,0.761999999999944,0,0,0.508000000000038,2.286,1.52400000000006,0
842.1,"MakahaRainGage","USGS","USGS","OA",286.097472,21.50158333,-158.1801667,NA,"MKHH1","DD1423F8",NA,NA,0,0,0,3.81000000000003,0.253999999999991,0,1.01600000000002,0.761999999999972,0.762,0,2.53999999999999,0,0,0,0,0.254000000000019,0,9.14400000000001,0,0.507999999999981,0.507999999999981,0,0,1.01600000000002,1.77800000000002,0,0.507999999999981,0.507999999999981,2.286,13.97
842.8,"MAKUA RANGE","RAWS","RAWS","OA",6.096,21.52861111,-158.2261111,"USR0000HMAR","MKRH1","3266B468",NA,NA,0,NA,NA,NA,0,0.254000000000019,0.253999999999905,NA,NA,NA,0.76199999999983,0,NA,NA,0,0,0,NA,0,0,NA,NA,1.01599999999996,0.254000000000019,0.253999999999905,NA,0.254000000000133,0,2.53999999999996,0
842.9,"MAKUA RIDGE","RAWS","RAWS","OA",533.4,21.54277778,-158.1988889,"USR0000HMRG","MKGH1","3266C2F8",NA,NA,0,0,0,11.684,0.253999999999991,0.254000000000019,0.50800000000001,1.26999999999998,1.77800000000002,0,3.048,0,0.253999999999991,0,0,0.253999999999991,0,9.398,0.253999999999991,1.52400000000003,6.096,0.507999999999981,4.31800000000001,4.06399999999999,0.507999999999981,0,0.254000000000019,1.01600000000002,4.82599999999996,0.253999999999991
843.7,"DILLIINGHAM","RAWS","RAWS","OA",31.0896,21.57194444,-158.1986111,NA,"DLGH1","3278D278",NA,NA,0,0,0,1.01600000000008,0.253999999999905,0,0.508000000000038,1.77799999999996,1.27000000000004,0,0.507999999999981,0.254000000000076,0,0,0,0.253999999999905,0,3.30200000000008,0,0,2.286,0.253999999999962,2.79399999999998,3.55600000000004,0.761999999999944,0.254000000000019,0.762000000000057,0.761999999999944,3.04800000000012,0.253999999999905
858,"SCHOFIELD BARRACKS","RAWS","RAWS","OA",298.704,21.495,-158.0819444,"USR0000HSCO","SCBH1","3266A71E",NA,NA,0.508000000000038,0.254000000000019,0,0.761999999999944,2.53999999999996,0.254000000000133,0.507999999999925,0,3.30200000000002,0.507999999999925,2.28600000000006,0.762000000000057,2.03199999999993,0,0,0.254000000000019,0,6.35000000000002,0,1.01599999999996,3.04799999999989,0.762000000000057,5.08000000000004,4.3180000000001,0.507999999999925,1.01599999999996,1.2700000000001,0,2.79399999999998,0.762000000000057
884.4,"PunaluuRainGageatalt","USGS","USGS","OA",73.152,21.55644444,-157.899,NA,"PNSH1","DD989652",NA,NA,0.254,0.254,60.198,6.09600000000002,0.253999999999991,1.77800000000001,20.066,5.58799999999999,18.542,7.874,9.398,5.58799999999999,17.78,2.79400000000001,68.834,2.03200000000001,2.79400000000001,35.306,1.77800000000002,11.43,31.242,7.11200000000002,30.226,59.436,36.83,4.572,3.048,3.30200000000002,14.478,25.6540000000001
885.7,"OAHU FOREST NWR","RAWS","RAWS","OA",698.9,21.47747,-157.9369,NA,"OFRH1","8379F6FA",NA,NA,0.254000000000133,0,0.762000000000171,3.04799999999955,0.254000000000133,0.762000000000171,16.2560000000001,7.36599999999976,27.6859999999999,0.508000000000038,12.7,5.58800000000019,14.732,3.30199999999991,2.7940000000001,0.761999999999944,0.507999999999811,24.8920000000003,1.01599999999962,11.6840000000002,19.8120000000001,8.1279999999997,26.162,54.356,5.58800000000019,2.54000000000019,7.11199999999985,1.52399999999989,22.098,17.2720000000002
886.4,"KahanaRainGageatalt","USGS","USGS","OA",28.956,21.54041667,-157.8825556,NA,"KNRH1","17B972EE",NA,NA,0,0.254000000000001,33.02,20.066,0.762,0.762,18.542,5.58799999999999,10.668,1.77800000000001,10.414,4.06400000000001,10.414,2.53999999999999,28.194,4.06400000000002,8.88999999999999,27.686,1.524,12.7,21.59,7.36599999999999,21.336,51.054,27.9400000000001,4.31799999999998,0.762,0,6.096,13.208
886.8,"Hakipuu Mauka","RILEY W","HydroNet-UaNet","OA",8.5344,21.5067005,-157.8547,"USC00510920","HAKH1","16C69380",NA,NA,0.507999999999811,0,6.60400000000004,26.162,0.508000000000038,0,10.4139999999998,0.762000000000171,7.61999999999989,0.761999999999944,8.38200000000006,7.11200000000008,6.34999999999991,0.507999999999811,9.39800000000014,1.52400000000011,4.06399999999985,8.38200000000006,0.254000000000133,5.58799999999997,11.9379999999999,1.77800000000025,3.04799999999977,16.5100000000002,12.192,3.55600000000004,0.253999999999678,0.508000000000266,7.62000000000012,1.01599999999962
905.22,"Punaluu Pump","NWS","HydroNet-UaNet","OA",3.9624,21.5842991,-157.8916,NA,"PUNH1","19051152",NA,NA,0,0,NA,12.4459999999999,0,0.508000000000038,6.34999999999991,0.508000000000266,6.60399999999981,0.762000000000171,8.88999999999987,2.53999999999996,8.8900000000001,3.30199999999991,21.0820000000001,1.77800000000002,4.06399999999985,15.4940000000001,0.507999999999811,4.06400000000008,4.82600000000002,1.26999999999998,6.34999999999991,15.4940000000001,17.018,1.01599999999985,0.508000000000038,2.54000000000019,6.34999999999991,NA
909,"KAHUKU TRAINING AREA","RAWS","RAWS","OA",181.6608,21.67916667,-157.9894444,"USR0000HKAH","KTAH1","325A861E",NA,NA,0,0,0,0,0,0,9.14399999999998,1.52400000000003,3.80999999999997,0,6.096,5.58799999999999,3.55600000000001,3.048,16.51,0.50800000000001,0.253999999999991,10.922,0,3.30199999999999,4.31800000000001,1.01599999999999,2.03200000000001,12.954,2.53999999999999,0.253999999999991,0.507999999999981,3.30200000000002,2.03200000000001,0
911.1,"KII","RAWS","RAWS","OA",1.524,21.68833333,-157.9525,"USR0000HKII","KFWH1","8375210E",NA,NA,0,0,0,0.253999999999905,0,0,4.06400000000008,1.26999999999998,5.33400000000006,0,2.53999999999996,1.77799999999991,2.28600000000006,1.01600000000008,4.572,1.77800000000002,0,4.572,0,1.26999999999998,1.01599999999996,1.26999999999998,0.508000000000038,8.63599999999997,3.55600000000004,0.253999999999905,0,2.03200000000004,2.03200000000004,0
912,"KAUHUKU 912","KUILIMA  GOLF","COOP","OA",4,21.695,-157.9811,"USC00512570","KAHH1","B1404042",NA,NA,0,0,0,0.254000000000019,0,0,6.096,1.77800000000002,6.85799999999995,1.524,3.048,4.31799999999998,5.08000000000004,0.762000000000057,8.63599999999997,5.8420000000001,0.76199999999983,6.35000000000002,0,1.01600000000008,1.01599999999996,1.26999999999998,1.01599999999996,7.87400000000002,3.30199999999991,2.03200000000015,0,0.507999999999925,1.2700000000001,0.253999999999905
926,"PORT ALLEN CAA AIRPORT","FAA","COOP","KA",9,21.89381249,-159.6010997,"USW0022526","PAKH1","B159A272",NA,NA,0,0,0,15.24,0,2.54000000000002,0,0,3.30200000000002,1.26999999999998,1.524,0.254000000000019,1.26999999999992,0.762000000000057,4.06399999999996,0,0,0.508000000000038,0,0.254000000000019,0,0,0,0.761999999999944,2.286,0,0,0,0,0
940.3,"POIPU","NWS","STATE","KA",14.8,21.8828,-159.429,NA,"POIH1","B15997E8",NA,NA,3.04799999999997,0,0,10.668,0,0,1.01600000000002,0,3.048,1.524,3.55600000000004,2.03199999999998,2.79399999999998,7.11200000000002,2.53999999999996,0.254000000000019,1.524,3.81,1.77800000000002,0.761999999999944,0.762000000000057,0.762,0.507999999999981,0.508000000000038,0.507999999999981,0.761999999999944,0.508000000000038,0.508000000000038,0.507999999999981,0.507999999999981
946,"WAIMEA HTS","RAWS","RAWS","KA",159.7152,21.96638889,-159.6638889,NA,"WHGH1","487090B8",NA,NA,0,0,0,12.192,0.508000000000038,0.254000000000019,0,0,0,0.508000000000038,0.253999999999905,0,0,0,0,0,0,0,0,0,0,0,0,4.82600000000002,2.03200000000004,0,0,0,2.28600000000006,0
946.1,"WAIMEA TANK AT WAIMEA","NWS","unknown","KA",70,21.964722,-159.666944,NA,"WMTH1","1900E616",NA,NA,0,0,0,10.9219999999999,0.254000000000019,0.254000000000019,0,0,0,0.507999999999925,0,0,0,0,0,0,0,0,0,0,0,0,0,4.572,2.28600000000006,0,0,0,1.26999999999998,0
966.4,"Hanapepe","NWS","HydroNet-UaNet","KA",110.6424,21.9365005,-159.5866,NA,"HNPH1","156011EA",NA,NA,1.52400000000034,0,0,6.34999999999991,0.507999999999356,0.508000000000266,0,0,0.507999999999811,2.03200000000015,3.8100000000004,0.253999999999451,1.01600000000008,1.01600000000053,0.253999999999451,0,0,0,0,0,0,0,0,5.07999999999993,1.01600000000053,0,0,0,0,0
986.2,"Kalaheo","KUKUILONO GOLF COU","HydroNet-UaNet","KA",263.0424,21.9183006,-159.5265,NA,"KHEH1","1560740C",NA,NA,4.54823890472117,0.444791722736071,0,12.954,0,0,0.254000000000001,0,4.064,10.414,17.272,1.27,11.684,6.096,0,0,0.50800000000001,5.58799999999999,0.762,6.096,7.366,5.08,3.81,8.89,20.828,12.954,0.253999999999991,2.286,1.524,0
992.1,"Omao","NWS","HydroNet-UaNet","KA",99.9744,21.9071007,-159.4768,"USC00517116","OMAH1","195001A6",NA,NA,8.38200000000006,0,0,6.35000000000002,1.26999999999998,0,0.508000000000038,0,5.58799999999997,2.28600000000006,9.39800000000002,4.06399999999996,9.39800000000002,6.60399999999993,0.762000000000057,1.524,2.28599999999994,6.096,1.26999999999998,6.096,8.38199999999995,7.87400000000014,1.77800000000002,17.78,21.8439999999999,19.8242305311097,0,0.508000000000038,11.1759999999999,0
1029,"MANA","RAWS","RAWS","KA",26.2128,22.02944444,-159.7622222,NA,"MNRH1","4870603C",NA,NA,9.14400000000001,0,0,5.58799999999997,0,2.03200000000004,1.01599999999996,0,0,0,0,0,0,1.01599999999996,0,0,0,0,0,0,0,0,0,1.52400000000011,8.12800000000004,0,0,0,0.507999999999925,0
1036,"PUU OPAE","RAWS","RAWS","KA",652.8816,22.04083333,-159.6958333,NA,"POPH1","4870734A",NA,NA,0.761999999999944,0.508000000000038,0,14.9860000000001,2.53999999999996,6.096,0.507999999999811,0,1.0160000000003,0,0,0,0,0,0,0,0,0,0,0.761999999999716,0,0,0,4.06400000000008,3.30200000000013,0,0,0,4.31799999999998,0.761999999999944
1042,"WaialaeRainGagenrWaimea","USGS","USGS","KA",1219.2,22.08972222,-159.5925,NA,"WLGH1","DDF7C28E",NA,NA,0.762,0.254000000000019,0.762,12.446,5.07999999999998,0,4.82599999999999,0.254000000000019,17.272,5.334,21.844,4.31800000000001,16.5099999999999,5.84200000000004,1.26999999999998,0.507999999999981,3.048,4.572,0.508000000000001,0.762,4.572,2.032,3.048,38.862,19.304,7.62,4.57199999999999,8.38200000000001,10.668,5.84200000000001
1047,"Mt.WaialealeRainGagenrLihue","USGS","USGS","KA",1569.72,22.07088889,-159.4979722,"USC00516565","WLLH1","DD5E818E",NA,NA,2.28600000000006,12.1919999999991,23.1140000000014,36.0680000000002,15.4939999999988,5.84200000000055,79.2479999999996,5.33399999999983,92.2020000000011,35.0519999999997,36.576,11.1760000000004,60.9599999999991,30.2259999999997,6.09600000000046,17.5259999999998,29.4640000000009,75.4379999999992,24.1300000000001,87.3759999999993,82.2960000000003,74.4220000000005,69.8500000000004,236.219999999999,188.468000000001,72.3899999999994,9.14400000000023,8.89000000000124,57.4039999999986,19.5580000000009
1051,"NWailuaDitchRainGagenrLihue","LIHUE PLANTATION","USGS","KA",338.328,22.0625,-159.4677222,"USC00516888","WLDH1","1732B3E0",NA,NA,2.03200000000004,3.55600000000004,54.8639999999999,70.612,10.922,2.03200000000004,38.3539999999999,1.26999999999998,37.5920000000001,8.63599999999997,17.5260000000001,2.53999999999985,25.146,23.8760000000002,3.30199999999979,12.4460000000001,19.558,15.494,4.82599999999996,25.4,38.354,34.798,29.718,122.936,112.776,55.372,3.30199999999996,2.54000000000002,26.416,20.32
1059,"Lihue Variety Stn","NWS","HydroNet-UaNet","KA",117.0432,22.0240002,-159.3868,NA,"LIHH1","1561501A",NA,NA,1.2700000000001,2.53999999999996,0.507999999999925,7.87400000000002,2.03200000000004,0.254000000000019,1.01599999999996,0,19.05,2.28600000000006,5.33400000000006,0.507999999999925,5.08000000000004,7.62,0.507999999999925,5.08000000000004,8.12799999999993,21.8440000000001,4.572,2.7940000000001,6.09599999999989,2.28600000000006,0.761999999999944,51.308,24.13,30.734,0.253999999999905,5.33400000000006,6.09600000000012,2.03199999999993
1061.5,"Wailua UH Exp Stn","NWS","HydroNet-UaNet","KA",158,22.066,-159.3962,NA,"WUHH1","15C163D6",NA,NA,2.03199999999924,1.52400000000034,5.58799999999974,56.3879999999999,2.54000000000087,0,13.675107726213,0.507999999999811,16.0020000000004,8.89000000000033,7.8739999999998,1.26999999999953,8.85505096305186,8.89000000000033,3.30199999999968,4.57200000000103,16.2559999999994,21.3360000000002,4.0639999999994,7.6200000000008,13.4619999999995,6.85799999999927,3.55600000000049,48.2600000000002,54.1019999999999,41.9100000000008,3.55599999999959,1.52399999999943,11.4300000000003,1.52399999999943
1074,"MAKAHA RIDGE","RAWS","RAWS","KA",544.9824,22.13055556,-159.7152778,"USR0000HMAH","MKAH1","3286026C",NA,NA,0.253999999999905,0,0,14.732,0,0,5.33400000000006,0,1.26999999999975,0,0.508000000000266,0,0,1.01599999999985,0.253999999999905,0,0,3.81000000000017,0,0,0,0,0,14.2239999999999,0,0,0.254000000000133,0.253999999999905,0.253999999999905,0
1076,"Kokee","NWS","HydroNet-UaNet","KA",1279.2456,22.1485996,-159.6448,NA,"KOKH1","1900E616",NA,NA,0,0,0,10.9219999999999,0.254000000000019,0.254000000000019,0,0,0,0.507999999999925,0,0,0,0,0,0,0,0,0,0,0,0,0,4.572,2.28600000000006,0,0,0,1.26999999999998,0
1084,"KilohanaRainGafenrHanalei","USGS","USGS","KA",1219.2,22.15408333,-159.5946111,"USC00514610","KLOH1","DDCC972A",NA,NA,25.4,2.28600000000006,9.14399999999995,12.1920000000001,1.26999999999992,0.254000000000019,7.62,0.254000000000019,9.14399999999995,8.89000000000004,23.3201332900899,3.30199999999996,16.256,2.286,4.572,4.572,4.57199999999995,22.6060000000001,7.87399999999997,21.336,23.1139999999999,10.6680000000001,13.208,29.4639999999999,12.7,24.8920000000001,3.80999999999995,8.38200000000006,18.3981996236192,2.79399999999998
1094.2,"Kapahi","NWS","HydroNet-UaNet","KA",158.496,22.1021004,-159.3856,"USC00513171","KPIH1","15608488",NA,NA,2.54000000000087,1.26999999999862,6.09599999999955,16.2559999999994,1.01600000000144,0.507999999999811,9.65200000000004,3.04799999999886,22.3520000000026,1.77799999999843,9.14400000000023,2.28600000000006,6.09599999999955,3.80999999999949,4.31800000000112,17.5259999999998,24.1299999999992,30.7340000000004,2.79399999999987,7.6200000000008,11.6839999999993,5.33400000000074,9.90599999999904,36.0680000000011,40.6399999999994,43.4340000000011,1.26999999999862,1.77800000000025,13.7160000000003,3.55599999999868
1111.4,"Anahola","HAWN FRUIT PACKERS","HydroNet-UaNet","KA",75.2856,22.1373997,-159.312,NA,"ANHH1","1560029C",NA,NA,5.0799999999997,1.77800000000002,0,6.85800000000017,0.253999999999905,0.253999999999905,8.38200000000006,0,12.7,1.26999999999998,2.54000000000019,1.01599999999985,0.507999999999811,1.01600000000008,2.7940000000001,5.07999999999993,4.06400000000008,54.864,1.01599999999985,1.01600000000008,2.03200000000015,0.507999999999811,1.01600000000008,37.0840000000001,14.9860000000001,21.8439999999998,0,0.762000000000171,10.4139999999998,1.52400000000011
1146,"Moloaa Dairy","RAWS","RAWS","KA",85.344,22.18333333,-159.3375,"USR0000HMOL","MLDH1","AAB6D15A",NA,NA,0,0,0,0,0,0,0,0,0,0,0,0,0,0,0,0,0,0,0,0,0,0,0,0,0,0,0,0,0,0
54.2,"Glenwood","HELBUSH XL","HydroNet-UaNet","BI",802.2336,19.5076008,-155.1707,"USC00510744","GLNH1",NA,NA,NA,0.259538239449383,1.17440548576386,0.958686789044598,3.16435913620387,0,0,25.8934623597193,15.1108121533632,2.43602565998589,62.8167285966846,26.5418780115809,45.1745659445476,5.85504483026976,1.25795811286981,1.39744830518727,10.1187264155623,0.11983584863057,26.2916854151693,6.00871798308989,4.34242668331963,106.671298528571,339.973147588458,85.0122025010042,2.44248735938479,45.6319882985553,15.2012508768707,7.37288127399875,3.60310702304477,1.19772189080296,0.878796223290875
54.8,"Nahuku 0201","HiMesonet","HavoNet","BI",1202,19.415215,-155.238394,NA,"004HI",NA,NA,NA,0.232827747693179,0,1.14669749017847,1.91684932639359,0,0,19.5412317179162,5.78581119575088,2.18532101065562,38.3100272796281,14.7235176095005,31.9095126022454,3.672158778232,1.12849480189589,1.25362929988533,3.54626284024595,0.143337186272304,18.0547746703377,1.3078566447355,2.97367553515302,89.9268082426926,258.102086141762,66.9129577492887,2.05942507266936,20.9184726357984,6.78879077965918,0.161159154556809,0.0716685931361597,0.716305211363289,0.788354524497692
79.6,"Kulani NWR","NWS","HydroNet-UaNet","BI",1623.3648,19.5543995,-155.3089,NA,"KNWH1",NA,NA,NA,0.272373833263725,0,1.3414655000889,2.24242859363496,0,0,22.8603344852073,6.7685384991293,2.55650053089212,44.8170335622582,17.2243255804304,37.3293834225642,4.29587956199341,1.32017106232384,1.46655981206956,4.14860004071067,0.167683187511106,21.1214008398741,1.52999773959707,3.47875806220289,105.20098964541,301.941049863342,78.278207721207,2.40922100960912,24.4715015039493,7.94187542593908,0.188532239507917,0.0838415937555624,0.837970551787105,0.922257531311111
85.2,"Waiakea Uka","NWS","HydroNet-UaNet","BI",303.8856,19.6585999,-155.1277,"USC00519084","WKAH1",NA,NA,NA,0.238150031813368,1.07762426218894,6.1905933235397,2.90358842902933,0,2.06754613782841,23.7596159155886,13.8655498422271,2.23527596416853,57.6400839639267,24.3545964797118,31.7696182185344,5.37253822618067,1.1542914263247,1.28228641391702,9.28485537579871,0.290943324041737,24.1250219286887,5.51354737500828,3.98457296687287,97.8806560144945,311.956404133937,78.0064578271408,2.24120516335197,41.8715156890305,13.9485356285457,6.76529174923925,3.30617967504721,2.25613451073611,0.806375773289492
87,"HILO INTERNATIONAL AIRPORT 87","NWS","HydroNet-UaNet","BI",11.6,19.7191,-155.053,"USW00021504","PHTO",NA,NA,NA,0.198314555710388,0.897369507580882,5.15508965165107,2.4179037260009,0,1.72170665110594,19.7853329612065,11.5462523170956,1.86138022467947,47.998598007216,20.2807908258641,26.4554981333562,4.47387104359935,0.96121251644965,1.06779771782145,7.73177292762119,0.242277087283604,20.0896173259411,4.59129352088361,3.31807143423046,81.508109246728,259.775298855783,64.9582782279609,1.86631764372086,34.8676461118344,11.6153570290234,5.63365798142305,2.75315333096208,1.87874975162774,0.67149289041812
87.9,"IPIF","HiMesonet","HIPPNET","BI",112,19.69748,-155.0954,NA,"005HI",NA,NA,NA,0.225092319113981,1.01853836618293,5.85116448348449,2.74438532829978,0,1.95418304795216,22.4568815169777,13.1053048618665,2.11271628562592,54.4796911198085,23.0192394305437,30.027697194598,5.07796316318458,1.09100188694674,1.21197893814738,8.77576884312274,0.274990966999355,22.8022524005364,5.21124081208607,3.76609972697868,92.5138816524132,294.851904634617,73.7293812832169,2.11832038815124,39.5757098980672,13.1837405561795,6.39435232371641,3.12490258681591,2.13243116277498,0.762162370943144
89.11,"Piihonua","NWS","HydroNet-UaNet","BI",296.8752,19.7098007,-155.1395,"USC00518053","PIIH1",NA,NA,NA,0.221671248604892,1.00305808866551,0.818813050436742,2.70267472818167,0,0,22.1155701146774,12.9061236008087,2.08060612119527,53.6516803490817,22.6693810192595,38.5835338151198,5.00078562957442,1.0744202710325,1.19355864988853,8.64239012943778,0.102351631304589,22.4556918713485,5.13203765522952,3.70886057834416,91.1078074094173,290.370591547326,72.6088036777517,2.08612504964644,38.9742176101852,12.9833671885153,6.29716762081096,3.07740868686582,1.0229725977142,0.750578629567008
91.9,"Pahoa Beacon","NWS","HydroNet-UaNet","BI",187.1472,19.5149994,-154.9644,NA,"PHAH1",NA,NA,NA,0,2.46918317528713,0,2.16053527837582,0,0,8.64214111350442,18.2102259177411,0,42.2847618767887,21.2967048868503,25.9264233405127,3.7037747629307,0,0,12.9632116702561,0,12.9632116702566,9.56808480423723,2.16053527837582,44.1366492582543,109.878651300269,21.9140006806718,0.308647896910753,46.9144803304516,16.0496906393653,15.123746948633,7.4075495258603,NA,0
93.13,"Mamalahoa","HiMesonet","HIPPNET","BI",603,19.80258,-155.850629,NA,"009HI",NA,NA,NA,0,0,0,4.71539273287338,0,1.66425625866104,0,0,0,0,0,1.10950417244073,0.83212812933064,0,0,0,0,3.88326460354274,0,5.82489690531411,0,0.832128129330517,0,0.554752086220303,0,0,0,0,0,0.277376043110213
127.5,"Laupahoehoe","HiMesonet","HIPPNET","BI",1152,19.93217,-155.29129,NA,"007HI",NA,NA,NA,0.180731337490121,3.58679894141838,2.46518380723236,5.36618176659544,0.072888159151886,0.583105273214176,25.9383386919412,19.4421540284383,1.74038145730549,57.4302762951902,24.3350428278332,48.1556431424822,3.54459288982663,0.542194012469717,1.15727618409087,12.0859149152396,1.39235934328685,30.6038987210229,18.2433133270317,9.40700741835055,79.2693162279552,291.111547827016,81.9543777327561,3.59349410660039,45.8541859489624,16.5073021707009,10.8430991652566,4.63779145550491,2.47972548900503,0.0728881591517555
132.2,"Spencer","HiMesonet","HIPPNET","BI",469,19.96358,-155.25014,NA,"006HI",NA,NA,NA,0,4.41948185073327,8.07093212979135,5.12897251446168,0.0738437376131442,2.88729233002738,23.9446382137292,21.6040533463416,2.29634746973646,44.9478498219255,20.9454006168259,35.2530827765022,4.46736787789752,1.39001252289033,2.30995083965397,11.796189479607,1.57092858536349,29.5459391179692,20.595928510094,10.7116635942219,80.3085529449677,195.96859336011,60.9098768976456,1.95220187124913,32.5714045162934,17.4789630102057,14.9721911882697,5.30294710732055,3.47202130135331,0.980373643845824
279,"POHAKAU PALAHA HN-161","HiMesonet","HaleNet","MA",2460,20.730574,-156.141316,NA,"043HI",NA,NA,NA,0.112070838916902,0.51720156685579,8.49834710730147,0.629461918238617,0.0726431646635365,2.42406042999699,12.9514297536947,7.14450565074208,2.28864267022902,22.2073782389232,15.2685333813363,17.3205401630072,7.36076759399362,2.05871815763986,2.18636978031894,3.59010027288062,0.24156241803944,24.249506251596,1.88093584776633,6.24955291475117,93.8032921733137,360.083605439494,51.0666424169082,3.69833768425248,12.9221396256144,7.5622548646716,6.62348630786086,3.13034793761751,5.62468524661726,0.591183102936389
324.6,"KULA AG HN-119","HiMesonet","HaleNet","MA",964,20.757889,-156.320028,NA,"001HI",NA,NA,NA,0,0,0,0,0,0,0,0,0,0,0,0,0,0,0,0,0,0.269206202781085,0,0,0,0,0.269206202781327,1.34603101390591,0,0.269206202781085,0,0,0,0
702.7,"Kapolei-Kalaeloa AP","NWS","NWS","OA",15,21.31667,-158.06667,"USW00022551","PHJR",NA,NA,NA,0,0,0,0.154860778090063,0.309721556179987,0,0.309721556180126,0.154860778089786,1.23888622471981,0,0,0.309721556180126,0,0,0.154860778089786,0,0,0.61944311236011,0,0,0,0,0,0.154860778089786,0.309721556180126,0,0.46458233427005,0,0.464582334269911,0
702.8,"PTWC","NWS","HydroNet-UaNet","OA",1.524,21.3150005,-157.9992,NA,"PTWH1",NA,NA,NA,0,0,0,0.335797840592961,0.671595681185621,0,0.671595681185922,0.335797840592359,2.68638272474219,0,0,0.671595681185922,0,0,0.335797840592359,0,0,1.34319136237154,0,0,0,0,0,0.335797840592359,0.671595681185922,0,1.00739352177858,0,1.00739352177828,0
705.12,"Aloha Tower","NWS","HydroNet-UaNet","OA",38.1,21.3034,-157.8627,NA,"ALOH1",NA,NA,NA,0.137899425074175,0,0.137899425074299,1.37899425074224,0,0.137899425074299,0.275798850148351,0.137899425074175,0,0,3.86118390207839,0.689497125371247,1.7926925259649,0.275798850148474,0.551597700296825,0.55159770029695,0,2.75798850148461,0,1.24109482566795,7.58446837908247,4.82647987759786,4.55068102744964,9.23926147997308,0,1.51689367581642,1.24109482566807,0.55159770029695,NA,2.89588792655867
740.5,"Kunia","NWS","HydroNet-UaNet","OA",85.0392,21.3869991,-158.0358,NA,"KUNH1",NA,NA,NA,0.0763285164204166,0,0.0482420746786498,0.178574295401337,0.212422366766586,0.325469698618708,0.758946805841662,0.17857429540119,2.02336087696408,0.15265703284097,0.643008588432483,0.164180292087988,0.450040289717659,0,0.0820901460438472,0.38593659742935,0.0482420746786931,2.55113281287244,0.172812665777759,0.200899107519642,0.470195922654585,0.144726224035993,0.0482420746786714,0.962015092542558,2.42594934295956,0.353556140360316,1.77284076654093,0,0.419083103909595,0.0763285164204166
772.3,"MoanaluaRGNo.1atalt1000","USGS","USGS","OA",304.8,21.39338889,-157.8401111,NA,"MOGH1","1689664A",NA,NA,0,0.241133059119268,14.7873046008819,24.9754660668246,0.469577280523637,1.9339489799419,24.7791734699127,9.09584846646436,19.0913278478861,4.42374960019634,9.24882652530005,6.61617991997995,16.9662801183013,1.71429432478019,14.9102312006793,10.2340705048392,3.61896057003697,36.4014490809118,2.1907057480275,21.3808319552588,33.4335682764043,20.4719280010642,32.0181010978346,87.6944839655479,8.55196716291932,2.56851124578336,5.58610660364765,0.685332664212727,13.1510744186713,6.94500582399238
785.4,"Manoa Lyon Arbo","NWS","HydroNet-UaNet","OA",151.7904,21.3330002,-157.8024,"USC00516128","MNLH1",NA,NA,NA,0,0.165347644828301,17.9533411632896,7.61670815357927,0.520320138326349,1.74905433629478,27.827176372658,10.8993838463035,18.9331796134273,2.31639795495003,8.93183467543558,7.04630268021598,16.0721843163095,0.779714743812472,16.2602782376253,9.20347669975379,3.94865905409946,32.6981515389107,1.93867918496451,25.058697108844,37.2974846808454,26.9958453664544,34.7873043628087,103.399139963601,8.89246583187665,2.31639795494998,5.95863892323435,1.06491748049412,10.8053368856458,8.90755747159409
820.6,"Mililani","NWS","HydroNet-UaNet","OA",226.7712,21.4638004,-157.9991,"USC00516261","MITH1",NA,NA,NA,0.284362646769703,0.106678102319054,0.0710064421314683,1.24311805466646,1.06678102319044,1.01250954444039,2.99817549399554,2.20856266435141,7.6738812884525,4.5467463944378,8.69559446480677,4.93208452678639,6.91842423282897,1.02691054165843,0.434243740743363,0.327902516668033,0.0500726574057946,8.89205929178343,0.0500726574057946,5.21980373336188,7.95674000796733,4.14901644356149,7.63303631264409,13.3423417186881,1.21112787361647,0.990240337511111,1.99906840281414,0.463382613423379,4.86863346580531,5.68317438787302
824.2,"Waipio","NWS","HydroNet-UaNet","OA",124.968,21.4199009,-158.0058,NA,"PECH1",NA,NA,NA,0.222817770526682,0.0634155741951076,0.0606666290715452,0.31157998072844,0.694822371022591,0.472708698747825,0.874777411365459,0.121333258143145,2.54301479265687,0.318804392663292,1.37935305980296,0.190246722585323,1.07327096932136,0,0,0.54874860676766,0.0606666290715996,4.38062772733803,0.217319880279611,0.506302170125079,1.35227990210844,0.372246609800013,1.32897811297364,2.18461087683161,2.97110981942032,0.698275414397812,2.23681031370573,0,0.914891196425738,0.286233344721789
834.13,"Waiawa CF","NWS","HydroNet-UaNet","OA",235.6104,21.4440994,-157.9669,"USC00519257","WAWH1",NA,NA,NA,0.240022799363558,0,0.2400227993635,2.70470873082294,0,1.43328603853791,4.25756032515735,3.29535446968311,8.98646385817566,6.19396306357628,14.9355997650824,7.28491392364043,10.4699312779879,1.74488055816683,1.17480635825097,0.870325621062807,0.071571720265729,11.668486392034,0.071571720265729,8.09780323558154,17.1623582891847,10.3215064222243,12.432178164208,25.760252612842,1.42617225609696,2.32930420235553,3.34174043077405,1.21645621971963,6.748239297896,10.5749572524362
835.2,"Palisades","NWS","HydroNet-UaNet","OA",261.8232,21.4298,-157.9452,NA,"PACH1",NA,NA,NA,0.0995297227398851,0.0463915588196026,1.35210181086888,1.80419354263213,0.0463915588196026,1.59444475235937,7.89315497415728,4.62666350384682,12.1991635104396,6.49163661926199,12.8840663012623,7.34614994331021,11.5167603876232,1.6249866374513,3.80969696594497,0.634831150910721,0.580493985826799,13.3184958010499,0.348536191728808,10.6617581228929,16.2709357044171,9.82067351952107,12.1916209592823,32.9536816790704,2.23362450604313,1.20742106927396,2.79670549269957,0.649523362275187,6.61766382172195,9.65152461360718
855.3,"Poamoho Exp Farm","NWS","HydroNet-UaNet","OA",220.0656,21.5382004,-158.0893,NA,"POAH1",NA,NA,NA,0.248277279366467,0.124138639683233,0,4.68654505827709,1.33517181290238,0.217924055753458,0.435848111506739,0.468927080350802,2.27030022837306,0.248277279366411,2.24267274999099,0.3724159190497,1.08689453353592,0,0,0.217924055753392,0,6.5735263866766,0.0937854160701586,1.05926705515386,3.74051366188252,0.559986751190017,4.07712486685726,3.61092353173744,0.435848111506728,0.496554558732877,0.714478614486338,0.375141664280655,3.14744794184852,0.466201335119859
883.12,"PoamohoRainGageNo1,nrWaawa","USGS","USGS","OA",755.904,21.53386111,-157.9213889,NA,"PMHH1","DD9836AA",NA,NA,0.186136222305171,0.236891169564117,42.6402809118745,13.6772355871805,0.571251455950673,1.37760160062341,22.9116469548032,7.46249285180644,21.7737622017341,4.41793798190262,13.1593001165421,6.14894480348896,17.3613755203735,3.48644948542046,44.5118125943,3.15495370476949,5.8419583289483,36.6831663673298,1.84033363155827,14.8723340284455,30.3135977521255,9.24506200560818,31.6915682397524,67.8062607278591,31.5637780679688,4.9118372805008,3.86061865793928,1.87645330894006,16.019190459242,22.9137348587864
897.11,"KamananuiRainGageatalt","USGS","USGS","OA",219.456,21.62238889,-158.0143056,NA,"KMRH1","DD34C1E4",NA,NA,0.0403944159859213,0.0635189254240102,7.01802740710486,3.41072034221628,0.240277372270431,0.793089110693272,13.2751580592146,5.35847774244423,11.6762441617185,0.970641899462353,5.45091899530025,3.59554107421143,8.51706674265006,0.824657786466198,6.69078618519481,3.65673375876373,1.59768119679883,16.5197718031778,0.906328632115568,11.4845367530674,17.4787347691015,11.6631777858822,17.5632482583593,48.3655771433606,4.30475165699693,1.29379722734956,3.42007740908725,0.651458588496872,7.66522537268553,6.16869230303399
897.9,"PupukeaRdRainGageatalt","USGS","USGS","OA",353.568,21.59902778,-158.0169167,NA,"PPRH1","1713D512",NA,NA,0.1877958937981,0.0550249064701805,18.2222584508304,5.21662626487299,0.187882396735177,1.27045843237182,12.4935707798402,5.50480291097907,12.161777785211,5.99890253102605,9.16170153969192,4.9290871198305,9.69496443939182,1.44618572522665,17.2585526363515,3.58440668509601,1.40241891276199,20.5312269052592,0.739460985997928,11.9055424824825,19.8712195169307,10.6160919405945,20.6259271706172,44.1761351545623,11.1222998538871,1.69876208906462,3.89186693003166,1.51220921689038,9.64358209485569,8.30176646903098
1020.1,"LIHUE WEATHER SERVICE OFFICE AIRPORT 1020.1","LIHUE WEATHER SERVICE OFFICE AIRPORT 1020.1","NWS","KA",45,21.98156999,-159.3422063,"USW00022536","PHLI",NA,NA,NA,0.907192064211115,0.680394048158743,2.49477817658138,25.1745797818678,1.13399008026471,0,NA,0.226798016052779,7.14413750566538,3.96896528092526,3.5153692488193,0.566995040131949,NA,3.96896528092526,1.47418710434347,2.04118214447623,7.25753651369137,9.52551667422036,1.81438412842264,3.40197024079331,6.01014742540066,3.06177321671333,1.58758611237026,21.5458115250221,24.1539887096299,18.7108363243616,1.58758611236986,0.680394048158336,5.10295536118957,0.680394048158336
1060,"Wailua UH Exp Stn","NWS","HydroNet-UaNet","KA",158.1912,22.0660992,-159.396,"USC00519475","WUHH1",NA,NA,NA,1.37848343161076,1.47649584135107,14.5246861772629,41.351348100706,3.54896651853992,0.442633267642588,12.5963108345115,0.510608333268651,15.55853549264,5.97553585484339,7.4441313187952,1.1381979370333,8.15649694460796,9.29528536216278,2.24003557636785,4.81679163324047,11.7471465128077,13.2015053874442,2.92295433858788,9.04235396041457,14.5547102630449,10.7385890117726,8.11124932621786,49.0057540866285,49.483156969825,31.3636661751114,2.35701684686391,1.25517920752936,11.0183896516766,5.12822029940192
1069,"PUU LUA","RAWS","RAWS","KA",1021.08,22.08916667,-159.6791667,NA,"PLRH1","487083CE",NA,NA,0.661648602330628,0.441099068220484,0,13.0124225125034,2.20549534110222,5.29318881864541,0.441099068220287,0,0.882198136441163,0,0,0,0,0,0,0,0,0,0,0.66164860233043,0,0,0,3.52879254576368,2.86714394343305,0,0,0,3.74934207987382,0.661648602330628
1082,"WaiakoaliRainGagenrWaimea","USGS","USGS","KA",1042.416,22.1245,-159.6220833,"519130","WKRH1","17B79574",NA,NA,3.81138560389796,0.405214187898737,1.53566567824159,9.57631637050873,1.9675461288614,0.121492166441995,2.68537410886403,0.120749197191685,7.07308544620578,3.20541495996972,9.79393922192793,1.91050385690497,7.81313969362053,2.27941780167123,1.06600159585732,0.810428375797437,1.66233910933039,4.69811234197521,1.27268398569639,3.24245562248387,4.76922858965195,2.17496978803837,2.87131531983534,18.7057893551712,9.02583415020194,6.04042833676018,2.06681117793502,3.98472350732532,7.72683614905395,2.35053404934798
1083,"MoCrsgRainGagenrWaimea","USGS","USGS","KA",1042.416,22.11708333,-159.6009722,"USC00516433","MCRH1","D109224A",NA,NA,3.77309161469768,0.401142894844755,1.52023644304752,9.48010061230897,1.94777767768905,0.120271502832181,2.65839345200832,0.11953599838848,7.00202030459096,3.17320931650662,9.69553694995388,1.89130852437587,7.73463903319356,2.25651589413638,1.05529119868379,0.802285789689475,1.64563715300385,4.65090917704188,1.25989699643091,3.20987782178514,4.72131090115592,2.15311729704693,2.842466462943,18.5178473912783,8.9351492310172,5.97973857153244,2.04604538482137,3.94468794681956,7.64920260293844,2.32691761825043
1117.8,"Hanalei","NWS","HydroNet-UaNet","KA",4.8768,22.1982002,-159.4951,"USC00513386","HNIH1","B159849E",NA,NA,7.52961263745083,1.40012483040115,5.32684034697096,33.4649350189122,1.69004371011,0.0643497673892089,11.702738726484,0.338008742021813,10.9368493269418,7.04127391469469,NA,1.52069441264116,10.5253541511606,5.36817996257537,2.93707914811809,3.62122658470058,9.91538300125194,17.220806232213,4.18411458612665,9.51026508018417,13.107791660184,6.39708638788774,5.26180072666782,33.4621756072548,32.3621691678434,28.8831426113407,2.88085933326677,2.94451924774156,NA,1.52882436517905
