"SKN","Station.Name","Observer","Network","Island","ELEV.m.","LAT","LON","NCEI.id","NWS.id","NESDIS.id","SCAN.id","SMART_NODE_RF.id","X2024.01.01","X2024.01.02","X2024.01.03","X2024.01.04","X2024.01.05","X2024.01.06","X2024.01.07","X2024.01.08","X2024.01.09","X2024.01.10","X2024.01.11","X2024.01.12","X2024.01.13","X2024.01.14","X2024.01.15","X2024.01.16","X2024.01.17","X2024.01.18","X2024.01.19","X2024.01.20","X2024.01.21","X2024.01.22","X2024.01.23","X2024.01.24","X2024.01.25","X2024.01.26","X2024.01.27","X2024.01.28","X2024.01.29","X2024.01.30","X2024.01.31"
3.9,"LOWER KAHUKU CS","LOWER KAHUKU CS","RAWS","BI",953.7192,19.10083333,-155.6697222,NA,"LKHH1","32D620C2",NA,NA,4.06399999999996,0.508000000000038,1.26999999999998,5.07999999999993,0,1.77800000000002,8.63600000000008,2.03199999999993,119.634,0.76199999999983,0,0.254000000000133,0,0,0.507999999999925,16.256,0,0,0.508000000000038,0,0,0,0,0,0,0,0,0,0,0,0
4.15,"SOUTH POINT NEAR NAALEHU 12SSW","NWS","STATE","BI",295.78,18.9928,-155.668,NA,"SOPH1","B1507246",NA,NA,0,0,0.253999999999991,0,0,0,0,0,NA,0,0,0,0,0,0.508000000000038,0,1.01599999999996,0.253999999999991,1.52400000000003,1.27000000000001,0,0.762,0.761999999999972,0,0,0,0,0,0,0,0.762000000000029
9.2,"Nene Cabin","Nene Cabin","RAWS","BI",1991.7737,19.2564,-155.6144,NA,"NENH1","32D64524",NA,NA,0,NA,0,0,NA,0.253999999999905,12.7,NA,59.944,0.254000000000133,0,0.508000000000038,0,0,0,0.253999999999905,0,0,0,NA,0,0,0,NA,0,0,0,NA,NA,NA,0.254
12.16,"Kaiholena 0231","HiMesonet","HiMesonet","BI",631,19.16877,-155.57035,NA,"018HI",NA,NA,NA,2.032,0.508,NA,NA,NA,NA,NA,NA,NA,NA,NA,NA,NA,NA,NA,4.572,0,3.556,2.286,0,0.254,0,0,0,0,0,0,0,0,0,2.54
21,"Pahala","KAU SUGAR","HydroNet-UaNet","BI",346.8624,19.2042999,-155.4872,"USC00517421","PPLH1","B16084B2",NA,NA,0,0,0,0.254,0,0.254,56.896,0.253999999999991,116.332,0,0,0,1.77799999999999,0.507999999999981,1.77800000000002,17.272,2.286,13.716,0.761999999999972,0,0,0,0,0,0,0,0,0,0,0,0
23,"KAHUKU","RAWS","RAWS","BI",1796.4912,19.23222222,-155.78,NA,"KRCH1","32639544",NA,NA,0,0,0,0,0,0,0.762,0,94.234,12.192,0,5.334,0,0,0,5.33399999999999,0.507999999999996,0,0,0,0,0,0,0,0,0,0,0,0,0,1.01599999999999
23.1,"Kona Hema 0243","HiMesonet","HiMesonet","BI",1283,19.2068247,-155.8109802,NA,"035HI",NA,NA,NA,0,0.254,NA,NA,NA,NA,NA,NA,NA,NA,NA,NA,NA,NA,NA,3.556,0,0,0,0,0,0,0,0,0,0,0,0,0,1.016,1.27
27.6,"Honaunau No. 2","NWS","HydroNet-UaNet","BI",398.0688,19.4629002,-155.8824,NA,"HAUH1","15D12742",NA,NA,0,1.524,0.254,0,0,0,0,0,61.468,6.35,0.761999999999986,5.58800000000001,0,0,0,1.52399999999999,0,0,5.08000000000001,0,0,0,0,0,0,0,0,0,0,3.81,5.842
29.12,"Kealakekua","NWS","HydroNet-UaNet","BI",537.972,19.5181007,-155.9159,NA,"KLEH1","81708572",NA,NA,0,0.254,0.762,0,0,0,0,0,54.102,6.60400000000001,1.016,8.38199999999999,0,0,0,2.28600000000002,0,0,2.28599999999999,0.507999999999996,0.50800000000001,0.253999999999991,0,0,0,0,0,0,0,7.11200000000001,1.01600000000001
34,"Kapapala Ranch","NWS","HydroNet-UaNet","BI",638.556,19.2754993,-155.4514,"USC00513300","KAYH1","B16097C4",NA,NA,0.254,0,0,0,0,0.508,35.814,2.28600000000001,122.936,0.254000000000019,0,0,2.28599999999997,1.52400000000003,2.286,10.16,1.77800000000002,7.36599999999999,3.048,0,0,0,0,0.253999999999991,0,0,7.62,0.253999999999991,0,0,0.50800000000001
36.3,"KAPAPALA RANCH","KAPAPALA RANCH","RAWS","BI",1081,19.25811,-155.441781,NA,"KPRH1","AA10E258",NA,NA,0,0,0,0,0,0,50.546,1.01600000000001,143.002,0,0,0,3.048,0.253999999999991,2.79400000000001,13.462,4.31799999999998,10.16,3.30200000000002,0,0,0,0,0,0,0,4.06400000000002,0,0,0,0.253999999999991
38.9,"KAELAKOMO","KAELAKOMO","RAWS","BI",29.5656,19.29277778,-155.1075,NA,"KMOH1","32807432",NA,NA,NA,0.254,NA,NA,NA,NA,NA,NA,NA,0.253999999999991,NA,NA,NA,NA,NA,4.57199999999999,0,NA,NA,NA,NA,NA,NA,NA,NA,NA,NA,NA,NA,NA,0
39,"Mauna Loa Observatory","NWS","ESRL/GMD","BI",3397,19.5362,-155.5763,"USC00516198","MOBH1",NA,NA,NA,0,NA,0,0,NA,0,0,NA,NA,0,0,1.524,0,0,0,0,0,0,NA,NA,NA,NA,NA,NA,NA,NA,NA,NA,NA,NA,NA
43.3,"PUHE CS","PUHE CS","RAWS","BI",34.126,20.025,-155.8211111,NA,"PHRH1","32D61558",NA,NA,0,0,0.508000000000038,0,0,0,0,0,51.816,9.65200000000004,0,1.01599999999985,0,0,0,0.508000000000038,0,0,0,0,0,0,0,0,0,0,0,0,0,4.57199999999989,0
47,"KEMOKU LAVA FLOW","RAWS","RAWS","BI",1706.88,19.47555556,-155.3627778,"USR0000HKEA","KKUH1","FA4447E8",NA,NA,0,0,0,0,0.254,4.572,27.686,5.842,65.532,10.668,0.253999999999991,0,0,0,0,14.224,0,0.254000000000019,0.253999999999991,0,0,0,0,1.27000000000001,0.507999999999981,0.50800000000001,1.524,0,0,0,4.31799999999998
48,"PALI 2","RAWS","RAWS","BI",847.344,19.3175,-155.2922222,"USR0000HPAL","PLIH1","FA900222",NA,NA,0,0,0,0.254,0.254,2.286,84.328,13.97,175.006,1.77800000000002,0,0,0,0,2.286,35.56,0,1.27000000000004,1.01599999999996,0,0,0,0,0,0,0,6.858,0.254000000000019,0,0,0
54.2,"Glenwood","HELBUSH XL","HydroNet-UaNet","BI",802.2336,19.5076008,-155.1707,"USC00510744","GLNH1",NA,NA,NA,3.302,2.68354990335804,3.81,8.128,0.0798905657537225,29.21,35.052,0,12.4501440208403,0,0,0.159781131507427,0,0,0,10.0656062860877,0,2.8406795510036,0.22146027441881,0,0,0,0,0.566278834660348,0.141569708665087,0,0,0,0,0.195246445486994,3.26899769256586
54.8,"Nahuku 0201","HiMesonet","HavoNet","BI",1202,19.415215,-155.238394,NA,"004HI",NA,NA,NA,0.762,3.302,1.2879223990261,2.60615236447281,0.0716685931361597,9.7171591195149,13.7247184219411,0,9.45682781398856,0.120152935412148,0.0723738733213861,0.0955581241815355,0.120152935412159,0,0.0477790620907731,18.0594,0,0.508,0.254,0,0,0,0,1.016,0.254,0,0,0,0,0,3.556
63,"KALOKO-HONOKOHAU","RAWS","RAWS","BI",7.62,19.67277778,-156.0202778,NA,"KHOH1","FA667668",NA,NA,0,0,0,0,0,0,0,0,27.178,8.38199999999999,0.508000000000003,6.096,0,0,0,3.048,0.762,0,0,0,0.254000000000005,0,0,0,0,0,0,0,0,0.253999999999998,0
68.21,"KAILUA KONA KE AHOLE AIRPORT","KAILUA KONA KE AHOLE AIRPORT","NWS","BI",27,19.73556,-156.04889,"USW00021510","PHKO",NA,NA,NA,0,NA,0.254,0,NA,0,0,NA,NA,4.064,2.794,1.27,0,0,0,0,0,0,NA,NA,NA,NA,NA,NA,NA,NA,NA,NA,NA,NA,NA
68.61,"Keahuolu 0241","HiMesonet","HiMesonet","BI",537,19.668669,-155.957474,NA,"029HI",NA,NA,NA,0.254,1.016,NA,NA,NA,NA,NA,NA,NA,NA,NA,NA,NA,NA,NA,3.556,0.254,0,0,1.27,0.508,0.254,3.302,0.254,0,0,0,0,0,13.97,0.762
69.25,"Palamanui","HiMesonet","HIPPNET","BI",264,19.73756,-155.99582,NA,"008HI",NA,NA,NA,NA,0,NA,NA,NA,NA,NA,NA,NA,NA,NA,NA,NA,NA,NA,2.286,2.032,0,0,1.524,0.508,0,4.826,0.254,0,0,0,0,0,3.048,2.032
70.16,"Waiaha Stream","NWS","HydroNet-UaNet","BI",460.5528,19.6331997,-155.9486,NA,"WIHH1","9321011E",NA,NA,0,0.254,0.254,0,0,0,0.254,0,48.006,7.366,3.556,11.43,0,0,0,4.572,0,0,0.762,0.762,1.27,0,2.79400000000001,0,0,0,0,0,0,6.34999999999999,2.032
70.7,"Puuwaawaa","HiMesonet","HIPPNET","BI",1654,19.725393,-155.873917,NA,"010HI",NA,NA,NA,0,0,NA,NA,NA,NA,NA,NA,NA,NA,NA,NA,NA,NA,NA,13.462,1.524,0,0,0,0,0,1.524,0.254,0,0,0,0,0,9.906,2.286
75.1,"PTA KIPUKA ALALA","RAWS","RAWS","BI",1641.348,19.66694444,-155.7077778,"USR0000HPTK","PKAH1","32666200",NA,NA,0,0,0,0,0,0,0,0,19.558,0,0,2.286,0,0,0,0,0,0,0,0,0,0,0,0,0,0,0,0,0,0,0.254000000000001
79.6,"Kulani NWR","NWS","HydroNet-UaNet","BI",1623.3648,19.5543995,-155.3089,NA,"KNWH1",NA,NA,NA,2.794,1.39940507502477,1.016,2.286,0.0838415937555624,8.636,17.272,0,11.0630819038179,0.254,0.254,0,0.254,0,0,0.508,0,1.27,0.154941802248634,0,0,0,0,0.396189625646369,0.0990474064115923,0,0,0,0,0,3.32817740452394
83,"QuarryRainGageatSaddleRd","USGS","USGS","BI",1286.256,19.68586111,-155.2942222,NA,"SDQH1","DDF6B6E4",NA,NA,10.414,0.507999999999981,1.27000000000004,1.77799999999996,0.254000000000019,7.61999999999995,9.65200000000004,0,12.954,0.253999999999962,0,0.507999999999981,0.254000000000019,0,0.254000000000019,0,0,0.762,0.254000000000019,0,0,0,0,0,0,0,0,0,0,0,2.53999999999996
84.1,"Piihonua 0213","HiMesonet","HiMesonet","BI",606,19.7064059,-155.1873737,NA,"040HI",NA,NA,NA,7.874,1.778,NA,NA,NA,NA,NA,NA,NA,NA,NA,NA,NA,NA,NA,0,0,0,0,0,0,0,0,0,0,0,0,0,0,0,0.762
85.2,"Waiakea Uka","NWS","HydroNet-UaNet","BI",303.8856,19.6585999,-155.1277,"USC00519084","WKAH1",NA,NA,NA,3.302,2.58519434622945,1.27,2.286,0.0733068884808689,19.304,25.146,0,11.4241438985425,0.508,0.254,0,0,0,0,0,0,1.9949117536805,0.129903133711343,0,0,0,0,0.519612534845371,0.129903133711343,0,0,0,0,9.74307176762164,3.07475317033982
87,"HILO INTERNATIONAL AIRPORT 87","NWS","HydroNet-UaNet","BI",11.6,19.7191,-155.053,"USW00021504","PHTO",NA,NA,NA,2.032,2.15276758224107,0.254,4.826,0.0610448082198341,7.62,13.208,0,9.51322157868309,0,0.762,0,0,0,0,0,0,0.508,0.108174170925749,0,0,0,0,0.432696683702997,0.108174170925749,0,0,0,0,8.11334323215424,2.56043765458283
87.9,"IPIF","HiMesonet","HIPPNET","BI",112,19.69748,-155.0954,NA,"005HI",NA,NA,NA,1.524,1.778,0.840114327590257,4.00764603922532,0.0692874882675642,17.4761832929486,18.4218545100765,0,10.7977606571557,0.160048824739067,0.368321198503807,0.138574976535113,0,0,0,0,0,5.08,0,0,0,0,0,0,0,0,0,0,0,0.508,1.27
88.8,"Waiakea Exp Farm","UNIV HAWAII","STATE","BI",183,19.644743,-155.0805636,NA,"WEXH1","CD07410A",NA,NA,2.032,NA,0.254,3.81,NA,NA,NA,NA,NA,5.08,0,0,0,0,0,0,0,3.048,NA,NA,NA,NA,NA,NA,NA,NA,NA,NA,NA,NA,NA
89.11,"Piihonua","NWS","HydroNet-UaNet","BI",296.8752,19.7098007,-155.1395,"USC00518053","PIIH1",NA,NA,NA,3.048,0.970892373345189,1.016,4.318,0.0682344208697336,25.146,16.256,0,10.6336506568954,0,0,0,0,0,0,0.619095635522656,0,1.85687390393247,0.0682344208697336,0,0,0,0,0,0,0,0,0,0,9.06890025388831,1.85153706765328
89.15,"HONOLII STREAM NEAR PAPAIKOU NEAR HILO 3N ","USGS","USGS","BI",522.23157,19.7667,-155.1544,NA,"NLIH1","D114953C",NA,NA,1.01600000000008,2.79399999999987,3.80999999999995,14.9860000000001,5.33400000000006,30.9880000000001,14.4780000000001,0,16.51,0.253999999999905,0.761999999999944,0.253999999999905,0,0,0,0,0,0,0.762000000000171,0,0,0,0,0,0,NA,0,0,0,0,0.508000000000038
91.15,"Mountain View","Mountain View","HydroNet-UaNet","BI",346.5576,19.5674992,-155.0841,NA,"MTVH1",NA,NA,NA,5.842,NA,6.096,5.08,NA,11.684,50.546,NA,NA,0,0,NA,0,0,0,NA,0,NA,NA,NA,NA,NA,NA,NA,NA,NA,NA,NA,NA,NA,NA
91.9,"Pahoa Beacon","NWS","HydroNet-UaNet","BI",187.1472,19.5149994,-154.9644,NA,"PHAH1",NA,NA,NA,1.27,1.97450342341989,3.302,3.81,0,23.368,44.958,0,4.0124226598409,0.254,4.064,0.102882632303584,2.032,0,0,1.524,0,0,0.0992165956884903,0,0,0,0,0.396866382753961,0.0992165956884903,0,0,0,0,7.44150186923206,2.34841557264813
92.11,"Keaau 0202","HiMesonet","HiMesonet","BI",182,19.6061748,-155.0515231,NA,"033HI",NA,NA,NA,3.3274,2.794,NA,NA,NA,NA,NA,NA,NA,NA,NA,NA,NA,NA,NA,0,0,0.508,0.254,0,0,0,0,0,0,0,0,0,0,5.1054,10.16
92.5,"KiholoRainGage","USGS","USGS","BI",283.96692,19.82580556,-155.8925833,NA,"KIRH1","DD60236E",NA,NA,0,0,0,0,0,0,0,0,10.922,0,5.588,7.61999999999999,0.254000000000019,0,0,0,0.507999999999996,0,0,2.28599999999999,1.27,0,0,0,0,0,0,0,0,0.50800000000001,0.254000000000005
93.12,"PUUANAHULU","RAWS","RAWS","BI",830.58,19.83277778,-155.7697222,NA,"PULH1","48703040",NA,NA,0,0,0,0,0,0.254,0,0,12.954,2.032,0,8.128,0,0,0,0,0,0,0,5.842,1.016,0,0,0,0,0,0,0,0,10.16,1.77799999999999
93.13,"Mamalahoa","HiMesonet","HIPPNET","BI",603,19.80258,-155.850629,NA,"009HI",NA,NA,NA,0,0,0,0,0,3.8832646035427,0.277376043110193,0,15.810434457281,0.832128129330578,0,13.8688021555096,0.27737604311019,0,0,0.254,0,0,0,6.35,1.524,0,0,0,0,0,0,0,0,9.144,1.016
94,"KAUPULEHU LAVA FLOW","RAWS","RAWS","BI",372.1608,19.80333333,-155.9180556,NA,"KPLH1","4870E628",NA,NA,0,0,0,0,0,0,0,0,11.43,0,5.588,10.922,0.254000000000001,0,0,0,0.507999999999992,0,0,3.04800000000001,1.778,0,0,0,0,0,0,0,0,0.253999999999998,0
94.5,"PUU WAAWAA","RAWS","RAWS","BI",708.9648,19.795,-155.8452778,"USR0000HPUW","PWWH1","487046D0",NA,NA,0,0,0,0,0,3.556,0.254,0,14.478,0.762,0,12.7,0.253999999999998,0,0,0,0,0,0,3.302,2.286,0,0.253999999999998,0,0,0,0,0,0,7.62,1.524
94.6,"Kaiaulu Puu Waawaa 0242","HiMesonet","HiMesonet","BI",1161,19.77241,-155.83118,NA,"034HI",NA,NA,NA,0,0,NA,NA,NA,NA,NA,NA,NA,NA,NA,NA,NA,NA,NA,0,0,0,0,0.254,2.54,0,1.016,0.254,0,0,0,0,0,6.35,NA
95.6,"WAIKOLOA","RAWS","RAWS","BI",297.7896,19.92416667,-155.7936111,NA,"WKVH1","4870C0C4",NA,NA,0,0,0,0,0,0,0,0,10.668,2.03200000000001,3.55600000000001,24.384,0,0,0,0,1.52399999999997,0,0,0.508000000000038,0.253999999999991,0,0,0,0,0,0,0,0,0.253999999999991,1.01599999999999
98.2,"PUHO CS","PUHO CS","RAWS","BI",29.5656,19.42194444,-155.9075,NA,"PERH1","32D6803A",NA,NA,0,0,0,0,0,0,0,0,10.16,1.01599999999996,0,8.88999999999999,0,0,0,0,0.254000000000076,0,0,0,0,0,0,0,0,0,0,0,0,0.762,0
99,"PTA WEST","RAWS","RAWS","BI",1307.592,19.77166667,-155.7022222,"USR0000HPTW","PKWH1","32667176",NA,NA,0,0,0,0,NA,0,0,0,8.128,0,0,2.794,0,0,0,0,0,NA,0,0,0,NA,0,0,0,0,0,0,NA,6.604,0
100.3,"Waikii","Waikii","HydroNet-UaNet","BI",1417.0152,19.8614006,-155.6506,NA,"WHIH1","932127F2",NA,NA,0,0,0,0,0,0,0,0,26.924,0.507999999999999,0,13.462,0,0,0,0,0.507999999999996,0,0,0,0,0,1.01600000000001,0.253999999999998,0,0,0,0,0,7.62,0.508000000000003
101.1,"PTA KEAMUKU","RAWS","RAWS","BI",1025.9568,19.90222222,-155.6786111,NA,"PKMH1","328FB7BE",NA,NA,0,0,0,0,0,0.50800000000001,0,0,40.132,5.33399999999997,0,16.002,0,0,0,0,0.253999999999962,0,0,0,0,0,0,0,0.254000000000019,0,0,0,0,8.38200000000001,0
102.8,"AUHMOA","RAWS","RAWS","BI",2001.9264,19.83638889,-155.6130556,NA,"AHMH1","4870D3B2",NA,NA,0,0,0,0,0,0,0,0,15.748,5.588,0,12.192,0,0,0,0,1.778,0,0,0,0,0,0,0,0,0,0,0,0,3.048,0.253999999999998
107.4,"PTA EAST","RAWS","RAWS","BI",1959.864,19.68277778,-155.5452778,"USR0000HPTA","PTAH1","3266D18E",NA,NA,0,0,0,NA,0,0,1.778,0,3.048,0,0,0.508,0,NA,0,0,0.508,0,0,0,0,0,0,0,0,0,0,0,0,0.254,0.254
109,"PTA RANGE 17","RAWS","RAWS","BI",1734.312,19.74583333,-155.6261111,NA,"PTRH1","3279630C",NA,NA,0.254,0,0,0,0,0,0,0,4.826,0,0,2.032,0,0,0,0,0,0,0,0,0,0,0,0,0,0,0,0,0,1.016,0
113.2,"PUU MALI","RAWS","RAWS","BI",2165,19.92666,-155.44,NA,"PMLH1","3181742E",NA,NA,0,0,0,0,0,0,0.254,0,6.604,2.794,0,NA,0,0,0,0,0,0,0,0,0,0,0,0,0.254000000000001,0,0,0,0,5.08,2.794
126.2,"Kanakaleonui 0211","HiMesonet","HiMesonet","BI",2352,19.845036,-155.362586,NA,"022HI",NA,NA,NA,0.762,0,NA,NA,NA,NA,NA,NA,NA,NA,NA,NA,NA,NA,NA,0,0,0,0,0,0,0,0,0,0,0,0,0,0,0.508,1.27
127.5,"Laupahoehoe","HiMesonet","HIPPNET","BI",1152,19.93217,-155.29129,NA,"007HI",NA,NA,NA,4.572,0,0.46413577168422,0.835444389031596,0,7.95852041704947,20.2610169839939,0,15.6421766509518,4.64928577027277,1.56968926609862,13.8506601317113,0,0,0,0,0,0,0,0,0,0,0.254,0,0.254,0,0,0,0,7.112,2.286
129,"HAKALAU","RAWS","RAWS","BI",1950.72,19.82111111,-155.3305556,"USR0000HHAK","HKUH1","8374D370",NA,NA,2.286,0,0,0,0,1.27,12.446,0,9.144,0.254000000000001,0,0,0,0,0,0,0,0,0,0,0,0,0,0,0,0,0,0,0,0,2.794
132.2,"Spencer","HiMesonet","HIPPNET","BI",469,19.96358,-155.25014,NA,"006HI",NA,NA,NA,1.524,0.254,0.544064422837155,0.920240971016476,0.0604353270821657,7.14735441540647,11.6285494127401,0,21.8261693501169,5.48710667125887,4.61786145097246,14.0322450784307,0.36921868806516,0,0,0,0,0,0,0,0,0,0,0,0,0,0,0,0,9.906,2.032
133.3,"Laupahoehoe","NWS","HydroNet-UaNet","BI",499.872,19.9792,-155.2372,NA,"LPHH1","B159741A",NA,NA,1.27000000000044,0.507999999999811,0,0,0,0,3.8100000000004,0,3.30199999999968,7.36599999999999,2.53999999999996,0.253999999999905,0,0,0,0,0,0,0,0,0,0,0,0,0,0,0,0,0,18.0339999999997,1.52400000000034
140.6,"Papaikou Well","NWS","HydroNet-UaNet","BI",345.6432,19.7884998,-155.1313,NA,"PPWH1",NA,NA,NA,3.81,NA,1.778,7.112,NA,17.018,18.288,NA,NA,6.096,5.08,0,0,0,0,NA,NA,NA,NA,NA,NA,NA,NA,NA,NA,NA,NA,NA,NA,NA,NA
141.1,"Kulaimano 0212","HiMesonet","HiMesonet","BI",260,19.834341,-155.122435,NA,"021HI",NA,NA,NA,3.302,1.524,NA,NA,NA,NA,NA,NA,NA,NA,NA,NA,NA,NA,NA,0,0,1.016,2.54,0,0,0,0,0,0,0,0,0,0,4.318,1.524
147.2,"KOHALA RANCH","KOHALA RANCH","RAWS","BI",328.8792,20.08305556,-155.8325,NA,"KHRH1","4870B654",NA,NA,0,0,0,0,0,0,0,0,44.196,10.414,0.254000000000005,5.84200000000001,0.507999999999996,0,0.508000000000003,0,8.12799999999999,0,0,0,0,0,0,0,0,0,0,0,0,12.954,0
160.3,"Upolu Airport","NWS","HydroNet-UaNet","BI",34,20.265,-155.8582,NA,"UPLH1","B15017A0",NA,NA,0,0,0,0,0,0,0,0,30.48,6.85799999999995,5.08000000000004,0.254000000000019,0,0,0,0,10.922,0,0,0,0,0,0,0,0,0,0,0,0,6.60399999999998,0
176.3,"Kahua Ranch HQ","KAHUA RANCH","HydroNet-UaNet","BI",987.552,20.1249008,-155.7884,NA,"KASH1","15D293C2",NA,NA,0.254000000000048,0,0,0,0,0,0,0,49.53,9.65199999999999,4.31800000000004,13.97,1.01600000000002,0,1.26999999999992,0,23.114,0,0,0.254000000000019,0.253999999999962,0,0,0,0,0.254000000000019,0,0,0,27.178,1.524
181.3,"Kehena 0251","HiMesonet","HiMesonet","BI",1158,20.122834,-155.749329,NA,"025HI",NA,NA,NA,NA,0.508,NA,NA,NA,NA,NA,NA,NA,NA,NA,NA,NA,NA,NA,0.254,28.448,0,0,1.524,0.254,0,0,0,0,0.508,0,0,0,28.194,3.81
185.7,"KawainuiRainGagenearKamuela","USGS","USGS","BI",1237.488,20.08533333,-155.6811667,NA,"KWSH1","DDF6A592",NA,NA,12.1919999999999,1.77800000000002,0.254000000000019,0.254000000000133,0,0,0.253999999999905,0,25.1460000000001,3.30199999999991,10.4140000000001,47.7520000000001,1.26999999999987,0,0,0,12.1919999999999,0,0,1.52400000000011,0.253999999999905,0,0,0.254000000000133,0,0.507999999999925,0,0,0,11.684,2.79399999999998
191.41,"Lalamilo 0252","HiMesonet","HiMesonet","BI",802,20.019528,-155.677085,NA,"027HI",NA,NA,NA,0.762,0,NA,NA,NA,NA,NA,NA,NA,NA,NA,NA,NA,NA,NA,0.254,6.35,0,0.254,2.286,0,0,0,0,0,0.254,0,0,0.254,4.572,0.508
192.7,"Kamuela Upper","NWS","HydroNet-UaNet","BI",948.5376,20.0319996,-155.6667,"USC00513080","KUUH1","817075F6",NA,NA,5.588,0,0,0,0,0,0,0,16.764,7.62,8.636,43.18,2.53999999999999,0,0,0,6.60400000000001,0,0,1.77799999999999,0,0,0,0,0,0.762,0,0,0,7.62,0.254000000000005
201.3,"Kamuela 1","NWS","HydroNet-UaNet","BI",877.824,20.0394993,-155.6084,NA,"KMUH1","81706680",NA,NA,2.53999999999999,0.253999999999991,0,0,0,0,0,0,21.336,4.572,4.57200000000003,24.638,0.762,0,0,0,1.26999999999998,0.254000000000019,0,1.26999999999998,0.254000000000019,0,0,0,0,0,0,0,0,6.858,0.507999999999981
215.5,"Honokaa","NWS","HydroNet-UaNet","BI",591.9216,20.0656,-155.49,NA,"HNKH1","B15047DC",NA,NA,1.26999999999992,0,0,0,0,0,0,0,6.35000000000002,0.507999999999981,0,5.0800000000001,0,0,0,0,0,0,0,1.01599999999996,0.253999999999962,0,0,0,0,0,0,0,0,18.796,2.03199999999993
250.2,"Ulupalakua Ranch","NWS","HydroNet-UaNet","MA",581.5584,20.6487999,-156.3981,NA,"ULUH1","8170531A",NA,NA,0,0,0,1.01600000000008,0.254000000000019,0,1.26999999999987,4.3180000000001,137.16,11.938,19.558,0,0,0,1.01599999999996,168.148,34.5439999999999,0,0,7.36600000000021,2.03199999999993,0,0,0,18.5419999999999,5.8420000000001,0,0,15.4940000000001,10.9219999999998,0
254.11,"Kahikinui 0144","HiMesonet","HiMesonet","MA",713,20.633945,-156.273889,NA,"019HI",NA,NA,NA,0.762,0,NA,NA,NA,NA,NA,NA,NA,NA,NA,NA,NA,NA,NA,212.0392,43.4086,0,0,0,0,0,0.254,0.762,13.97,NA,0,0,36.2966,NA,NA
254.12,"Upper Kahikinui 0145","HiMesonet","HiMesonet","MA",1034,20.644215,-156.284703,NA,"032HI",NA,NA,NA,0,0,NA,NA,NA,NA,NA,NA,NA,NA,NA,NA,NA,NA,NA,NA,NA,0,0,0,0,0,0,0,NA,NA,0,0,NA,NA,NA
255,"KepuniGulchRainGage","USGS","USGS","MA",225.552,20.6195,-156.2518889,NA,"KPNH1","F000D4EA",NA,NA,1.01600000000001,0,0,0,0,3.30199999999999,4.57200000000002,9.90599999999998,81.788,25.146,0.254000000000048,0,0,0,0,139.7,37.084,0,0,0,0,0,0,0.253999999999962,6.85799999999995,0,0.254000000000076,0,50.5459999999999,14.986,2.03200000000004
260.3,"Lipoa 0121","HiMesonet","HiMesonet","MA",88,20.7458333,-156.4305556,NA,"039HI",NA,NA,NA,0,0,NA,NA,NA,NA,NA,NA,NA,NA,NA,NA,NA,NA,NA,108.8644,15.3924,0,0,1.27,0.254,0,0,0,8.128,0.762,0,0,8.9662,0.254,0
266,"KAUPO GAP","RAWS","RAWS","MA",1228.344,20.68416667,-156.1519444,"USR0000HKAU","KPGH1","FA45A6E0",NA,NA,0.254,0,0,0.254,1.524,4.318,2.54,6.35,139.954,26.162,0,0,0,0,0,127.762,30.9880000000001,0,0,0,0,0,0,0,0.507999999999981,0,0,0,0.832176218607531,18.796,1.27000000000004
267.11,"Keokea 0116","HiMesonet","HiMesonet","MA",871,20.7067,-156.3554,NA,"016HI",NA,NA,NA,0,0,NA,NA,NA,NA,NA,NA,NA,NA,NA,NA,NA,NA,NA,137.1092,47.371,0,0,4.572,0.254,0,0.254,0,0.254,0.762,0,0,4.064,12.192,0.254
267.8,"KULA 1","KULA 1","RAWS","MA",1998.5736,20.68305556,-156.3216667,NA,"KLFH1","AA10F12E",NA,NA,0,0,0,0,0,0,0,75.692,168.656,23.368,22.352,8.63599999999997,0.254000000000019,0,0,166.37,74.9299999999999,0,0,0,0,0,0,0,2.54000000000008,0,0,0,4.06399999999996,14.224,0
283,"Hamoa 0165","HiMesonet","HiMesonet","MA",106,20.719497,-156.002356,NA,"023HI",NA,NA,NA,NA,NA,NA,NA,NA,NA,NA,NA,NA,NA,NA,NA,NA,NA,NA,115.4684,NA,NA,0,NA,NA,NA,NA,NA,0,0,0,0,0,64.8716,NA
302,"MAALAEA BAY","NWS","STATE","MA",302,20.7903,-156.514,NA,"P36","15DF05C6",NA,NA,0,0,0,0,0,0,1.01599999999996,0.762000000000057,92.9640000000001,3.80999999999995,1.01599999999996,0,0,0,0.508000000000038,65.0240000000001,10.16,0,0,0,0.761999999999944,0,0,0,4.06399999999996,2.03199999999993,0,0,5.33400000000006,6.35000000000002,0
311.2,"Kealia Pond NWR","Kealia Pond NWR","RAWS","MA",3.6576,20.7975,-156.4772222,NA,"KPDH1","32B2C438",NA,NA,0,0,0,0,0,0,1.778,0.254,88.646,12.446,14.986,0,0,0,0,53.594,12.7,0,0,0,2.28599999999997,0,0,0,9.14400000000001,1.77800000000002,0,0,9.65199999999999,3.30199999999999,0
311.5,"Kihei 2","NWS","HydroNet-UaNet","MA",54.5592,20.7061005,-156.437,NA,"KHIH1","93202508",NA,NA,0,0,0,0,0,0,0.761999999999993,1.77800000000001,66.04,5.58799999999999,2.79399999999998,0.254000000000019,0,0,0.254000000000019,121.666,10.16,0,0,1.26999999999998,0.507999999999981,0,0,0,7.11200000000002,0.762,0,0,6.60399999999998,1.524,0
322.2,"Pulehu 0118","HiMesonet","HiMesonet","MA",427,20.79532,-156.35991,NA,"042HI",NA,NA,NA,NA,NA,NA,NA,NA,NA,NA,NA,NA,NA,NA,NA,NA,NA,NA,NA,29.6164,0,0,0.508,1.016,0,0.762,0,1.27,0.762,0,0,2.286,1.778,0
324.6,"KULA AG HN-119","HiMesonet","HaleNet","MA",964,20.757889,-156.320028,NA,"001HI",NA,NA,NA,0,0,0,3.49968063615556,0.269206202781085,0,0,17.4984031807773,86.6843972955415,15.8831659640903,20.9980838169324,17.767609383558,3.49968063615556,0,0,92.202,43.688,0,0,3.048,0.254,0,0,0,0,0.254,0,0,1.778,9.906,0
324.7,"Kula Branch Stn","NWS","HydroNet-UaNet","MA",944.88,20.7577991,-156.3217,"USC00515000","KBSH1","93220610",NA,NA,0,0,0,3.30200000000013,0.253999999999905,0,0,16.5100000000002,81.7879999999996,14.9860000000003,19.8119999999999,16.7639999999997,3.30200000000013,0,0,105.156,52.8320000000003,0,0,2.79399999999941,0.253999999999905,0,0,0,0,0.25400000000036,0,0,2.0319999999997,10.6680000000006,0
339.4,"PARK HQ HN-151","HiMesonet","HaleNet","MA",2114,20.759806,-156.248167,NA,"002HI",NA,NA,NA,0,0,NA,NA,NA,NA,NA,NA,NA,NA,NA,NA,NA,NA,NA,54.356,67.056,0,0,0,0,0,0,0,3.302,0,0,0,0,6.858,0.254
339.5,"NENE NEST HN-152","HiMesonet","HaleNet","MA",2593,20.738194,-156.245833,NA,"013HI",NA,NA,NA,0,0,0,0.140619314531678,0.843715887190067,2.39052834703852,1.40619314531678,3.51548286329195,77.4812423069545,14.4837893967628,0,0,0,0,0,44.196,24.892,0,0,0,0,0,0,0,0,0,0,0,0,0.254,0
339.6,"SUMMIT HN-153","HiMesonet","HaleNet","MA",2984,20.710361,-156.25675,NA,"003HI",NA,NA,NA,0,0,0,0.155053697900557,0.930322187403343,2.63591286430947,1.55053697900557,3.87634244751393,85.434587543207,15.9705308837574,0,0,0,0,0,163.576,39.116,0,0,0,0,0,0,0,0.254,0,0,0,1.016,2.032,0
341.7,"WAIKAMOI HN-142","HiMesonet","HaleNet","MA",1935,20.773636,-156.222311,NA,"020HI",NA,NA,NA,0,0,NA,NA,NA,NA,NA,NA,NA,NA,NA,NA,NA,NA,NA,44.4754,62.5856,0,0,0,0,0,0.254,0,1.016,0,0,0,0,2.54,0
348.5,"WestWailuaikiRainGagenrKeanae","USGS","USGS","MA",472.44,20.81436111,-156.1429722,NA,"WWKH1","DD5E710A",NA,NA,4.82600000000002,1.52400000000034,0.761999999999716,0,0.253999999999905,4.82600000000002,0,39.6432730249125,52.8320000000003,9.39800000000014,2.53999999999905,4.82600000000002,0.50800000000072,0,0,10.9219999999996,7.36599999999999,0,0,0,0,0,0,0,0,0,0,0,0,22.3519999999999,0.253999999999905
361.1,"Lahainaluna","NWS","HydroNet-UaNet","MA",238.0488,20.8909,-156.6556,NA,"LAHH1","81700366",NA,NA,0,0,0,0,0,0,0,4.82599999999979,97.2820000000002,4.82599999999979,2.03200000000038,0.507999999999811,0,0,0.253999999999905,71.6280000000002,2.79399999999987,0,0,1.77799999999979,1.0160000000003,0,0,0,15.2399999999998,2.28600000000006,0.508000000000038,0,4.31799999999998,5.08000000000015,0
361.3,"Lahaina WTP 0131","HiMesonet","HiMesonet","MA",244,20.89072,-156.65493,NA,"036HI",NA,NA,NA,0,0,NA,NA,NA,NA,NA,NA,NA,NA,NA,NA,NA,NA,NA,87.4776,6.2738,0,0,1.27,0.762,0,0,0,17.5006,3.048,0.762,0,4.318,5.334,0
380,"PuuKukuiRainGageatalt","BALDWIN PKRS","USGS","MA",1759,20.89083333,-156.6008333,"USC00514887","PKKH1","DD73556E",NA,NA,1.77800000000025,2.53999999999996,0,0,0.730162447496641,0.253999999999905,1.27000000000044,38.6080000000002,178.054,3.80999999999949,27.6859999999997,9.14400000000114,2.28600000000006,0,0,288.036,25.9079999999994,0.253999999999905,0,0,0.6008226104209,0,1.26999999999953,1.01600000000053,23.3680000000004,7.81069393547457,2.03200000000015,0.761999999999716,22.3519999999999,29.21,0.253999999999905
386.6,"Wailuku","NWS","HydroNet-UaNet","MA",146.9136,20.8831005,-156.5124,NA,"WUKH1","9321D776",NA,NA,0,0,0,0,0,0,0.253999999999905,23.6220000000003,92.2020000000002,2.28600000000006,3.30199999999968,0,0.253999999999905,0,0.253999999999905,100.33,9.39800000000014,0,0,0.50800000000072,1.26999999999953,0,0,0,3.04799999999977,0,0,0,12.6999999999998,7.36599999999999,0
390.4,"Waikapu Country Club","NWS","HydroNet-UaNet","MA",145.9992,20.8346996,-156.5135,NA,"WCCH1","9320E016",NA,NA,0,0,0,0,0,0,0.253999999999905,6.096,84.328,2.79400000000032,2.79399999999987,0,0,0,0.253999999999451,80.7720000000004,11.9380000000001,0,0,0,1.26999999999998,0,1.01600000000008,0,13.2079999999996,3.55600000000004,0,0,5.58800000000019,8.63599999999997,0.253999999999905
398,"KAHULUI AIRPORT","NOAA-NWS","NWS","MA",12,20.8887,-156.436,"USW00022516","PHOG",NA,NA,NA,0,NA,0,0,NA,0,0.254,NA,NA,1.016,1.778,0.762,0.254,0,0.254,45.466,6.096,0,NA,NA,NA,NA,NA,NA,NA,NA,NA,NA,NA,NA,NA
426.6,"Pukalani","NWS","HydroNet-UaNet","MA",495.9096,20.8355007,-156.3307,NA,"PUKH1","15D2B52E",NA,NA,0,0,0,0,0,0,0,NA,63.5,3.80999999999995,4.57200000000057,8.63599999999951,1.01600000000008,0,0,87.6300000000001,14.732,0,0,0,0.253999999999905,0,0.762000000000171,0,0,0.508000000000266,0.253999999999451,0,2.03200000000015,3.55600000000004,0
434.11,"Piiholo 0115","HiMesonet","HiMesonet","MA",637,20.8415,-156.2948,NA,"017HI",NA,NA,NA,0,0,NA,NA,NA,NA,NA,NA,NA,NA,NA,NA,NA,NA,NA,92.202,22.8854,0,0,0.254,0,0,0,0,0,0.508,0,0,1.27,8.382,0
465.1,"Mahinahina","NWS","HydroNet-UaNet","MA",223.1136,20.9552002,-156.6562,NA,"MABH1","190524C8",NA,NA,0,NA,0,0,NA,0,0,NA,NA,0,0.762,0,0.254,0,0.254,74.93,1.016,0,NA,NA,NA,NA,NA,NA,NA,NA,NA,NA,NA,NA,NA
482.5,"Kahakuloa","Kahakuloa","HydroNet-UaNet","MA",335.28,20.9540997,-156.5342,NA,"KHKH1","781001B6",NA,NA,0,0,0,0,0,0,0,39.878,75.946,1.01600000000001,8.63600000000001,11.684,1.27000000000001,0,0,42.672,9.14400000000001,0,0,0,2.286,0,0,0,1.524,0,0,0,0.254000000000019,8.38200000000001,0
489,"Haiku","NWS","HydroNet-UaNet","MA",99.3648,20.9288998,-156.3225,"USC00510822","AIKH1","50A30568",NA,NA,0.0766405420583482,0.076640542058417,0.076640542058417,0.996327046758873,0.229921626175114,0.459843252350295,0.459843252350228,15.7879516640257,29.1234059821832,0.153281084116697,6.7443677011372,8.43045962642149,0.459843252350228,0,0,13.1821732340409,0.613124336467061,0,0,0,0.229921626175045,0,0,0,0,0,0,0,0,6.09600000000002,0
524,"MOLOKAI KAUNAKAKAI MOLOKAI AIRPORT","ALOHA AIRLINES","NWS","MO",141,21.15514996,-157.0924625,"USW00022534","PHMK",NA,NA,NA,0.254,NA,0,0,NA,0,0,NA,NA,0,7.366,1.778,0.254,0,0,3.81,0.254,0,NA,NA,NA,NA,NA,NA,NA,NA,NA,NA,NA,NA,NA
536.5,"Kaunakakai Mauka","MOLOKAI GEN HOSP","HydroNet-UaNet","MO",28.3464,21.0946007,-157.0174,NA,"KACH1","50A0F2E2",NA,NA,0,0,0,0,0,0,0,67.3100000000001,27.9399999999999,0.254000000000019,2.53999999999996,8.63599999999997,0.254000000000133,0,0,11.176,0.507999999999925,0,0,0,1.26999999999998,0,0,1.01600000000008,20.0659999999999,11.6840000000001,1.52399999999989,0,0.508000000000038,5.33400000000006,0
538,"MOLOKAI 1","RAWS","RAWS","MO",833.0184,21.115,-156.9475,"USR0000HMLK","MLKH1","487016AC",NA,NA,0,0,0,0,0,0,0,90.424,81.28,1.27000000000001,13.716,23.622,2.03199999999998,0,0.253999999999991,31.496,2.54000000000005,0.253999999999991,0.253999999999991,0,0,0.253999999999991,0,1.77800000000002,36.322,18.288,9.90600000000001,0,6.34999999999997,17.018,0
541.2,"Puu ALII WEST","Puu ALII WEST","RAWS","MO",1159.764,21.14083333,-156.9022222,NA,"PAFH1","32D6062E",NA,NA,0.253999999999905,0.254000000000133,0.254000000000133,3.30199999999991,0.761999999999944,1.52400000000011,1.52399999999989,52.3240000000001,96.52,0.507999999999811,22.3520000000001,27.9400000000001,1.52399999999989,0,0,43.6880000000001,2.03200000000015,0,0,0,0.761999999999716,0,0,1.0160000000003,19.3039999999999,9.90599999999995,8.12800000000016,0,13.9699999999998,19.3039999999999,0
542.11,"Kamalo","NWS","HydroNet-UaNet","MO",8.8392,21.052,-156.871,"USC00513045","KMLH1","50A0D40E",NA,NA,0.254,0,0,0,0,3.302,0,59.69,31.75,0.254000000000005,1.77799999999999,1.01600000000001,0,0,0,19.304,4.318,0,0,0,0,0,0,0,23.114,4.82599999999999,1.77799999999999,0,2.53999999999999,7.87400000000002,0
553,"MAKAPULAPAI","RAWS","RAWS","MO",22.86,21.20333333,-156.9661111,"USR0000HMAK","MKPH1","FA9024CE",NA,NA,0.254,0,0,0,0,0,0,43.434,53.086,0,20.066,2.28600000000002,0,0,0,7.874,0,0,0,0,1.26999999999998,0,0,0,4.31800000000001,4.06399999999999,0.762,0,5.334,8.636,0
598.2,"Honolimaloo 0412","HiMesonet","HiMesonet","MO",402,21.131411,-156.758626,NA,"031HI",NA,NA,NA,0.254,0,NA,NA,NA,NA,NA,NA,NA,NA,NA,NA,NA,NA,NA,17.399,5.588,0,0,0,0.508,0,0,0,17.5514,13.8176,0.762,0,7.366,24.6888,0
656,"LANAI AIRPORT 656","HAWN AIRLINES","NWS","LA",396.2,20.7882389,-156.946639,"USC00515275","PHNY",NA,NA,NA,0,NA,0,0,NA,0,0,NA,NA,0.254,4.572,1.778,0,0,0,14.224,1.016,0,NA,NA,NA,NA,NA,NA,NA,NA,NA,NA,NA,NA,NA
672.1,"Lanai City","NWS","HydroNet-UaNet","LA",498.0432,20.8262997,-156.9182,"USC00515286","LANH1","50A2F716",NA,NA,0,0,0,0.254,0,0.254,0.762,27.432,70.612,0.254000000000005,8.38199999999999,5.58799999999999,0,0,0,26.924,10.414,0.253999999999991,0.253999999999991,0,4.06400000000002,0,0,0.253999999999991,29.972,3.30200000000002,1.77799999999999,0,6.34999999999999,10.668,0
679,"LANAI 1","RAWS","RAWS","LA",387.096,20.87333333,-157.0063889,"USR0000HLAN","LNIH1","48702336",NA,NA,0,0,0,0,0,0,0,27.178,24.638,0.508000000000003,7.11199999999999,2.79400000000001,0,0,0,23.368,0.253999999999991,0,0,1.27000000000001,0.762,0,0,0,27.178,1.01600000000001,3.80999999999999,0,1.52400000000002,14.732,0
702.7,"Kapolei-Kalaeloa AP","NWS","NWS","OA",15,21.31667,-158.06667,"USW00022551","PHJR",NA,NA,NA,0,0,0,0,0,0,0.762,38.2506121882256,0,0,2.032,0.254,0,0,0,0,0,0,0,0,0.154860778090063,0,0,6.96873501404912,0.154860778089924,1.39374700280987,0,6.65901345786922,6.34929190168926,0.464582334269911,0
702.8,"PTWC","NWS","HydroNet-UaNet","OA",1.524,21.3150005,-157.9992,NA,"PTWH1",NA,NA,NA,0,0,0,0,0,0,0,82.9420666264181,0,0,2.286,0.254,0,0,0,0,0,0,0,0,0.335797840592961,0,0,15.1109028266752,0.33579784059266,3.02218056533515,0,14.4393071454898,13.7677114643042,1.00739352177828,0
703,"HONOLULU INTERNATIONAL AIRPORT","USWB","NWS","OA",2.1,21.324,-157.9294,"USW00022521","PHNL",NA,NA,NA,0,NA,0,0,NA,0,0,NA,NA,0,1.016,0,0,0,0,0.254,0,0,NA,NA,NA,NA,NA,NA,NA,NA,NA,NA,NA,NA,NA
721.4,"Palolo Fire Stn","NWS","HydroNet-UaNet","OA",59.436,21.2996006,-157.7944,"USC00517662","PFSH1","19014414",NA,NA,0.762000000000626,0.253999999999905,0,0,0,0.507999999999811,0,21.5900000000001,0.253999999999905,0,0.762000000000626,0,0,0,0,0,0,0,0,0,0,0,0,0,0.253999999998996,0,4.06400000000031,0,13.2080000000005,1.01599999999962,0.253999999999905
723.8,"Niu Valley","NWS","HydroNet-UaNet","OA",19.812,21.2896996,-157.7332,"USC00516865","NIUH1","1900D38C",NA,NA,0.253999999999905,0.254000000000019,0,0,0,1.2700000000001,0,27.4319999999999,6.35000000000014,0,0,1.52399999999989,0,0,0,0.254000000000133,0,0,0,0,0,0,0,0,0,0,0,0,8.88999999999987,1.52399999999989,0
724.22,"Hawaii Kai Golf Course","NWS","HydroNet-UaNet","OA",8.8392,21.2991009,-157.6644,NA,"HAJH1","183024DA",NA,NA,0.508,0,0,0.508,0,0,0,29.464,NA,0,0,4.826,0,0,0,0.761999999999993,0,0,0.254000000000005,0,0,0,0,0,0,0,0,0,6.34999999999999,4.572,0
728.2,"PALEHUA","RAWS","RAWS","OA",722.376,21.385,-158.1041667,NA,"PLHH1","4870F55E",NA,NA,0.254,0,0,0,0.254,0.254,0.254,85.344,0.762,0,12.446,4.318,0,0,0,2.28599999999999,0,0.254000000000019,0.253999999999991,0.254000000000005,2.53999999999999,0.254000000000005,0.507999999999996,45.466,6.096,4.31799999999998,2.79400000000001,48.514,20.32,5.84200000000001,0
740.5,"Kunia","NWS","HydroNet-UaNet","OA",85.0392,21.3869991,-158.0358,NA,"KUNH1",NA,NA,NA,0,0,0,0.762,0.0723631120180017,0,0.254,54.7284047473326,0.217089336054005,0,1.778,4.826,0,0,0,0.434178672108009,0,0,0.0723631120179992,0.0723631120180032,0.846766339246006,0.0723631120180032,0.144726224036002,18.494081909189,1.85984990749792,2.33838987589939,0.795994232198022,19.1161688152732,10.8375929431431,2.0337572336118,0
742.4,"HONOULIULI PHB","FWS","RAWS","OA",1.524,21.35666667,-158.0205556,NA,"HOFH1","327BF39A",NA,NA,0,0,0,0,0,0,0,62.7380000000001,0,0,0.761999999999944,1.26999999999998,0,0,0,0,0,0,0,0,0.254000000000133,0,0,11.4299999999999,0.253999999999905,2.28600000000006,0,10.922,10.414,0.761999999999944,0
772.3,"MoanaluaRGNo.1atalt1000","USGS","USGS","OA",304.8,21.39338889,-157.8401111,NA,"MOGH1","1689664A",NA,NA,1.016,0.0946135734710914,5.588,0.762,0.111921985236773,10.668,0.769740577747534,124.854495287117,2.3536947020633,0,5.842,2.794,0,0,0,0.508,0.254,0,0,0,0.134722802900306,0.111921985236823,0,13.0378052915302,2.30809306673686,0.594633380091575,5.22139769498397,28.9553009529912,18.4453540190449,9.56572193116991,0.246644788137159
772.5,"Moanalua Stream","USGS","HydroNet-UaNet","OA",72.2376,21.3736,-157.8801,"USC00516400","MOAH1","1900B66A",NA,NA,1.016,0.254,0.762,0.508,0,2.794,0,69.342,1.524,0,3.30200000000001,0,0.254000000000005,0,0,0.507999999999996,0,0,0,0,0,0,0,1.27,1.01600000000001,0.253999999999991,1.01600000000001,4.06400000000001,16.002,1.77800000000001,0.253999999999991
775.11,"Nuuanu Res1 0502","HiMesonet","HiMesonet","OA",117,21.339124,-157.836859,NA,"012HI",NA,NA,NA,0,0.254,NA,NA,NA,NA,NA,NA,NA,NA,NA,NA,NA,NA,NA,1.5494,0,0,0,0,0.762,0,0,0.508,0.762,2.54,0.254,0,11.7094,3.048,0
775.12,"Upper Waolani 0503","HiMesonet","HiMesonet","OA",202,21.34666,-157.83641,NA,"037HI",NA,NA,NA,0.762,0,NA,NA,NA,NA,NA,NA,NA,NA,NA,NA,NA,NA,NA,0.508,0,0,0,0,1.27,0,0.254,0.254,1.27,0.762,0.508,0.254,8.89,3.81,0
775.13,"Waolani 0504","HiMesonet","HiMesonet","OA",98,21.33756,-157.84092,NA,"038HI",NA,NA,NA,0.254,0,NA,NA,NA,NA,NA,NA,NA,NA,NA,NA,NA,NA,NA,1.524,0,0,0,0,1.016,0,0.254,0.254,1.27,3.048,0.254,0.254,10.922,3.048,0
781.12,"Luluku","NWS","HydroNet-UaNet","OA",84.1248,21.3875008,-157.8099,NA,"LULH1","93215162",NA,NA,2.286,0,2.794,0.762,0,2.286,0,65.786,0.761999999999986,0,6.60400000000001,2.286,0,0,0,3.80999999999999,0,0,0,0,0.762000000000015,0,0.253999999999991,3.048,2.794,3.30199999999999,1.01600000000001,15.748,25.4,11.938,0
785.12,"Lyon 0501","HiMesonet","HiMesonet","OA",151,21.333,-157.8025,NA,"011HI",NA,NA,NA,1.778,1.27,NA,NA,NA,NA,NA,NA,NA,NA,NA,NA,NA,NA,NA,0,0.254,0.254,0,0,0.254,0,0,0.762,1.27,0.762,4.826,0,NA,NA,0
785.4,"Manoa Lyon Arbo","NWS","HydroNet-UaNet","OA",151.7904,21.3330002,-157.8024,"USC00516128","MNLH1",NA,NA,NA,1.778,NA,6.35,5.588,NA,4.064,0.254,NA,NA,0,2.54,0.762,0,0,0,NA,0.508,NA,NA,NA,NA,NA,NA,NA,NA,NA,NA,NA,NA,NA,NA
787.2,"Maunawili","NWS","HydroNet-UaNet","OA",127.1016,21.3509998,-157.7668,NA,"MAUH1","19007374",NA,NA,0.508,0,0,0.508,0,0.508,3.048,43.18,4.064,0,4.318,1.524,0.253999999999998,0,0,1.27,0,0,0,0,0.762,0,0,0.762000000000008,0.761999999999993,1.27,5.842,5.334,29.718,17.526,0.254000000000019
788.2,"St Stephens Seminary","NWS","HydroNet-UaNet","OA",142.9512,21.3666992,-157.7786,NA,"STVH1","19005598",NA,NA,0.508,0.254,1.778,0.254,0,0.254,1.27,58.928,1.26999999999999,0,5.842,1.524,0.254000000000005,0,0,8.89,0,0,0,0,0,0,0,1.524,1.524,1.27,4.318,23.368,25.146,14.478,0
790.11,"Olomana Fire Stn","NWS","HydroNet-UaNet","OA",45.1104,21.3777008,-157.7507,"USC00517052","OFSH1","19011468",NA,NA,1.0160000000003,0,0,0,2.79399999999987,1.01599999999985,0.761999999999944,33.7819999999999,3.30200000000036,0,3.30199999999991,3.048,0,0,0,6.85799999999995,0,0,0,0,0,0,0,0,0,0,3.30199999999991,19.05,12.4460000000001,9.14400000000001,0
793.2,"BELLOWS AFS AT WAIMANALO","NWS","STATE","OA",6.66,21.3667,-157.717,NA,"BELH1","B14036D2",NA,NA,0.254000000000019,0,0,0,0,0,0.254000000000019,35.814,3.04800000000006,0,2.03199999999993,3.55600000000004,0,0,0,0.762,0,0,0,0,0,0,0,0,0,0,0,2.79399999999998,2.54000000000008,3.80999999999995,0
795.3,"Waimanalo Nonokio","NWS","HydroNet-UaNet","OA",20.1168,21.3356991,-157.7116,NA,"WMLH1","224185AC",NA,NA,0,0,0,0,1.26999999999998,0,0,38.6079999999999,5.8420000000001,0.253999999999905,0.254000000000133,2.53999999999996,0,0,0,1.77800000000002,0,0,0,0,0,0,0.253999999999905,0,0,0,6.85800000000017,7.36599999999999,17.018,14.4779999999998,8.38200000000029
801.1,"Waianae Kawiwi","MT VIEW DAIRY","HydroNet-UaNet","OA",19.812,21.4566994,-158.18,NA,"WAIH1","1562920A",NA,NA,0,0,0,0,0,0,0,151.638,0,0,8.89000000000001,6.60400000000001,0,0,0,0.253999999999991,0,0,0,0,0,0,0,12.446,1.01599999999999,2.03200000000001,0,11.938,12.446,3.81000000000003,0
801.2,"WAIANAE BOAT HARBOR","NWS","STATE","OA",4.25,21.4503,-158.184,NA,"WBHH1","15D13434",NA,NA,0,0,0,0,0,0,0.253999999999994,133.35,0,0,8.12800000000001,5.58799999999999,0,0,0,0.253999999999991,0,0,0,0,0,0.254000000000019,0,8.636,1.26999999999998,0.762,0,8.636,7.874,2.79399999999998,0
803.2,"WAIANAE VALLEY","RAWS","RAWS","OA",291.6936,21.48055556,-158.1552778,"USR0000HWVA","WNVH1","487005DA",NA,NA,0,0,0,0,0,0,0,186.944,0.253999999999991,1.01600000000002,17.526,12.192,0,0,0,1.01599999999999,0,0,0,0,3.30200000000002,0,0.761999999999972,22.098,3.55599999999998,2.03200000000001,1.77799999999999,16.764,19.05,6.35000000000002,0
804,"Lualualei","US VY","HydroNet-UaNet","OA",35.9664,21.4211006,-158.1352,"USC00515647","LUAH1","8170406C",NA,NA,0,0,0,0,0,0,0,9.9060000000004,0.484362239999434,0,0.762000000000171,0,0.25400000000036,0,0.253999999999905,1.4530867199983,1.01600000000008,0,0,4.31799999999976,0.25400000000036,0,0,28.9002803199662,19.0499999999997,1.01600000000053,0.253999999999451,30.837729279964,3.55600000000004,7.87400000000025,0
810.1,"WHEELER ARMY AIR FIELD 810.1","COOP","NWS","OA",255,21.48722,-158.02806,"USW00022508","WAFH1","B14101B2",NA,NA,0.507999999999811,0,0,0,0,0,4.06400000000031,185.165999999999,1.52400000000034,0.507999999999811,11.4300000000003,9.65200000000004,0,0,0,12.1919999999991,0,0,0.254000000000815,0,0,0.253999999999905,0.253999999999905,9.39800000000014,1.01600000000053,0,2.03199999999924,26.4160000000002,10.6679999999997,4.57200000000103,0
820.6,"Mililani","NWS","HydroNet-UaNet","OA",226.7712,21.4638004,-157.9991,"USC00516261","MITH1",NA,NA,NA,0.254,0.171151756943073,0,0,0.0500726574057946,1.016,0.508,83.6765478369113,0.626329282412148,0,0.254,2.9885275866872,0,0,0,0.0604028485325273,0,0.118468159713093,0.156750759724829,0.0500726574057946,0,0,0,20.349530716417,1.5510974213396,0.761147713451549,2.76156362923997,32.7867993848688,17.2072606148411,4.29172726585386,0.121079099537287
824.2,"Waipio","NWS","HydroNet-UaNet","OA",124.968,21.4199009,-158.0058,NA,"PECH1",NA,NA,NA,0,0.0422102962223032,0,0,0.0606666290715679,0,0,59.1126795664347,0.435261664548523,0,3.302,2.032,2.032,0,0,0,0,0,0.124082203266669,0.0606666290715691,0.606666290715676,0.0606666290715691,0.121333258143135,21.9144412722848,2.25899602455787,1.45403643560957,2.04107001438342,29.321480350709,13.980967555631,3.52985619386017,0.0422102962223017
828,"SCHOFIELD EAST","RAWS","RAWS","OA",381,21.49944444,-157.9933333,"USR0000HSCH","SCEH1","325AB384",NA,NA,0.762,0.507999999999981,0,0,0.254000000000019,1.524,0.762,93.98,1.01600000000008,0,15.7479999999999,8.63599999999997,0,0,0.254000000000076,10.16,0,0.254000000000019,0.253999999999962,0.254000000000019,0,0,0,8.89000000000004,1.01599999999996,0.253999999999962,2.286,14.986,9.39800000000002,3.55600000000004,0.254000000000019
834.13,"Waiawa CF","NWS","HydroNet-UaNet","OA",235.6104,21.4440994,-157.9669,"USC00519257","WAWH1",NA,NA,NA,0.762,0.383166239894856,0,0,0.071571720265729,1.27,2.286,65.9642673080207,1.03377757574038,0,11.43,5.08,0,0,0.254,0,0,0.508,0.0715717202657129,0.071571720265729,0,0,0,3.01247810461439,0.830790417614236,0.173065299328519,3.26658732345342,5.84662876068266,16.2457685864232,2.26657601836223,0.311594519629139
835.2,"Palisades","NWS","HydroNet-UaNet","OA",261.8232,21.4298,-157.9452,NA,"PACH1",NA,NA,NA,15.24,0.375752140895183,14.732,0.199059445479488,0.070186838811213,1.98467800114247,2.286,64.6878876134088,1.01377443221635,0,5.14884182164258,2.794,0.099529722739746,0,0,0.254,0,0.236243646275194,0.0701868388111972,0.070186838811213,0,0,0,2.954187972091,0.814714986736343,0.169716561550938,3.20338028878929,5.73349905369717,15.931420076339,2.22271876466725,0.305565302083982
837.12,"WAIAHOLE STREAM NEAR KAHALUU 2N","USGS","USGS","OA",4,21.48194,-157.8458,NA,"WHSH1","162B784C",NA,NA,0,0,0,0.254000000000019,0,4.064,0.762,98.806,3.30200000000001,0,2.794,6.604,0,0,0,1.01600000000001,0,0,0,0,0.253999999999991,0,0,4.06400000000001,0.762,0.253999999999991,2.03200000000001,25.4,19.558,4.31799999999998,0
837.8,"Heeia NERR","NWS","unknown","OA",6.396949,21.43139,-157.81528,NA,"HRRH1","3B052656",NA,NA,0.254,0,0,0,0,1.778,0.254,83.312,4.318,0,4.318,2.794,0,0,0,2.286,0,0,0,0,0,0,0,3.556,1.524,0.508,3.556,32.258,13.716,4.572,NA
839.15,"Ahuimanu Loop ","NWS","HydroNet-UaNet","OA",74.0664,21.4319992,-157.8373,NA,"AHUH1","15CE7632",NA,NA,0,0.254,0,0.762,0.254,5.588,0,97.282,1.27000000000001,0,6.09599999999999,2.032,0,0,0.254000000000019,1.52399999999999,0,0,0,0,0,0.254000000000005,0,11.176,4.06400000000001,1.01599999999999,5.84199999999998,35.052,21.59,8.636,0.253999999999991
839.8,"Waihee Pump","USGS","HydroNet-UaNet","OA",64.3128,21.4463997,-157.8584,"USC00519286","WPPH1","195042AC",NA,NA,0.254,0,2.286,0.762,0,4.572,0.762000000000001,117.348,3.30200000000001,0,5.58799999999999,3.81,0,0,0,1.77799999999999,0,0,0,0,0.253999999999991,0,0,13.208,2.79400000000001,0.253999999999991,6.096,32.004,21.082,9.14399999999998,0.254000000000048
841.2,"KUAOKALA","S&PF","RAWS","OA",267.0048,21.57027778,-158.26,NA,"KKRH1","48710720",NA,NA,0.254,0,0,0,0,0,0,175.006,0.50800000000001,0.253999999999991,8.38200000000001,0.253999999999991,0,0,0,0.50800000000001,0,0,0,0,1.77799999999999,0,0,10.922,1.01599999999999,1.27000000000001,7.11199999999999,7.87400000000002,2.79399999999998,12.954,0
842.1,"MakahaRainGage","USGS","USGS","OA",286.097472,21.50158333,-158.1801667,NA,"MKHH1","DD1423F8",NA,NA,0,0,0,0,0,0,0.507999999999981,290.576,0.254000000000019,0.508,36.068,14.986,0,0,0,0,0.254000000000005,0,0,0,4.826,0,0.254000000000005,30.734,2.286,1.27,4.82599999999999,19.558,12.446,7.11199999999999,0
843.7,"DILLIINGHAM","RAWS","RAWS","OA",31.0896,21.57194444,-158.1986111,NA,"DLGH1","3278D278",NA,NA,0,0,0,0,0,0,0,189.738,1.77800000000002,0.762,16.256,1.01599999999996,0,0,0,1.01599999999999,0,0,0,0,0.508000000000038,0,0,31.75,1.01599999999996,0.507999999999981,17.272,12.446,12.192,22.098,0
844.5,"Kaala 0521","HiMesonet","HiMesonet","OA",1205,21.50675,-158.144861,NA,"026HI",NA,NA,NA,3.556,0.508,NA,NA,NA,NA,NA,NA,NA,NA,NA,NA,NA,NA,NA,10.6934,0.254,0.254,0,0.254,4.064,1.524,2.032,88.392,3.81,2.794,11.43,NA,52.07,8.636,0
855.3,"Poamoho Exp Farm","NWS","HydroNet-UaNet","OA",220.0656,21.5382004,-158.0893,NA,"POAH1",NA,NA,NA,0.508,0,0,0.762,0,0,0,106.510952848206,0,0.508,60.452,8.89,0,0,0,6.858,0,0.0919056230713916,0.248277279366449,0,0,0,0,42.4554147716626,2.48277279366449,1.48966367619869,4.71726830796252,66.7865881495745,25.3242824953777,7.20004110162699,0
858,"SCHOFIELD BARRACKS","RAWS","RAWS","OA",298.704,21.495,-158.0819444,"USR0000HSCO","SCBH1","3266A71E",NA,NA,0,0,0,0,0,0,0,108.966,0,0.508,13.97,10.922,0,0,0,1.27,0,0,0.254000000000001,0,0,0,0,43.434,2.54000000000001,1.524,4.82600000000001,68.326,25.908,7.36599999999999,0
884.4,"PunaluuRainGageatalt","USGS","USGS","OA",73.152,21.55644444,-157.899,NA,"PNSH1","DD989652",NA,NA,1.27000000000044,0.253999999998996,1.01600000000144,4.82599999999911,0,13.9700000000012,0.761999999998807,83.0580000000009,1.01599999999962,0,10.1599999999999,9.39800000000105,0,0,0,7.61999999999898,0.254000000000815,0,0,0,0,0,0,8.38199999999961,1.01600000000144,0.507999999997992,2.03200000000106,11.4299999999985,8.38200000000143,6.35000000000036,0
885.7,"OAHU FOREST NWR","RAWS","RAWS","OA",698.9,21.47747,-157.9369,NA,"OFRH1","8379F6FA",NA,NA,1.27,0,3.556,1.016,1.016,5.334,2.032,64.008,0.253999999999991,0,8.12800000000001,5.07999999999998,0,0,0,0.762000000000015,0,0,0.253999999999991,0,0,0.254000000000005,0.253999999999991,12.192,2.03200000000001,1.01599999999998,4.57200000000002,18.796,13.208,2.03200000000001,0
886.4,"KahanaRainGageatalt","USGS","USGS","OA",28.956,21.54041667,-157.8825556,NA,"KNRH1","17B972EE",NA,NA,1.77800000000002,0,1.01599999999996,4.06399999999996,0.254000000000019,10.922,0.253999999999905,71.8820000000001,0.508000000000038,0,6.85800000000006,9.65199999999993,0.253999999999905,0,0,6.85800000000006,0,0.254000000000019,0,0,0,0.254000000000133,0,6.60399999999993,1.01599999999996,0.449827851736041,2.79399999999998,17.526,9.39800000000002,5.33399999999983,0.254000000000133
886.8,"Hakipuu Mauka","RILEY W","HydroNet-UaNet","OA",8.5344,21.5067005,-157.8547,"USC00510920","HAKH1","16C69380",NA,NA,0,0,0,0,0,3.302,0.508,92.964,0.762,0,4.06399999999999,11.176,0.253999999999991,0,0,0.762,0.254000000000005,0,0,0,0,0,0,4.318,1.01599999999999,0,1.524,29.464,28.448,3.55600000000001,0.253999999999991
897.11,"KamananuiRainGageatalt","USGS","USGS","OA",219.456,21.62238889,-158.0143056,NA,"KMRH1","DD34C1E4",NA,NA,0,0.192752437263604,5.334,1.016,0.161577663943601,15.24,0.579488200126571,65.8505765929083,1.08395465470076,7.874,27.94,6.096,0,0.254,0.254,5.588,0.254,0.508,0.0403944159858988,0,0,0.040394415985901,0.0403944159858988,4.48405554179451,1.09416507694284,0.410807293640982,1.72401800653779,7.71106435976378,12.5495974058679,2.68901185254624,0.136275244829813
897.9,"PupukeaRdRainGageatalt","USGS","USGS","OA",353.568,21.59902778,-158.0169167,NA,"PPRH1","1713D512",NA,NA,0.762,0.230477420517688,1.016,0.508,0.128044580159906,4.826,0.254,63.032018460534,17.2357057034363,1.27,38.1,5.842,0,0,0,7.366,0.254,0,0,0,0.128044580159867,0,0,2.65040295703447,3.99497960590979,1.90740034234654,2.33709205611172,4.6004565884015,12.5278780847617,5.54881560376654,0.132770987327727
905.22,"Punaluu Pump","NWS","HydroNet-UaNet","OA",3.9624,21.5842991,-157.8916,NA,"PUNH1","19051152",NA,NA,0.254,0.254,1.778,0.254,0,19.812,0.253999999999998,87.63,1.01600000000001,0,13.716,8.636,0,0,0,3.81,0.253999999999991,0,0.254000000000019,0,0,0,0,2.28599999999997,0.50800000000001,0,0,4.572,3.81,5.58799999999999,0
909,"KAHUKU TRAINING AREA","RAWS","RAWS","OA",181.6608,21.67916667,-157.9894444,"USR0000HKAH","KTAH1","325A861E",NA,NA,0.254,0,1.27,0.254,0,2.54,0.253999999999999,99.822,0.253999999999991,2.79400000000001,9.652,2.53999999999998,0,0,0,1.524,0.254000000000019,0,0,0,3.80999999999997,0,0,7.11200000000002,0.762,0,1.52399999999997,4.31800000000001,0.50800000000001,18.796,0
911.1,"KII","RAWS","RAWS","OA",1.524,21.68833333,-157.9525,"USR0000HKII","KFWH1","8375210E",NA,NA,1.016,0,0,0.508,0,4.572,0,85.852,0.254000000000005,7.366,14.478,3.80999999999999,0,0,0,2.28600000000003,0.253999999999991,0,0,0,1.52399999999999,0,0,3.81000000000002,0.507999999999981,0,0.762000000000015,3.81,1.01599999999999,15.748,0
926,"PORT ALLEN CAA AIRPORT","FAA","COOP","KA",9,21.89381249,-159.6010997,"USW0022526","PAKH1","B159A272",NA,NA,0,0.253999999999962,0,0,0,0,13.462,25.4,0.507999999999981,0,0.507999999999981,0.254000000000019,0,0,0,0.507999999999981,0.254000000000076,0,0,0,7.62,0,0.253999999999962,5.84199999999998,0.254000000000076,5.58799999999997,2.03199999999993,4.31800000000004,11.1759999999999,1.27000000000004,0
940.3,"POIPU","NWS","STATE","KA",14.8,21.8828,-159.429,NA,"POIH1","B15997E8",NA,NA,1.77800000000002,1.26999999999998,0,1.77800000000002,0.253999999999905,0,9.90600000000018,26.9239999999998,2.03200000000015,0,1.26999999999998,0.253999999999905,0,0,0,0.761999999999944,0,0,0.508000000000266,0.253999999999905,5.07999999999993,0,0,7.62000000000012,0.761999999999944,2.03199999999993,2.03199999999993,10.1600000000001,33.7820000000002,0.507999999999811,0
946,"WAIMEA HTS","RAWS","RAWS","KA",159.7152,21.96638889,-159.6638889,NA,"WHGH1","487090B8",NA,NA,0,0.762,0,0,0,0,34.29,42.672,0.507999999999996,3.556,9.398,0.507999999999996,0,0,0,4.82600000000001,0,0,1.01599999999999,0.50800000000001,2.032,0.254000000000005,0.253999999999991,26.924,0.50800000000001,3.55599999999998,2.03200000000001,10.414,12.954,1.01599999999999,0
946.1,"WAIMEA TANK AT WAIMEA","NWS","unknown","KA",70,21.964722,-159.666944,NA,"WMTH1","1900E616",NA,NA,0,0.253999999999905,0,0,0,0,35.306,42.4179999999997,3.55600000000004,0.762000000000171,10.1599999999999,0.508000000000266,0,0,0,5.07999999999993,0,0,0.507999999999811,0,2.28600000000051,0,0.253999999999451,27.4320000000002,0.253999999999905,3.55600000000004,2.03200000000015,9.65199999999959,12.192,0.762000000000171,0
966.4,"Hanapepe","NWS","HydroNet-UaNet","KA",110.6424,21.9365005,-159.5866,NA,"HNPH1","156011EA",NA,NA,1.01600000000008,2.79399999999987,0,0,0,0,18.796,57.404,3.55600000000004,0.761999999999944,2.54000000000019,0,0,0,0,1.52399999999989,0.254000000000133,0,1.52399999999989,0,4.06400000000008,0,0.508000000000038,25.1459999999997,1.01600000000008,5.8420000000001,2.28599999999983,15.2400000000002,25.9079999999999,0.762000000000171,0
986.2,"Kalaheo","KUKUILONO GOLF COU","HydroNet-UaNet","KA",263.0424,21.9183006,-159.5265,NA,"KHEH1","1560740C",NA,NA,1.26999999999998,3.048,0.254000000000019,0,0.254000000000019,0,31.75,37.0839999999999,1.77800000000002,0,1.01599999999996,0,0,0,0,2.28600000000006,0,0,3.048,0.253999999999905,15.4940000000001,0,0,14.986,0.253999999999905,6.60400000000004,6.096,19.558,28.448,1.01599999999996,0
992.1,"Omao","NWS","HydroNet-UaNet","KA",99.9744,21.9071007,-159.4768,"USC00517116","OMAH1","195001A6",NA,NA,0.761999999999716,4.06400000000031,0,0,0,0,18.7960000000003,30.4799999999996,1.52400000000034,0,0.253999999999905,0,0,0,0,1.26999999999953,0,0,0.762000000000626,0,11.9380000000001,0,0,6.85800000000017,0.253999999999905,3.04799999999977,10.1599999999999,10.4139999999998,27.6860000000006,1.87366976382145,0
1020.1,"LIHUE WEATHER SERVICE OFFICE AIRPORT 1020.1","LIHUE WEATHER SERVICE OFFICE AIRPORT 1020.1","NWS","KA",45,21.98156999,-159.3422063,"USW00022536","PHLI",NA,NA,NA,1.016,1.81438412842291,0,0.508,0.793793056185023,0,21.844,10.772905762511,0,0.508,1.27,4.318,0,0,0,0,0,0,0.680394048158591,0,4.76275833711014,0,0.453596032105732,2.83497520066079,0,0.226798016052862,0,0.340197024079302,1.02059107223789,1.92778313644934,0
1029,"MANA","RAWS","RAWS","KA",26.2128,22.02944444,-159.7622222,NA,"MNRH1","4870603C",NA,NA,0,0,0,0,0,0,19.812,37.592,1.27000000000001,7.11199999999999,18.796,0,0,0,0,4.06400000000001,0,0,0.507999999999996,2.794,5.58799999999999,0,0.254000000000005,13.462,0.50800000000001,2.032,1.52399999999999,2.286,7.366,3.048,0
1036,"PUU OPAE","RAWS","RAWS","KA",652.8816,22.04083333,-159.6958333,NA,"POPH1","4870734A",NA,NA,0,0,0,0,0,0,39.624,70.104,4.06400000000001,8.636,35.814,5.07999999999998,0,0,0.254000000000019,13.716,0,0,2.286,2.03199999999998,7.11199999999999,0.254000000000019,2.79399999999998,9.65199999999999,0.508000000000038,4.06399999999996,13.97,0.507999999999981,41.5107567422869,0,0
1042,"WaialaeRainGagenrWaimea","USGS","USGS","KA",1219.2,22.08972222,-159.5925,NA,"WLGH1","DDF7C28E",NA,NA,0.508000000000152,4.572,0.253999999999905,0.254000000000019,0,0.253999999999905,39.6240000000001,97.028,2.54000000000008,3.30200000000002,54.3559999999999,11.1759999999999,0.254000000000133,0,0,13.208,0,0.253999999999905,4.572,3.30200000000002,4.572,0.762000000000057,4.82600000000014,52.5780000000001,0.253999999999905,1.65528259642427,27.9400000000001,62.9919999999998,57.4040000000002,2.03199999999993,0.254000000000133
1047,"Mt.WaialealeRainGagenrLihue","USGS","USGS","KA",1569.72,22.07088889,-159.4979722,"USC00516565","WLLH1","DD5E818E",NA,NA,7.36599999999999,18.034,14.2239999999999,6.85800000000006,7.87400000000002,0.525333725944328,36.8299999999999,84.582,2.7940000000001,4.82600000000002,26.924,11.9379999999999,0.52533372594421,0,0,16.002,0.525333725944445,0,6.096,0.254000000000133,25.146,0.508000000000038,4.82600000000002,35.5599999999999,23.622,3.556,21.59,44.958,51.816,5.08000000000001,0
1051,"NWailuaDitchRainGagenrLihue","LIHUE PLANTATION","USGS","KA",338.328,22.0625,-159.4677222,"USC00516888","WLDH1","1732B3E0",NA,NA,1.26999999999998,12.7,2.03199999999998,1.524,2.79399999999998,0.254000000000076,22.352,48.7679999999999,0.254000000000076,11.9379999999999,45.466,13.97,0.254000000000019,0,0,10.6679999999999,0.254000000000133,0,2.79399999999998,0.253999999999905,7.62,0.254000000000019,3.048,34.29,0,0.254000000000133,9.39799999999991,29.21,37.0839999999999,6.60400000000004,0
1052.3,"Waiahi Rain Gage","USGS","USGS","KA",248,22.0227,-159.4651,NA,"WIRH1",NA,NA,NA,4.572,NA,2.286,0.254,NA,0,NA,NA,NA,3.556,8.128,7.112,0.254,0,0,1.778,0,0,NA,NA,NA,NA,NA,NA,NA,NA,NA,NA,NA,NA,NA
1059,"Lihue Variety Stn","NWS","HydroNet-UaNet","KA",117.0432,22.0240002,-159.3868,NA,"LIHH1","1561501A",NA,NA,1.778,1.016,0.254,0,0.762,0,11.176,29.21,0,0.762,4.064,2.53999999999999,0,NA,NA,NA,NA,NA,NA,NA,NA,NA,NA,NA,NA,NA,NA,NA,NA,4.82600000000001,0
1060,"Wailua UH Exp Stn","NWS","HydroNet-UaNet","KA",158.1912,22.0660992,-159.396,"USC00519475","WUHH1",NA,NA,NA,1.016,4.63815825070316,0.793577079130771,1.524,1.427489636481,0.114873619300936,7.55953516547787,21.7364191205481,0.055329158455339,2.60047044740013,14.478,4.064,0.0368861056368844,0,0,1.016,0.111300279457252,0,1.31050836598493,0.0553291584553018,6.57308811449441,0.0553291584553266,1.13187498344813,10.3939681538702,0,0.28929169944748,2.04717886284691,6.71379703385028,9.13088856894164,3.4272397182715,0
1061.5,"Wailua UH Exp Stn","NWS","HydroNet-UaNet","KA",158,22.066,-159.3962,NA,"WUHH1","15C163D6",NA,NA,1.016,4.064,0.762,1.524,1.778,0.254000000000001,5.842,24.13,0,0,14.478,4.06399999999999,0,0,0,1.016,0,0,1.524,0,10.668,0,1.01600000000001,6.34999999999999,0,0.507999999999996,0,0.762000000000015,2.286,4.318,0
1069,"PUU LUA","RAWS","RAWS","KA",1021.08,22.08916667,-159.6791667,NA,"PLRH1","487083CE",NA,NA,0,0.508,0,0,0,0,45.974,100.584,5.33399999999997,14.732,53.086,4.31799999999998,0,0,0,28.702,0,0.253999999999991,1.01599999999999,2.53999999999996,8.12800000000004,0.762,10.414,39.1159999999999,0.254000000000019,6.60399999999998,15.748,33.0199999999999,49.2760000000001,7.87399999999997,0
1074,"MAKAHA RIDGE","RAWS","RAWS","KA",544.9824,22.13055556,-159.7152778,"USR0000HMAH","MKAH1","3286026C",NA,NA,0,0,0,0,0,0,21.336,74.93,1.524,11.684,45.212,1.01600000000002,0,0,0,12.954,0,0,0,0,5.84200000000001,0,0.762,15.748,0.254000000000019,6.09599999999998,4.57200000000003,15.24,17.272,13.208,0
1076,"Kokee","NWS","HydroNet-UaNet","KA",1279.2456,22.1485996,-159.6448,NA,"KOKH1","1900E616",NA,NA,0,0.253999999999905,0,0,0,0,35.306,42.4179999999997,3.55600000000004,0.762000000000171,10.1599999999999,0.508000000000266,0,0,0,5.07999999999993,0,0,0.507999999999811,0,2.28600000000051,0,0.253999999999451,27.4320000000002,0.253999999999905,3.55600000000004,2.03200000000015,9.65199999999959,12.192,0.762000000000171,0
1082,"WaiakoaliRainGagenrWaimea","USGS","USGS","KA",1042.416,22.1245,-159.6220833,"519130","WKRH1","17B79574",NA,NA,0.254,1.97495460134669,0,0.254,0.0355581238383994,0,28.9682423680451,58.2014585163657,3.22840541665,10.16,57.15,7.874,0,0,0,19.304,0,0,1.84753990091999,1.24971644894632,3.3024731712666,0.291131343898336,2.20237817005341,30.0801018069374,2.69575190848187,5.99635723927545,11.9430709731256,28.8376452903516,30.8452226288778,2.11274880130378,0.0851910733533399
1083,"MoCrsgRainGagenrWaimea","USGS","USGS","KA",1042.416,22.11708333,-159.6009722,"USC00516433","MCRH1","D109224A",NA,NA,0.508,1.95511171531131,0,0,0.0352008620570521,0,28.677190851437,57.6166932221938,3.19596878204843,6.096,56.388,13.462,0,0.254,0,17.018,0.254,0,1.82897718374423,1.23716022053678,3.26929235853924,0.288206271051415,2.18025029987079,29.7778791473985,2.6686669831559,1.64880098547043,11.8230758116821,28.5479059167808,30.5353126000886,2.09152146085906,0.0843351363314817
1084,"KilohanaRainGafenrHanalei","USGS","USGS","KA",1219.2,22.15408333,-159.5946111,"USC00514610","KLOH1","DDCC972A",NA,NA,2.79399999999987,2.53999999999996,0,0.507999999999811,0.254000000000133,0.254000000000133,26.6699999999998,80.7719999999999,8.38199999999983,11.6840000000002,88.1380000000001,11.9379999999999,0,0,0,21.5899999999997,0,0.25400000000036,1.01600000000008,1.01599999999962,7.11200000000008,0.25400000000036,3.55600000000004,22.6059999999998,18.034,3.048,13.462,31.75,53.34,8.38200000000001,0
1094.2,"Kapahi","NWS","HydroNet-UaNet","KA",158.496,22.1021004,-159.3856,"USC00513171","KPIH1","15608488",NA,NA,0.253999999999905,4.31799999999998,2.28600000000006,3.048,6.096,0,6.096,12.7,0,1.26999999999975,20.3200000000002,2.03199999999993,0,0,0,0.508000000000038,0.254000000000133,0,0.507999999999811,0,19.558,0,0.508000000000038,5.33400000000006,0.254000000000133,0,0,0,0.253999999999905,1.52399999999989,0
1111.4,"Anahola","HAWN FRUIT PACKERS","HydroNet-UaNet","KA",75.2856,22.1373997,-159.312,NA,"ANHH1","1560029C",NA,NA,0.508,1.016,5.842,0.254,0,0,5.08,13.97,0,0,21.59,3.81,0,0,0,0,0,0,0,0,21.844,0,0,1.524,0,0,0,0,0,0,0
1115.1,"PH Wainiha","NWS","HydroNet-UaNet","KA",35.052,22.1959991,-159.5563,NA,"WNHH1","15C03150",NA,NA,0.508,0.508,0,0,0,0,6.35,25.908,0.762,5.842,NA,3.30200000000002,0,0,0,18.288,0.253999999999991,0,0,0,18.288,0,0,0.50800000000001,0,0,0,0,15.748,17.526,0
1116.2,"Lower Limahuli 0603","HiMesonet","HiMesonet","KA",31,22.219805,-159.575195,NA,"024HI",NA,NA,NA,0,0,NA,NA,NA,NA,NA,NA,NA,NA,NA,NA,NA,NA,NA,16.002,0,0,0,0,51.4604,0,0,2.54,0,0,0.762,3.302,12.7,10.16,0
1117.11,"Waipa 0601","HiMesonet","HiMesonet","KA",5,22.202647,-159.518833,NA,"014HI",NA,NA,NA,1.27,0.508,NA,NA,NA,NA,NA,NA,NA,NA,NA,NA,NA,NA,NA,8.128,0,0,0,0,52.8574,0,0,0.254,0,0,0,0,3.048,5.334,0
1117.8,"Hanalei","NWS","HydroNet-UaNet","KA",4.8768,22.1982002,-159.4951,"USC00513386","HNIH1","B159849E",NA,NA,2.794,1.016,0.254,1.016,0.254,0,2.54,27.94,0,2.286,39.116,0.253999999999991,0,0,0,3.04800000000002,0,0,0,0,42.926,0.253999999999991,0,0,0,0,0,0,0.507999999999996,2.28600000000002,0
1117.9,"PRINCEVILLE AIRPORT NEAR KILAUEA 4W","NWS","STATE","KA",88.497,22.2114,-159.443,NA,"PRIH1","15D696F8",NA,NA,1.778,1.016,0.508,0.508,0.762,0,NA,20.828,0,2.54,34.544,0,0,0,0,3.81,0,0,0,0,19.558,0,0,0,0,0,0,0,0,2.53999999999999,0
1132.11,"Common Ground 0602","HiMesonet","HiMesonet","KA",112,22.197439,-159.42123,NA,"015HI",NA,NA,NA,0.254,1.778,NA,NA,NA,NA,NA,NA,NA,NA,NA,NA,NA,NA,NA,3.556,0,0,0,0,21.1582,0.254,0,0,0,0,0,0,0,1.778,0
1146,"Moloaa Dairy","RAWS","RAWS","KA",85.344,22.18333333,-159.3375,"USR0000HMOL","MLDH1","AAB6D15A",NA,NA,0,1.778,3.302,0,0,0.508,4.064,11.684,0,0,39.624,3.048,0,0,0,0.762,0,0,0,0,28.194,0,0,0.762,0,0,0,0,0,2.032,0
279,"POHAKAU PALAHA HN-161","HiMesonet","HaleNet","MA",2460,20.730574,-156.141316,NA,"043HI",NA,NA,NA,1.05423688914882,0.332916912362859,0.110972304120887,0.136290619315062,0.854734483930665,3.58011931570564,6.85437730007101,8.92814599730538,86.824761195986,15.5186630458595,0.369907680402956,0.702824592765882,0.0739815360807237,0,0,65.3061184873107,79.2302969259201,0,0,0,0,0,0,0,3.82225598753851,0,0,0,0,12.821313047747,0.349505843409559
705.12,"Aloha Tower","NWS","HydroNet-UaNet","OA",38.1,21.3034,-157.8627,NA,"ALOH1",NA,NA,NA,0.20684913761151,0.137899425074175,0,0,0,0.137899425074175,0,11.7214511313093,0.137899425074175,0,0.787049101997124,0,0,0,0,0.145049991096404,0,0,0,0,0,0,0,0,0.137899425073682,0,2.20639080118779,0,7.17077010386006,0.5515977002967,0.137899425074175
724.21,"Kamehame","NWS","HydroNet-UaNet","OA",242.316,21.3085995,-157.6791,NA,"KMHH1","190046EE",NA,NA,0.194011917242533,0.19401191724262,0,0,0,0.970059586213104,0,20.9532870622013,4.85029793106525,0,0,1.16407150345555,0,0,0,0.194011917242707,0,0,0,0,0,0,0,0,0,0,0,0,6.7904171034911,1.16407150345555,0
752.6,"WAIAWA PHB","FWS","RAWS","OA",1.524,21.38694444,-157.9811111,NA,"WWFH1","3274C092",NA,NA,0.0443950820253886,0,0,0.281747036911789,0.0802680802865667,0.177580328101554,0.182705843021374,60.7069522538194,0.2408042408597,0,1.67266697897599,3.29155643752894,0.597453627173188,0,0,0.481608481719398,0,0.0535120535243818,0.0802680802865639,0.0802680802865683,0.939267350548055,0.0802680802865683,0.160536160573132,20.5143810169998,2.06302047455987,2.59383629401254,0.882948883152237,21.204424885074,12.0214948779004,2.25592548963797,0
782.3,"Nuuanu Upper","NWS","HydroNet-UaNet","OA",248.412,21.3502007,-157.8184,"USC00516938","NUUH1","156097FE",NA,NA,1.45126380213525,0.296134867996933,3.65275939601457,1.99606523731635,0,5.86797504775931,0.637474056451099,125.674366143836,3.05584126330994,0,4.56112747236481,0.936119133446798,0.181646188941419,0,0,4.50512835390344,0.197427426885775,0,0,0,0.107193902644908,0,0,7.16924595657562,2.59264975919281,0.861283486863904,5.24554596318736,26.9457292294292,31.6751830493331,11.6563585239712,0.288840091586342
842.9,"MAKUA RIDGE","RAWS","RAWS","OA",533.4,21.54277778,-158.1988889,"USR0000HMRG","MKGH1","3266C2F8",NA,NA,0.68791079363272,NA,0,1.03186619044908,NA,0,0,NA,NA,0.68791079363272,81.8613844422937,12.0384388885726,0,0,0,9.28679571404172,0,NA,NA,NA,NA,NA,NA,NA,NA,NA,NA,NA,NA,NA,NA
