"SKN","Station.Name","Observer","Network","Island","ELEV.m.","LAT","LON","NCEI.id","NWS.id","NESDIS.id","SCAN.id","SMART_NODE_RF.id","X2018.05.01","X2018.05.02","X2018.05.03","X2018.05.04","X2018.05.05","X2018.05.06","X2018.05.07","X2018.05.08","X2018.05.09","X2018.05.10","X2018.05.11","X2018.05.12","X2018.05.13","X2018.05.14","X2018.05.15","X2018.05.16","X2018.05.17","X2018.05.18","X2018.05.19","X2018.05.20","X2018.05.21","X2018.05.22","X2018.05.23","X2018.05.24","X2018.05.25","X2018.05.26","X2018.05.27","X2018.05.28","X2018.05.29","X2018.05.30","X2018.05.31"
2.1,"KAHUKU MAUKA","COOP","COOP","BI",957,19.1089,-155.7467,"USC00512566",NA,NA,NA,NA,0,0,0,3.03926399846675,0,0,0,0,0,1.41108685643099,3.03926399846675,0,1.62817714203576,0,0,0,0,0,0,0.325635428407152,0.54272571401192,0,0,1.41108685643099,0.54272571401192,0,0,0,0,0,0
2.32,"SOUTH KONA 2 2.32","COOP","COOP","BI",647,19.10778,-155.78944,"USC00518652",NA,NA,NA,NA,0,0,0,2.8,0,0,0,0,0,1.3,2.8,0,1.5,0,0,0,0,0,0,0.3,0.5,0,0,1.3,0.5,0,0,0,0,0,0
2.34,"MILOLII 2.34","COOP","COOP","BI",280,19.186302,-155.886763,"USC00516304",NA,NA,NA,NA,5.3,0,0,0,5.3,0,0,3.3,2.8,0.8,0.5,0,0,0,0,0,0,0,0,0,0,0.8,0,0,0,0,1.8,0,0,0.5,1.3
2.36,"KAPUA 2.36","COOP","COOP","BI",533,19.14472,-155.84944,"USC00513376",NA,NA,NA,NA,0,0,0,5.1,1.8,1.5,2.5,2.8,0,0,0,0,8.4,0,0,0,0,0,0,0,0,0,1.3,0,0,0,0,0,0,0,0.5
3.22,"HAWAIIAN OCEAN VIEW 4.7 NNE","HAWAIIAN OCEAN VIEW 4.7 NNE","CoCoRaHS","BI",1273,19.135,-155.747,"US1HIHI0035",NA,NA,NA,NA,0,0,0,0,0,3.3,0,0,0.8,0.8,0.8,0.8,0.3,0,0.8,0,0,0.8,0,0,2.5,0.5,0,0,0,0.8,0.8,0,1.3,1,0
3.23,"CAPTAIN COOK 2.9 SSE","CAPTAIN COOK 2.9 SSE","CoCoRaHS","BI",238,19.4594,-155.8938,"US1HIHI0019",NA,NA,NA,NA,0.5,0,0,6.6,0,6.6,1,2.8,0.3,13.2,NA,0,0,0,0,3.8,0,0,0.3,0,0,1,1,0.5,NA,NA,NA,NA,NA,NA,NA
3.9,"LOWER KAHUKU CS","LOWER KAHUKU CS","RAWS","BI",953.7192,19.10083333,-155.6697222,NA,"LKHH1","32D620C2",NA,NA,0,2,0.5,0.199999999999989,0.599999999999994,0,2,0.5,0,6.09999999999999,2,0,0.300000000000011,0.699999999999989,0,6.10000000000002,1.29999999999998,1.5,0,4.30000000000001,1.79999999999998,0.300000000000011,0,1,1,2.80000000000001,0.5,2.79999999999998,15,11.7,3.79999999999998
4.12,"NAALEHU 4.6 WSW","NAALEHU 4.6 WSW","CoCoRaHS","BI",391,19.0424,-155.6354,"US1HIHI0001",NA,NA,NA,NA,4.3,0.5,0.5,0,0,0.5,1,1.5,0,0,7.4,0,0,0,0,0,8.9,4.38153359919167,0.123317028710199,0,0,0.443941303356718,0,0.0739902172261196,0.123317028710199,0.443941303356718,0.567258332066917,0.369951086130598,3.16236367864222,15.5614410404604,3.38831836334387
4.13,"NAALEHU 5.0 WSW","NAALEHU 5.0 WSW","CoCoRaHS","BI",436,19.0424,-155.643,"US1HIHI0010",NA,NA,NA,NA,4.3,0.5,0.5,0.3,0,0,1.3,1.3,0,0.3,7.4,0,0.8,0.3,0,0,9.7,1,0,0,0,0,0,0,0,0,0,0,4.1,12.2,3.3
4.14,"NAALEHU 4.7 WSW, HI US","CoCoRaHs","CoCoRaHs","BI",393.18,19.0421,-155.6371,"US1HIHI0057",NA,NA,NA,NA,NA,NA,0.8,0,0,0.8,1.3,1.8,NA,NA,5.6,0.3,NA,NA,0,0,7.4,0.5,0,0,0,0,0,0,0,0,0,0,4.3,10.9,2.5
5.1,"Kamaoa Puueo 5.1","COOP","COOP","BI",317,19.01361,-155.66194,"USC00513054",NA,NA,NA,NA,6.25582937514665,0.633501708875611,0,0,0,0,1.02944027692287,0.237563140828354,0,0.395938568047257,9.2649624923058,0.237563140828354,0,0,0,0,4.19694882130092,7.68120822011678,0,0,0,0,0,0,0,0,0,0,2.61319454911189,5.8,1.3
6,"KIOLAKAA A&F 6","STATE DIV FTRY","COOP","BI",587,19.07032619,-155.6355484,"USC00514625",NA,NA,NA,NA,9.05734847981509,0.917199846057224,0,0,0,0,1.49044974984299,0.343949942271459,0,0.573249903785765,13.4140477485869,0.343949942271459,0,0,0,0,6.07644898012911,11.1210481334438,0,0,0,0,0,0,0,0,0,0,3.78344936498605,19.2178410522272,0.941086490508996
6.2,"NAALEHU 5.7 W","NAALEHU 5.7 W","CoCoRaHS","BI",679,19.0732,-155.6632,"US1HIHI0012",NA,NA,NA,NA,4.3,0.8,1.3,0.3,0.5,0.8,4.6,3,0.5,0,9.9,1.3,0.5,1.5,1,0,7.1,3.3,0.5,0,0,1.8,0,0.3,0.5,1.8,2.3,1.5,3.3,12.4,9.7
9.2,"Nene Cabin","Nene Cabin","RAWS","BI",710.4888,19.34805556,-155.1258333,NA,"AHMH1","32D64524",NA,NA,0,0,0,0,0,0,2.30000000000001,2.79999999999995,0,3.80000000000001,3,0,0,2.80000000000001,0.800000000000011,1.69999999999999,0.300000000000011,0.5,0,7.09999999999997,0.5,0,0,0.5,0.300000000000011,0,0,0,14,5.80000000000001,2.30000000000001
12.15,"SEA MOUNTAIN 12.15","SEA MOUNTAIN","COOP","BI",21,19.13310292,-155.5152744,"USC00518600",NA,NA,NA,NA,11.9819869090749,0.644873713001368,0.187128633106212,0.187128633106212,0,0,1.12277067510214,0.316679095617998,0,0.32819461738337,7.03603154888549,0.259100925023572,0,0,0,0,2.28872483770822,0,0,0,0,0,0,0,0,0,0,0,2.85011017525929,22.6281474520586,0
14,"NAALEHU 14","KAU SUGAR","COOP","BI",206,19.06032754,-155.5855501,"USC00516588",NA,NA,NA,NA,7.9,0.8,0,0,0,0,1.3,0.3,0,0.5,11.7,0.3,0,0,0,0,5.3,9.7,0,0,0,0,0,0,0,0,0,0,3.3,26.2,0
21,"Pahala","KAU SUGAR","HydroNet-UaNet","BI",346.8624,19.2042999,-155.4872,"USC00517421","PPLH1","B16084B2",NA,NA,0,0.254,0,0,2.54,3.048,0,0.254,0,4.572,0,0,0,0,0.508,0.762,13.716,0,0,0,0,0,0,0,0,0,0,0,12.954,0,0
21.3,"PAHALA MAUKA 21.3","COOP","COOP","BI",332,19.20667,-155.48861,"USC00517437",NA,NA,NA,NA,22.9,0.8,0.5,0.5,1.1870002009444,1.42440024113328,0.749999249490101,0.5,0,0.3,5.3,0.173076749882331,0,0,0,0,0,0,0,0,0,0,0,0,0,0,0,0,10.9843957859303,15.1153694897236,0
21.4,"HAWAIIAN OCEAN VIEW 1.7 NNE, HI US","CoCoRaHs","CoCoRaHs","BI",733.03,19.0908,-155.7552,"US1HIHI0059",NA,NA,NA,NA,0.8,0,1,0,1,0.8,0.8,0,0,0,3.3,0.3,0,2.8,0,0,0,0,0,0,1,0,0,0,0,2.5,0,0,0,0,0
23,"KAHUKU","RAWS","RAWS","BI",1796.4912,19.23222222,-155.78,NA,"KRCH1","32639544",NA,NA,0,0,2.10000000000002,0.699999999999989,0.5,0.300000000000011,3.09999999999997,1,0.199999999999989,3.80000000000001,0.5,0,0,0.800000000000011,0,0,0.800000000000011,0,0,0,0.199999999999989,0.300000000000011,0.199999999999989,0.300000000000011,0,0.199999999999989,0,0,0,1.30000000000001,0.800000000000011
24.1,"OPIHIHALE 2 24.1","TRUMAN LORNA","COOP","BI",396,19.27032215,-155.8738768,"USC00517166",NA,NA,NA,NA,3.3,0,0,12.7,0.5,5.1,0,3.3,10.7,0.5,0.8,0,0,0,0,0.5,0,0,0,0,0,1,0,0.5,0,1,2.3,0,0,0,0
26.2,"KEALAKEKUA 26.2","GREENWELL ESTATE","COOP","BI",442,19.48975723,-155.9122125,"USC00513977",NA,NA,NA,NA,0.54362487889724,0,0,1.59881427074491,3.86902777010811,1.87589225217363,0,0,0,1.8,24.1,0,0,0,0.351729797282555,1.5,0,0.117243265760852,0,0,0,2.81709112626174,0.8,1.8,0,0.54362487889724,1.40691918913022,0.234486531521703,0,0,0
27,"HONAUNAU 27","TANAKA S","COOP","BI",332,19.4403158,-155.8788789,"USC00511665",NA,NA,NA,NA,1,0,0,1,0,NA,NA,NA,0,1.65555336949567,22.1660201138031,0,NA,NA,0,1.3,0,0,0,NA,NA,1.3,1.3,0,0,1,NA,NA,NA,0,0
27.6,"Honaunau No. 2","NWS","HydroNet-UaNet","BI",398.0688,19.4629002,-155.8824,NA,"HAUH1","15D12742",NA,NA,0,0,6.604,0.254,6.858,1.778,2.794,0,9.144,19.558,0,0,0.762,0,8.636,0,0,1.27,0.254,0,1.524,10.16,1.016,0.254,0,0,0,0,0,0,4.572
28,"NAPOOPOO 28","KONA EXP STATION","COOP","BI",122,19.46864784,-155.9055458,"USC00516697",NA,NA,NA,NA,NA,0,0,NA,NA,NA,NA,NA,0,1.1624479965939,15.5638870655072,0,NA,NA,NA,0.968706663828252,0,NA,NA,NA,NA,NA,0.516643554041734,1.1624479965939,NA,NA,NA,NA,NA,0,0
29.12,"Kealakekua","NWS","HydroNet-UaNet","BI",537.972,19.5181007,-155.9159,NA,"KLEH1","81708572",NA,NA,0,0,1.016,2.286,8.382,2.032,0,0,1.016,4.826,0,0,0,0,0.762,0.254,0.254,0.254,0,0,0,4.572,1.016,2.286,0,0,1.524,0.254,0,0,0
34,"Kapapala Ranch","NWS","HydroNet-UaNet","BI",638.556,19.2754993,-155.4514,"USC00513300","KAYH1","B16097C4",NA,NA,2.794,0.254,0,0,1.27,0,0,0,0.508,9.652,1.778,0.254,0,0.254,1.016,0.508,8.636,0.254,0,0,0,0,0,0,0,0,0.762,0,18.034,1.27,0
36.3,"KAPAPALA RANCH","KAPAPALA RANCH","RAWS","BI",1081,19.25811,-155.441781,NA,"KPRH1","AA10E258",NA,NA,0.600000000000023,0,0,0.5,0.5,0,0,0.199999999999932,0,7.40000000000009,0,0,0,0,0,1.5,14.3,0,0,0,0,0,0,0,0,0,0,0,12,1,0
38.9,"KAELAKOMO","KAELAKOMO","RAWS","BI",29.5656,19.29277778,-155.1075,NA,"KMOH1","32807432",NA,NA,0,0,0,0,0,0,0,0,0,2,0,0,0,0,0,0,NA,0,0,NA,0,0,0,1,NA,0,0,0,NA,2,0
39,"Mauna Loa Observatory","NWS","ESRL/GMD","BI",3397,19.5362,-155.5763,"USC00516198","MOBH1",NA,NA,NA,0,0,0,0,NA,NA,NA,0,1.5,0,6.6,NA,NA,NA,0,0,0,1.8,NA,NA,NA,0,0,0,0,NA,NA,NA,NA,0.8,0
39.1,"Mauna Loa Upper","NWS","STATE","BI",3341,19.53863295,-155.5722206,NA,NA,NA,NA,NA,0,0,0,0,NA,NA,NA,0,1.17438681215395,0,5.16730197347736,NA,NA,NA,0,0,0,1.40926417458474,NA,NA,NA,0,0,0,0,NA,NA,NA,NA,0.626339633148771,0
39.2,"MAUNA LOA 5 NNE","MAUNA LOA 5 NNE","USCRN","BI",3398,19.5354,-155.576,"USW00021514","MLBH1","CD07379A",NA,NA,0,0,0.2,0,0,0.2,0,0.6,0,6.2,0,0,0,0,0,0,1.9,0,0,0,0,0,0,0,0,0,0,0,5.3,0,0
43.3,"PUHE CS","PUHE CS","RAWS","BI",34.126,20.025,-155.8211111,NA,"PHRH1","32D61558",NA,NA,0,0,0,0,0.510000000000005,0,0,0,0,0,0,0,0,0.260000000000005,21.35,0.200000000000003,0,0,0,0,0,0,0,0,0,0,0,0,0,0,0
48,"PALI 2","RAWS","RAWS","BI",847.344,19.3175,-155.2922222,"USR0000HPAL","PLIH1","FA900222",NA,NA,0,0,0,0,0,0,0,0,0,11,0,0,0,0,0,0,10,0,0,1,0,0,0,0,0,0,0,0,20,2,0
49,"KEAUMO","RAWS","RAWS","BI",1682.496,19.47361111,-155.3588889,"USR0000HKMO","HKMO",NA,NA,NA,2,0,0,0,0,5,1,2,0,15,0,0,0,1,1,2,6,0,0,4,0,0,0,0,1,0,0,0,36,2,1
54,"HAWAII VOLCNS NP HQ 54","HAW VOL NATL PARK","COOP","BI",1210,19.429741,-155.257146,"USC00511303",NA,NA,NA,NA,2.93846372129693,0.0986987518965293,0,3.20586239115984,2.53002064530684,5.88068266981539,32.3654702949315,31.57747748225,9.20515176777026,18.4377540767947,0.432894965734909,3.36356625768946,3.48001141637763,0.938189748144174,1.72722815818926,6.21324033213741,9.45956350640084,1.59108706193959,0.304947022884552,27.7930741714909,7.22018067840292,3.21986983459504,3.75331059770384,15.7179523908064,14.7941994186909,7.82642550561901,3.91511280262112,2.9473144884919,38.9706790044719,37.0095598039445,8.51101553337448
54.2,"Glenwood","HELBUSH XL","HydroNet-UaNet","BI",802.2336,19.5076008,-155.1707,"USC00510744","GLNH1",NA,NA,NA,0,0,0,1.778,0.762,4.572,54.102,45.212,11.938,15.494,0,6.858,2.794,1.016,0,15.24,14.224,3.556,0.762,38.862,15.24,6.858,5.08,26.416,15.24,14.732,6.858,0.762,52.578,65.024,10.16
54.8,"Thurston","Thurston","HavoNet","BI",1202,19.41528,-155.23833,NA,NA,NA,NA,NA,0.508,0,0,0.508,1.016,1.016,9.906,14.224,2.54,11.176,0.254,0.508,1.27,0.254,0,0.762,9.652,1.778,0,17.78,2.54,1.524,1.27,11.938,10.922,4.318,2.54,0.508,35.306,30.48,6.604
54.9,"Ola a","Ola a","HavoNet","BI",1040,19.47833,-155.215,NA,NA,NA,NA,NA,3.54195631082988,0.118969196256284,0,3.86427249236518,3.04962845932952,7.088439085832,39.0125904680263,38.0627621289736,11.0956773635478,22.2244429755998,0.521801594723963,4.05436509117744,4.19472539635729,1.13087225651658,2.08196093448497,7.48929641214142,11.4023393980867,1.91785960101266,0.367576099152247,33.5011297725421,8.70303905195534,3.8811567412039,4.52415391814818,18.9460568325031,17.8325863324188,9.43379256648853,4.71918655940877,3.55262482121328,46.9743565104464,44.6104687148428,10.2589815765027
55.3,"VOLCANO 4.4 S","VOLCANO 4.4 S","CoCoRaHS","BI",1158,19.4338,-155.2417,"US1HIHI0040",NA,NA,NA,NA,NA,NA,0,0.3,0,0.8,NA,NA,NA,15.5,0,0.3,0,0,0.3,NA,NA,1.5,NA,NA,NA,NA,NA,NA,NA,NA,NA,NA,NA,NA,NA
55.4,"GLENWOOD NO 2 55.4","COOP","COOP","BI",671,19.52194,-155.14389,"USC00510746",NA,NA,NA,NA,1.09513815537354,1.37808665436226,0.467667992794243,7.58581123601042,0.345456699168235,10.3529986377439,69.6398482421594,89.515531329571,21.4547946643411,17.8750910616607,3.63596104901918,14.8726815026343,9.75702298174605,3.20739142770012,0.293694859865361,9.08225622547717,18.6797642540548,3.83671571080136,2.39308490876485,57.5631155951746,25.8155668212266,18.302184360804,7.81376372070776,24.2780354185971,16.4676225174154,19.1088744338456,8.26050132318733,4.84446024324169,43.111851189596,80.4656429034834,13.3429973866603
63,"KALOKO-HONOKOHAU","RAWS","RAWS","BI",7.62,19.67277778,-156.0202778,NA,"KHOH1","FA667668",NA,NA,0,0,22.7,16.7,0,0.300000000000011,0,0,6.80000000000001,0.299999999999983,0,0,0,0,0,0,0,0,0,0,0,0,0,0,0,0,0,0,0,0.700000000000017,0
65.4,"PAHOA 2.1 E","PAHOA 2.1 E","CoCoRaHS","BI",137,19.5043,-154.9165,"US1HIHI0003",NA,NA,NA,NA,1.48340470297414,0.492139644992558,3,6.1,0.5,0.3,6.1,13.7,10.2,8.1,41.9,1.5,15.7,2.5,4.3,0.5,46.2,23.6,1.8,17.5,7.9,2,3.6,5.3,7.4,10.7,6.9,1,11.4,14,1.3
65.6,"KURTISTOWN 6.6 SSE, HI US","CoCoRaHs","CoCoRaHs","BI",339.63,19.5021,-155.029,"US1HIHI0055",NA,NA,NA,NA,6.1,1.3,2.3,1,0,0,29,65,29.2,6.4,21.3,3.3,7.9,5.1,2.8,0.3,15.7,8.4,4.3,19.3,20.3,8.9,8.9,8.1,14,8.1,11.4,2.3,40.6,77.2,3.8
66.6,"PAHOA 3.3 SEE","COOP","COOP","BI",254.2,19.459069,-154.921985,"US1HIHI0052",NA,NA,NA,NA,NA,0.5,3,NA,NA,NA,NA,NA,NA,NA,NA,NA,NA,NA,NA,NA,NA,NA,NA,NA,NA,NA,NA,NA,NA,NA,NA,NA,NA,NA,NA
67.14,"PAHOA 3.0 SSE, HI US","CoCoRaHs","CoCoRaHs","BI",284.69,19.4573,-154.9338,"US1HIHI0056",NA,NA,NA,NA,5.8,0.5,3.6,NA,NA,NA,NA,NA,NA,NA,NA,1.3,14.7,3,NA,NA,NA,NA,NA,NA,NA,NA,NA,NA,NA,NA,NA,NA,NA,NA,1
67.7,"PAHOA 2.7 SSE","PAHOA 2.7 SSE","CoCoRaHS","BI",259,19.4654,-154.927,"US1HIHI0051",NA,NA,NA,NA,4.1,0.3,2.5,5.3,0.286458999071804,0.115641652626763,18.7513303101637,48.0032710459178,22.5468480072206,7.55539735668584,25.8260059494044,2.02782729271698,11.2433067184234,3.66693513735964,2.73982554939515,0.375641223870032,25.9750062930886,14.0622823001498,0.8,18.3564553105072,17.9523296726486,7.13435917049364,5.15811410352831,5.73180238788558,9.32616306893726,11.2186179146,8.42299630721503,4.1,18.7755423694036,40.561389084649,0.5
68.21,"KAILUA KONA KE AHOLE AIRPORT","KAILUA KONA KE AHOLE AIRPORT","NWS","BI",27,19.73556,-156.04889,"USW00021510","HKO",NA,NA,NA,0,0,0.3,0,0,0,0,0,0.8,0,0,0,0,0,0,0,0,0,0,0,0,0,0,0,0,0,0,0,0,0,0
68.22,"HOLUALOA 4.0 NW","HOLUALOA 4.0 NW","CoCoRaHS","BI",416,19.6799,-155.9699,"US1HIHI0049",NA,NA,NA,NA,0,0,0,19.3,NA,NA,NA,0.3,0,2.3,0,NA,NA,0.3,0.5,0.3,NA,0.3,NA,NA,NA,0,0.8,0,2.5,NA,NA,NA,NA,0,2
69.25,"Palamanui","Hilo Forest Service","HIPPNET","BI",297,19.73756,-155.99582,NA,NA,NA,NA,NA,0,0,5.08,0.254,0,0.508,0,0,0,6.858,0,0,0,0,0,0,0,0,0,0.508,0.254,0,9.398,0,0,0,0,0,0,0,1.778
69.26,"KALAOA 2.2 ESE","KALAOA 2.2 ESE","CoCoRaHS","BI",398,19.7189,-155.9859,"US1HIHI0038",NA,NA,NA,NA,NA,0,NA,17.8,NA,NA,9.4,NA,NA,NA,NA,NA,NA,NA,NA,NA,NA,NA,NA,NA,0.8,NA,NA,NA,NA,NA,NA,NA,NA,NA,6.4
69.27,"KALAOA 1.7","KALAOA 1.7","CoCoRaHS","BI",304.5,19.7238,-155.9926,"US1HIHI0006","","",NA,NA,0.3,0,0,13.7,0,0.8,1.3,0,0,16.3,0,0,0,0,0.5,0,0,0,0,0,0.5,0,0,0,0,0,0,0,0,0,0
70.16,"Waiaha Stream","NWS","HydroNet-UaNet","BI",460.5528,19.6331997,-155.9486,NA,"WIHH1","9321011E",NA,NA,0,0,2.54,4.318,14.986,2.794,0.508,0.254,0,3.81,0.254,0.254,0,0,0,0,0.254,0.254,0,0,0,4.572,1.778,2.032,0,0.254,0.254,0.254,0,6.604,2.794
70.7,"Puuwaawaa","Hilo Forest Service","HIPPNET","BI",1659,19.72544,-155.87389,NA,NA,NA,NA,NA,0,0,3.048,0,4.064,3.048,3.81,0.762,1.016,0.508,1.27,0.254,0,0,0.762,0,1.27,0,0,1.778,0,0,0,0,0,0,2.286,0,0,0,9.398
73.29,"Kainaliu Upper","NWS","HydroNet-UaNet","BI",713.232,19.5310993,-155.9066,NA,"KNUH1",NA,NA,NA,0.52724994018216,0,0.303231178992723,1.5506551692826,3.75248584003494,1.81938707395634,0,0,0.454846768489084,3.03341256535811,11.6870327790792,0,0,0,0.341135076366813,1.01769686236992,0.0758077947481807,0.113711692122271,0,0,0,2.73223538043769,1.01881532419799,1.26419709609027,0,0.52724994018216,1.36454030546725,0.227423384244542,0,0,0
73.34,"Kainaliu","SCAN","SCAN","BI",416,19.53333333,-155.9333333,NA,NA,NA,2096,NA,20.32,0,0,6.858,3.81,6.858,1.016,0,0,0,6.604,0,0,0,0,3.556,0,0,0,0,0,0,1.524,2.794,0.762,0,0.254,0.508,0,0,0.762
74.8,"KEALAKEKUA 4 74.8","COOP","COOP","BI",433,19.5106,-155.9217,"USC00513987",NA,NA,NA,NA,0.61853401660871,0,0.355730337377686,1.8191239052584,4.40216292504886,2.13438202426611,0,0,0.533595506066528,3.55859472916025,13.7104374532201,0,0,0,0.400196629549896,1.19389321837433,0.0889325843444214,0.133398876516632,0,0,0,3.2052739988907,1.19520532224427,1.48307064266262,0,0.61853401660871,1.60078651819959,0.266797753033264,0,0,0
75.1,"PTA KIPUKA ALALA","RAWS","RAWS","BI",1641.348,19.66694444,-155.7077778,"USR0000HPTK","PKAH1","32666200",NA,NA,0,0,7.20000000000002,0,0,0,0,0,0,0.5,1.19999999999999,0.300000000000011,0,0,0.199999999999989,0,0,0,0,0,0,0,0,0,0,0,0,0.300000000000011,0,0,0
79,"KULANI CAMP 79","DEPT SOCIAL SVC","COOP","BI",1576,19.54863532,-155.3005575,"USC00515011",NA,NA,NA,NA,3.70603795441446,0.528549937478922,1.83845014409067,4.72462331203227,2.14722982806211,9.22369446915853,45.8796683547198,49.7563543058021,17.7469295916187,18.71303753552,1.92194262466282,5.80092603470352,6.23798674851573,1.76280629864944,1.99192870487478,3.5487030343361,12.3324112151176,0.487269239600155,0.720644236400629,38.9589562017479,10.5205479497426,11.4663792589442,5.16033351966437,10.6131243854084,11.3128929295382,5.91107706040009,3.66680086835106,5.61831919646746,22.0777988952626,33.7559112155543,8.25618817804689
79.6,"Kulani NWR","NWS","HydroNet-UaNet","BI",1623.3648,19.5543995,-155.3089,NA,"KNWH1",NA,NA,NA,2.54,0,0,0,0.508,2.54,19.304,18.288,1.778,20.066,0.254,2.54,2.54,2.032,2.032,1.27,8.89,0,0,28.448,2.794,0,1.27,4.318,3.302,1.778,0.254,0.254,46.228,16.764,5.08
83,"QuarryRainGageatSaddleRd","USGS","USGS","BI",1286.256,19.68586111,-155.2942222,NA,"SDQH1","DDF6B6E4",NA,NA,14.224,0.508,0,13.716,10.414,23.622,91.694,89.408,30.226,58.674,1.778,9.144,12.7,3.302,8.89,14.478,16.51,1.27,0.762,70.358,16.51,6.604,11.684,31.75,40.64,17.018,8.382,13.462,82.296,67.564,21.336
85.2,"Waiakea Uka","NWS","HydroNet-UaNet","BI",303.8856,19.6585999,-155.1277,"USC00519084","WKAH1",NA,NA,NA,1.27,2.032,0,9.652,0,16.002,89.662,62.738,5.588,10.414,0,13.208,3.048,1.016,1.778,2.032,13.208,3.556,1.778,42.418,14.224,8.128,2.54,16.002,10.922,17.018,2.286,3.048,32.766,59.182,7.366
87,"HILO INTERNATIONAL AIRPORT 87","NWS","HydroNet-UaNet","BI",11.6,19.7191,-155.053,"USW00021504","HTO",NA,NA,NA,2.54,0.508,0,2.286,0,0.508,52.578,47.498,2.032,11.938,0,1.27,3.81,6.858,0,10.414,21.082,1.27,4.826,35.052,0.508,1.524,2.032,16.002,6.096,14.224,3.048,2.032,33.274,5.588,3.048
87.5,"HILO 5 S","HILO 5 S","USCRN","BI",189,19.645,-155.0827,"USW00021515",NA,NA,NA,NA,0.5,6.9,0,4.6,0,15.6,84.3,48.9,3.7,7.3,0.4,8.1,5.3,1.3,0,2.8,13.1,2.5,2.5,35.3,9.1,5.8,4,12.7,6.6,12.9,2.5,1.3,37.7,33.7,7.6
87.8,"HILO 0.4 SW","HILO 0.4 SW","CoCoRaHS","BI",107,19.692,-155.0925,"US1HIHI0039",NA,NA,NA,NA,0.5,0.5,1.8,4.8,0.3,0,24.9,74.9,31.8,8.1,10.7,1.5,9.1,3.8,0.8,0.3,11.2,7.9,3.3,18.8,28.4,11.9,3.6,4.1,7.4,15,7.6,1,7.4,39.1,7.6
87.9,"IPIF","Hilo Forest Service","HIPPNET","BI",111,19.69748,-155.0954,NA,NA,NA,NA,NA,0,1.778,0,6.35,0,1.778,70.866,55.118,2.54,18.034,0,11.43,4.572,0.762,0.254,1.778,16.764,2.032,11.43,34.798,9.652,3.81,2.54,8.382,8.636,11.684,3.81,0.254,32.766,19.558,6.858
88.1,"KAUMANA 88.1","HILO SUGAR","COOP","BI",343,19.68362898,-155.1405634,"USC00513510",NA,NA,NA,NA,1.66324658435017,1.91040736903962,0.408516703521277,10.0442016103026,0,17.1256820685028,97.8057434136983,96.3266609175034,17.7822006604792,19.7244137383445,2.81876525429681,16.7530761336791,7.97685435776966,3.10598868259978,0.889904636975041,2.48711526416368,16.5727403328898,2.29652745794495,6.26392041748233,55.502385460751,24.6412858362758,17.6289417502565,9.28899478611647,17.3413516946465,13.1781083273294,17.2174828306302,5.44200003336105,4.04773390497313,33.5607787575907,60.3190542348413,12.2249014808104
88.2,"WAIAKEA SCD 88.2","SHINICHI KANESHIRO","COOP","BI",287,19.65529741,-155.1205634,"USC00519025",NA,NA,NA,NA,1.66777487693763,1.91560857228252,0.40962891573191,10.0715475757938,0,17.1723078063194,98.0720256517495,96.5889162611861,17.8306138111192,19.778114685254,2.82643951855018,16.798687428593,7.99857184139441,3.11444493055513,0.892327457865872,2.49388659062895,16.6178606523358,2.30277989721798,6.28097433159335,55.653494167682,24.7083732742107,17.6769376439523,9.31428465391523,17.3885646064747,13.2139865493663,17.2643585017486,5.45681621795082,4.05875411304713,33.6521500714461,60.4832766229975,12.2581845377419
89.11,"Piihonua","NWS","HydroNet-UaNet","BI",296.8752,19.7098007,-155.1395,"USC00518053","PIIH1",NA,NA,NA,1.524,1.524,0,8.89,0,21.336,78.232,77.724,8.128,22.098,0,13.97,2.032,1.524,0,1.27,12.7,0.762,9.652,44.45,17.526,9.398,9.652,14.224,10.414,13.716,2.032,0.254,36.068,34.036,9.906
89.13,"KAIWIKI HOMESTEAD 89.11, HI US","COOP","COOP","BI",379.67,19.7509,-155.1362,"USC00512802",NA,NA,NA,NA,0.8,1.3,27.9,0,0,1,52.6,86.4,50.5,16.5,15.2,0,20.8,5.1,0.3,1.3,25.4,2,1.8,30,57.9,22.1,9.1,11.7,14.2,13.2,20.8,2.8,17.8,51.8,17.3
89.14,"HILO 1.8 WNW","COOP","COOP","BI",151.5,19.70799,-155.11258,"US1HIHI0066",NA,NA,NA,NA,0.8,1,1.5,8.1,0.3,0,25.4,NA,NA,NA,NA,5.8,15.2,7.1,0.3,0,14,9.9,1,20.8,32,13.2,12.2,6.1,9.7,6.1,18,1.3,6.1,40.6,18
89.2,"AMAUULU 89.2","HILO SUGAR","COOP","BI",390,19.73529295,-155.1455638,"USC00510150",NA,NA,NA,NA,3.73781842385295,0.74756368477059,0,3.36403658146766,0,0.74756368477059,77.3728413737561,69.8972045260502,2.99025473908236,17.5677465921089,0,1.86890921192648,5.60672763577943,10.092109744403,0,15.3250555377971,31.0238929179795,1.86890921192648,7.10185500532061,51.5818942491707,0.74756368477059,2.24269105431177,2.99025473908236,23.5482560702736,8.97076421724708,20.9317831735765,4.48538210862354,2.99025473908236,48.9654213524737,8.22320053247649,4.48538210862354
91,"MOUNTAIN VIEW 91","PU SUGAR","COOP","BI",463,19.5487,-155.1101,"USC00516552",NA,NA,NA,NA,0.936415058657352,1.1818490153807,0,6.71057330997085,0,13.8883799765793,37.1,60.4650226078231,8.14068717034451,15.5801924522465,0.8,11.11518041922,3.8,1.15488115924531,0.3,5.59811723046373,12.8527263237987,2.46000866500327,4.13782423639306,40.5293900900996,15.150217488634,7.896878648709,5.6594372259733,17.8833383298517,11.6256641769468,14.5816071265756,3.46631907059088,1.29483696886827,38.5738335821449,50.0574645185526,8.80313246005295
91.11,"PUNA MACADAMIA O 91.11","COOP","COOP","BI",244,19.61861,-155.08667,"USC00518315",NA,NA,NA,NA,2.3,3.8,3,25.4,0,4.73510986315603,50.1747543938596,56.3391150538847,23.0628045625373,6.9,8.6,10.7624892423627,5.60955761446066,1.99534518417063,0,0,22.1,11.2,2.12278952074601,25.1007670331718,15.2422304601759,17.3,7.1,5.1,8.4,10.1325573918744,6.1070479255116,4.15464469161956,15.033282432631,33.5,30.5
91.12,"HAWAIIAN BEACHES 91.12","COOP","COOP","BI",88,19.533,-154.917,"USC00511300",NA,NA,NA,NA,3.02163244733202,0.838879550514618,2.01207132371607,2.68306383415311,0,0.857959575712252,50.4682863239977,41.9601652391213,7.80612745631447,22.4027476873366,2.2259601700922,4.65772410499596,6.36598846609762,4.74830767225684,0.108560841941419,5.61258446102552,24.6839244099844,0.857688555999997,3.44094573967119,32.7811980808566,9.71105835616662,7.25712874965248,3.5948143727402,13.406794084649,7.18884738326195,12.6028771895181,4.47128068096837,4.61544039312641,41.0442018252906,15.3635173117821,4.01927224761678
91.14,"KURTISTOWN 91.14","COOP","COOP","BI",223,19.59,-155.083,"USC00515102",NA,NA,NA,NA,2.50782347626766,0.951686065174623,3.07447763458414,14.8755090979603,0,18.8600159085294,61.507400717364,75.0951039884431,20.2280906189728,16.7719910516523,6.7186446348583,9.18619487742811,8.66568165594117,7.5589873025599,0.26577791739352,5.92277398331621,25.0131372710392,6.34679719413078,3.33363179251899,33.8438664192111,33.072891594761,17.6271662032638,5.57274521263485,14.4535778540387,10.2921475709474,20.9781229171331,10.6936985372752,5.7255709831541,24.457525195545,35.8263182638606,7.90778532395253
91.15,"Mountain View","Mountain View","HydroNet-UaNet","BI",346.5576,19.5674992,-155.0841,NA,"MTVH1",NA,NA,NA,6.096,6.35,0.762,7.874,0,11.176,64.262,55.372,12.954,26.162,0.508,8.382,3.048,1.27,0.254,5.588,26.162,5.08,10.922,43.942,16.51,7.62,2.54,12.192,11.684,11.43,4.826,9.398,53.34,35.306,8.128
91.16,"MOUNTAIN VIEW 4.5 NNE, HI US","CoCoRaHs","CoCoRaHs","BI",482.19,19.5808,-155.1216,"US1HIHI0060",NA,NA,NA,NA,4.8,3.3,3.6,7.4,1.3,0,33,82.6,40.6,8.9,17.3,2,18.3,4.8,0.5,1.8,9.4,5.3,3.8,13.7,29.2,26.7,7.1,5.8,17.5,11.4,17,1.8,26.7,48.5,31.5
91.17,"PAHOA BEACON 91.9, HI US","COOP","COOP","BI",148.5,19.5407,-154.9728,"USC00517460",NA,NA,NA,NA,NA,NA,NA,NA,0,NA,NA,NA,NA,NA,NA,NA,NA,1.5,0,NA,23.1,NA,NA,NA,NA,NA,NA,NA,NA,NA,NA,NA,NA,NA,NA
91.8,"S GLEWNWOOD 91.8","COOP","COOP","BI",694,19.488,-155.149,"USC00518638",NA,NA,NA,NA,1.22773373916851,1.54952218823396,0,8.79823234968889,0.295270282886605,18.2090543311928,75.04190034077,79.2756882846915,10.6732545644648,20.4271895881172,0.349626654069077,14.5731125225476,4.03053810700746,1.51416463332884,0.881949709761947,7.33969123640059,16.8512088759574,3.22531724447263,5.42510116086018,53.1380814324825,19.8634494336373,10.3535972232663,7.42008787961639,23.4468440394425,15.2424077531874,19.1179444148043,4.54469076969947,1.69766068871385,50.5741513872855,65.6303393655118,11.541786552507
91.9,"Pahoa Beacon","NWS","HydroNet-UaNet","BI",187.1472,19.5149994,-154.9644,NA,"PHAH1",NA,NA,NA,4.064,1.016,0.254,2.032,0,1.27,47.498,27.94,2.794,37.084,1.016,3.302,3.556,3.048,0,5.588,27.432,1.50202493768796,3.048,26.924,7.366,3.048,5.588,15.24,7.366,14.732,3.048,6.096,68.58,6.35,3.556
92,"KEAAU 92","PU SUGAR","COOP","BI",87,19.62918887,-155.0333418,"USC00513872",NA,NA,NA,NA,1.8,0.8,5.3,13.7613087422227,0.0908731076972837,12.3518649846516,40.2826335302376,42.7,16.8,12.7,8.15311278473802,6.01625361288137,8.4299764879667,4.95055736086046,0.3,0,20.3,3.90428690392086,2.18327333388487,22.1651387038133,21.660209281465,15.5,2.3,6.4,7.49686617619217,13.7390627431373,7.00355297469569,4.6,11.9,30.7,4.6
92.5,"KiholoRainGage","USGS","USGS","BI",283.96692,19.82580556,-155.8925833,NA,"KIRH1","DD60236E",NA,NA,0,0,3.048,0,0,0,0,0,0,0,1.524,0,0,0,0,0,0,0,0,3.81,0,0,0,0,0,0,0,0,0,0,3.048
93.11,"KAPOHO BEACH 93.11","ARRUDA GENVIEVE","COOP","BI",4,19.48892483,-154.8200037,"USC00513368",NA,NA,NA,NA,0.238566039169054,0.238566039169054,1.31249550447711,2.94070614375618,0.218749250746185,0.0883076633972814,7.73588353105417,21.901312962238,10.5888606010835,4.31669182899594,14.8862936069292,0.799387375739988,6.79238534089612,1.64244814381975,1.45659600669628,0.218749250746185,16.2713198018747,8.83154123002166,1.31711390964157,9.63632190121963,9.10071064852954,3.42765362209362,1.91852970177597,2.53822281394509,3.94364438698394,6.72813058203885,3.84417815582228,0.532924917159992,5.12107989894769,13.4489564233831,2.19576843907303
93.12,"PUUANAHULU","RAWS","RAWS","BI",830.58,19.83277778,-155.7697222,NA,"PULH1","48703040",NA,NA,0,0,0,5,2.80000000000001,2.30000000000001,0,0,0,0,0,NA,0,0,2,0,0,0,0,0,0,0,0,0,0,0,0,0,0,0,0
93.13,"Mamalahoa","Hilo Forest Service","HIPPNET","BI",636,19.80256,-155.85062,NA,NA,NA,NA,NA,0.254,0,0,0,4.318,1.74725066526108,0,0,0.254,0,0,0,0,0.508,0,0,0,0.254,0,2.794,0,0,0,0,0,0,0,0,0,0,0.508
93.5,"KAPOHO LANDING 93.5","BWS","COOP","BI",88,19.50364409,-154.8605597,"USC00513369",NA,NA,NA,NA,NA,NA,NA,48.8,NA,NA,NA,NA,NA,NA,32.8,NA,NA,NA,NA,NA,NA,30.5,NA,NA,NA,NA,NA,NA,38.9,NA,NA,NA,NA,NA,NA
93.61,"PAHOA 4.7 NE, HI US","CoCoRaHs","CoCoRaHs","BI",53.95,19.5473,-154.8988,"US1HIHI0065",NA,NA,NA,NA,4.6,1,1,27.9,0,0,4.8,5.1,2.5,8.4,11.4,1,12.4,0.8,2,0.5,14.2,12.2,0.5,15.7,5.1,1.5,4.1,3.6,5.8,22.6,4.8,0,8.6,0,0.3
94,"KAUPULEHU LAVA FLOW","RAWS","RAWS","BI",372.1608,19.80333333,-155.9180556,NA,"KPLH1","4870E628",NA,NA,0,0,1.79999999999998,0,0,0.300000000000011,0,0,0,0,0,0,0,0,0,0,0,0,0,0.699999999999989,0,0,0,0,0,0,0,0,0,0,0
94.5,"PUU WAAWAA","RAWS","RAWS","BI",708.9648,19.795,-155.8452778,"USR0000HPUW","PWWH1","487046D0",NA,NA,0,0,0,0,5.30000000000001,1.60000000000002,0,0,1.19999999999999,0,0,0,0,1.59999999999997,0,0,0.5,0.200000000000045,0,3.79999999999995,0,0,0,0,0,0,0,0,0,0,0
95.11,"WAIKOLOA VILLAGE 2.7 ENE","WAIKOLOA VILLAGE 2.7 ENE","CoCoRaHS","BI",265,19.9465,-155.7883,"US1HIHI0047",NA,NA,NA,NA,0.8,0,0,0,0,0.8,2,0,0,0,0,0,0,0,0.3,5.6,0,0,0,0,0,0,0,0,0,0,0,0.5,0,0,0
95.6,"WAIKOLOA","RAWS","RAWS","BI",297.7896,19.92416667,-155.7936111,NA,"WKVH1","4870C0C4",NA,NA,0,0,0,0,0,2.29999999999995,0,0,0,0,0,0,0,0,1.30000000000001,0,0,0,0,0,0,0,0,0,0,0,0,0,0,0,0
95.8,"WAIKOLOA 95.8","BOISE CASCADE","COOP","BI",268,19.93389178,-155.7877744,"USC00519142",NA,NA,NA,NA,0,0,0,0,0,0.577700700180995,1.44425175045249,0,0,0,0,0,0,0,0,0.8,0,0,0,0,0,0,0,0,0,0,0,0.361062937613122,0,0,0
95.9,"WAIKOLOA BEACH RT 95.9","COOP","COOP","BI",24,19.91278,-155.87778,"USC00519144",NA,NA,NA,NA,0,0,0,0,0,0,0,0,0,0,0,0,0,0,0,0,0,0,0,0,0,0,0,0,0,0,0,0,0,0,0
98.1,"PUUKOHOLA HEIAU 98.1","ROSE FUJIMORI","COOP","BI",43,20.02666416,-155.81944,"USC00518422",NA,NA,NA,NA,0,0,0,0,1.8,0,0,0,0,0,0,0,0,0,0.8,31.8,0,0,0,0,0,0,0,0,0,0,0,0,0,0,0
98.2,"PUHO CS","PUHO CS","RAWS","BI",29.5656,19.42194444,-155.9075,NA,"PERH1","32D6803A",NA,NA,0,0,0,0,1.5,0,0,0,0,0,0,0,0,0,0,0,0,0,0,0,0,0,0,0,0,0,0,0,0,0,0
98.91,"HOLUALOA 0.95","COOP","COOP","BI",527.3,19.6225861,-155.927558,"US1HIHI0067",NA,NA,NA,NA,1.5,0.3,0,1,0,2.3,3.3,5.1,NA,2,0.5,0,0,NA,0,4.8,0.3,1.8,0.3,0,0,0,4.6,1.8,0,0,NA,0.3,0,NA,0
99,"PTA WEST","RAWS","RAWS","BI",1307.592,19.77166667,-155.7022222,"USR0000HPTW","PKWH1","32667176",NA,NA,0,0,0,0,0,1,0,0,0,0,1.30000000000001,0.199999999999989,0,0,0,0,0,0,0,0,0,0,0,0,0,0,0,0,0.300000000000011,0,0
100,"Waikii","PARKER RANCH","STATE","BI",1417,19.82,-155.6508,NA,NA,NA,NA,NA,0,0,0,0,0,0,0,0,0,0,0,0,0,0,0,0,0,0,0,0,0,0,0,0,0,0,0,0,0,0,0
101.1,"PTA KEAMUKU","RAWS","RAWS","BI",1025.9568,19.90222222,-155.6786111,NA,"PKMH1","328FB7BE",NA,NA,0,0,0,0.299999999999983,0.200000000000017,0,0,0,0,0,0,0.299999999999983,0,0,0,0,0,0,0,0.200000000000017,0,0,0,0,0,0,0,0,0,0,0
102.8,"AUHMOA","RAWS","RAWS","BI",2001.9264,19.83638889,-155.6130556,NA,"AHMH1","4870D3B2",NA,NA,0,0,0,1,0.300000000000011,1.30000000000001,0,0,1.19999999999999,1,1.10000000000002,0,0,0,1.19999999999999,0,3.09999999999997,0.200000000000045,0,1.59999999999997,0.199999999999989,0,0,0.300000000000011,0,0,1.19999999999999,0.300000000000011,0.199999999999989,0,6.40000000000003
103.3,"Mana House","Mana House","SCAN","BI",1288,19.96,-155.54,NA,NA,NA,2097,NA,3.302,0,10.16,0,6.604,0,59.182,154.686,62.484,2.286,13.208,3.048,4.826,0,0.254,8.89,0,0,0,19.304,40.132,14.224,11.176,3.81,3.302,4.572,2.794,14.224,0.254,0,6.858
104.1,"Silversword","Silversword","SCAN","BI",2835,19.77,-155.42,NA,NA,NA,2101,NA,15.748,0,1.524,0,3.81,0,0,2.032,5.588,0,18.288,0.254,0,0,0,0,0.254,1.778,0,0,10.668,0,0,0,0,0,0,0,0,13.97,0.508
107.4,"PTA EAST","RAWS","RAWS","BI",1959.864,19.68277778,-155.5452778,"USR0000HPTA","PTAH1","3266D18E",NA,NA,0,0,0,0.799999999999955,0,0,0,0,0,0,0,0,0,0,2,0,0,0,0,0.5,0,0,0,0,0,0,0,0,2.30000000000001,0.300000000000011,0
109,"PTA RANGE 17","RAWS","RAWS","BI",1734.312,19.74583333,-155.6261111,NA,NA,"3279630C",NA,NA,0,0,0,0,0,0,0,0,0,0.5,1,0,0,0,0,0,0.199999999999989,0,0,0,0,0,0,0,0,0,0,0,0,0,0
113.2,"PUU MALI","RAWS","RAWS","BI",2165,19.92666,-155.44,NA,"PMLH1","3181742E",NA,NA,0,0,0,18.1,0.699999999999932,3.60000000000002,0.5,0,2.29999999999995,16.7,0,0.799999999999955,0,0,0,0,1,0,0,1.30000000000007,0,0,0,0,0,0,0,0,0,0,0
125.12,"Pua Akala","SCAN","SCAN","BI",1949,19.8,-155.3333333,NA,NA,NA,2098,NA,5.842,0,0,0,4.318,0,6.35,23.114,22.352,2.54,25.4,0,0.762,0.508,0,4.572,1.524,3.048,0.254,0,29.464,2.286,0.254,0.254,3.556,2.286,1.016,0,1.524,36.322,10.668
127.5,"Laupahoehoe","Hilo Forest Service","HIPPNET","BI",1145,19.93217,-155.29129,NA,NA,NA,NA,NA,2.032,3.048,0,5.08,0,48.514,93.472,38.354,4.826,13.208,0,8.382,1.016,0.254,0.508,0,0,0,1.778,46.228,12.192,8.382,7.366,16.764,9.906,8.382,1.016,1.27,21.082,17.272,5.334
128.1,"Hakalau","Hilo Forest Service","HIPPNET","BI",1665,19.83873,-155.30797,NA,NA,NA,NA,NA,3.19134790493683,0.63761848986378,0,4.04031515879472,1.78554078504048,16.2824863342406,44.5560334850583,30.3533893711045,6.8251739714314,20.1565374516636,0.304848426714229,4.23836258701554,2.74654294034283,0.612023656464734,3.15818675002816,2.86788505393239,3.21628325589151,0.217748876224449,0.451785373702836,33.1359045341379,6.18945474333485,2.64622123964564,3.71925829639243,9.24267180211557,9.52824632209521,4.81730988965979,1.62064889620603,2.53752097938499,28.7132233959439,17.7882304580494,6.93487645431726
129,"HAKALAU","RAWS","RAWS","BI",1950.72,19.82111111,-155.3305556,"USR0000HHAK","HKUH1","8374D370",NA,NA,1,0,0,2,0,9,31,21,2,20,0,3,1,0,4,1,1,0,0,33,3,0,1,2,2,1,0,0,28,8,6
132.2,"Spencer","Hilo Forest Service","HIPPNET","BI",454,19.96358,-155.25014,NA,NA,NA,NA,NA,4.318,9.906,0,9.906,0,94.742,165.862,121.666,9.398,11.684,0,11.176,2.794,1.016,0.254,0,0,0,21.844,92.202,43.942,31.242,6.35,21.082,40.386,23.622,7.366,0,15.24,45.466,16.002
132.3,"POHAKUPUKA","COOP","COOP","BI",82,19.9522,-155.185,"USC00518067",NA,NA,NA,NA,0.498314273194236,0.672328861623548,0.966940031872591,7.74875750205093,1.06324007293735,12.6613100094005,49.8067402667365,105.187193515517,35.7599138815757,6.83169466710548,2.18125951368713,6.55356401362974,7.80099319503234,2.8905263185661,0.226348906381521,1.08268986453192,4.5310946262964,0.404589121458565,1.63756293855879,14.1428496962016,26.6706555305521,12.6123135859884,7.63920769490069,4.82056996839793,9.59210126349354,12.6386489387972,9.35929145523845,5.34523969937817,2.88004457655356,28.3170881717651,11.2880885527355
132.4,"KAPEHU MAUKA 132.4","COOP","COOP","BI",335,19.95,-155.217,"USC00513329",NA,NA,NA,NA,0.778312282730882,1.05010399899204,1.51025435945577,13.4820407777302,1.66066446974169,19.6414327478042,136.236578352793,286.000195316322,55.8530664293861,10.6703583607823,5.02677832659381,10.2359487613612,12.184296432599,4.51468532674351,1.67029397183407,1.52125430232677,7.07707322781773,0.631923867385904,1.08208905629184,33.5582783513703,66.4361365861312,34.9748534201972,11.9316052120304,7.52920198756837,19.4999419936476,14.9556477935561,9.74422020727492,8.34867860697448,4.49831399445057,44.2281883558801,23.3177905076019
132.5,"KIHALANI 132.5","COOP","COOP","BI",302,19.97278,-155.23944,"USC00514459",NA,NA,NA,NA,1.57401971512671,3.5006126495392,0.869529831895891,12.1290551038782,1.29791448265889,43.1113467511063,92.4590227900911,139.101917819813,37.603519655438,8.00163098836445,1.78402131016902,7.82275975559566,5.99718709471286,2.3368948623826,1.28728277878477,0.411882551950685,1.73905966379178,0.183058911978082,6.52648312446001,40.8663130939441,57.0197401274216,29.1424429272819,8.37403367651188,9.19531255338965,24.4135438656232,15.999125263985,7.12023300644984,4.53571162529856,5.96970884333045,33.5548634473712,19.5670278899837
133.1,"LAUPAHOEHOE 133.1","BARNARD EW","COOP","BI",140,19.98027372,-155.2305601,"USC00515427",NA,NA,NA,NA,0.722986197861641,0.623358822703974,2.12442807486478,7.23548678690174,0.891238650467582,10.5410842071702,78.8632443428377,122.860605550633,28.7547825714421,6.7824615029066,2.69775093862882,5.49338733172864,6.53901863220789,2.42292295114772,0.918829052971465,0.282827300763039,7.04419156702658,0.339138329884828,0.580731151769201,18.0099202788044,35.6546754580193,18.1357834672396,5.12393733019559,3.87877581553224,10.4651495249476,8.02633620412843,5.22948845213838,4.44015907900032,4.43477963990818,22.6584618804902,11.5132532623714
133.3,"Laupahoehoe","NWS","HydroNet-UaNet","BI",499.872,19.9792,-155.2372,NA,"LPHH1","B159741A",NA,NA,1.42359352607151,2.63726861665836,0,11.43,0,26.0256743037913,67.6800572372956,53.5883660668698,4.77297190494618,9.35977979447701,0,8.01981557963732,1.62299412387753,0.74754384014653,0,0.254,0,0,6.66535985480744,36.2838209833172,15.2135203208429,9.71128207777879,3.90248557618193,10.5308705712754,12.2501245182843,10.668,2.32572836785085,0.695772542634837,17.8580878521393,28.636555719961,10.922
137.4,"WAILEA 137.4","WAILEA 137.4","COOP","BI",61,19.8875,-155.12528,"USC00519432",NA,NA,NA,NA,0.746265029526924,1.05266573640099,6.91740408095755,3.32639527622892,0.109126277064812,0.3,25.9,10.2,29.4443052205908,10.6432264955931,0.5,6.74702979634604,13.0079668177532,4.42417890469168,0.325818054573968,1.40388805423066,10.54827021138,0.886238722917015,3.3,9.1,15.7,2.5,7.6424214330129,7.15799102826065,3,10.7,10.9,5.57782793104169,6.65564705452129,33.8580573444025,2.3
138.2,"KAHUNA FALLS 138.2","COOP","COOP","BI",424,19.86139,-155.16361,"USC00512595",NA,NA,NA,NA,1.3,2.5,3.8,9.4,0.5,66,55.1729195747651,69.3969945504657,48.3,16.5,1.5,15.7,20.8,8.9,0.8,1.8,7.6,0.8,0.3,6.4,83.8,31,14,8.9,34.5,39.4,21.6,14.2,4.6,42.7,41.9
138.3,"HONOMU 2.8 SW","HONOMU 2.8 SW","CoCoRaHS","BI",385,19.8494,-155.15,"US1HIHI0014",NA,NA,NA,NA,1.12697025708492,1.58968051380935,10.4463003718919,5.0233474587362,0.16479677279855,22.4248262357844,51.6473616166787,93.9584379863705,44.46524346072,16.0728417189203,8.34853105129707,10.1890100745681,19.6439483678453,6.68116264374704,0.492033315508436,2.12007801356809,15.9294437251816,1.33835117804936,1.78242840090702,29.6910098924108,57.1424362183887,27.8456922023159,11.5411835022923,10.809622145157,19.8070636817989,20.9742765881655,17.4899702037028,8.42334281884599,10.0510086568779,51.13066012755,24.1132753320386
140.1,"PAPAIKOU MAUKA NO 2 140","MAU KEA SUGAR","COOP","BI",427,19.78695738,-155.1388973,"USC00517724",NA,NA,NA,NA,1,0.8,1,4.3,0,0.8,55.9,81.3,28.4,12.2,6.9,11.2,14,4.8,0.3,2.5,12.2,1,2.5,40.6,25.4,23.9,9.1,9.4,8.9,8.6,8.6,6.4,6.6,46.5,10.9
140.5,"KAUKU 140.5","COOP","COOP","BI",457,19.835,-155.149,"USC00513473",NA,NA,NA,NA,1.66327991459913,1.97159843347593,1.71322140954148,9.6140601810079,0.16606193897579,33.2062512825772,108.013030105854,106.379586336455,33.0162261604999,22.2994210998526,3.61112546287311,17.4206075911706,14.2647770211983,5.90179394566793,0.401044304358906,2.37600649690702,14.5312480198078,1.10703387565504,6.16984577963097,43.2030493207218,48.2654423740804,25.8906118752535,13.6975373515157,14.4801553757701,20.8060308148263,23.9888903813208,12.094262487602,7.73358474285156,22.9740783476916,52.5884190300843,23.9059261250068
144.1,"PAPAIKOU 144.1","MAU KEA SUGAR","COOP","BI",61,19.78362447,-155.0922318,"USC00517711",NA,NA,NA,NA,1.3,0.5,4.6,13.5,0.086363278617355,11.6667961988094,35.5988603692183,53.3,25.9,7.6,10.7,5.71768040257605,8.01161561012381,4.70487227190944,0,0,15.879348227249,3.71052587756374,1.50893652021032,13.0319646982398,24.5757431365772,15.6734554257698,4.97961105441862,5.1,7.6,11.6459150978665,8.62414283296546,5.41157646635278,6.11289964464085,30.6190452614488,13.1040037231902
144.11,"PEPEEKEO 0.2 SSE","PEPEEKEO 0.2 SSE","CoCoRaHS","BI",178,19.8313,-155.1077,"US1HIHI0002",NA,NA,NA,NA,0.984142996918128,1.42820069230706,1.13293342713695,6.38954022012071,0.109814832217864,14.8348613855751,53.6250838192944,47.4505684141948,20.8422371528615,10.545972624158,2.55571362738063,10.9525523982434,9.70574780628893,3.70696636912407,0.825603165451632,1.78163912108007,9.47189281859516,1.59483888026716,1.91868133594693,16.5707351517656,31.2491738662433,14.7774538069622,6.59028315459997,9.80268162388937,11.2387653832563,14.8083101171046,10.9659894041434,5.98880268367611,13.306665347919,41.9042511860458,13.2259007056614
144.12,"PAPAIKOU 1.1 N","PAPAIKOU 1.1 N","CoCoRaHS","BI",108,19.8095,-155.0988,"US1HIHI0011",NA,NA,NA,NA,0.689984534662205,1.63160743324495,1.33886124445368,6.45823520118743,0.129775341958296,17.5313222297465,57.9024707807225,54.4281348448288,23.5502130059445,15.6907783744119,3.02025330497062,12.5280590414335,12.1363530528748,4.30262021716685,0.413507684661173,2.04928865197342,12.8802945682707,1.36098154355758,2.26743074184661,19.5827173560158,36.9291847239764,17.4634799538442,7.84304968809216,8.92733230249305,13.2815812886511,17.4999448659097,12.9592241420577,6.04215558712438,16.433340364298,35.1846900992397,15.6299085662535
147.1,"MIDDLE PEN 147.1","KAHUA RANCH","COOP","BI",421,20.10027112,-155.8322151,"USC00516270",NA,NA,NA,NA,15.2,0,0,0,0,0,0,0,0,0,0,0,0,0,0,0,0,0,0,0,0,0,0,0,0,0,0,0,0,0,0
147.2,"KOHALA RANCH","KOHALA RANCH","RAWS","BI",328.8792,20.08305556,-155.8325,NA,"KHRH1","4870B654",NA,NA,0,0,0,0,0,0.5,0,0,0,0,0,0,0,0,0,2,0,0,0,0,0,0,0,0,0,0,0,0,0,0,0
160.3,"Upolu Airport","NWS","HydroNet-UaNet","BI",34,20.265,-155.8582,NA,"UPLH1","B15017A0",NA,NA,NA,NA,NA,NA,NA,NA,NA,27.0562953062658,NA,NA,NA,NA,NA,NA,NA,NA,NA,NA,NA,NA,NA,NA,NA,NA,NA,NA,NA,NA,NA,NA,NA
168,"HAWI 168","KOHALA SUGAR","COOP","BI",183,20.23692665,-155.8272119,"USC00511339",NA,NA,NA,NA,NA,NA,NA,NA,NA,NA,NA,57.2,NA,NA,NA,NA,NA,NA,NA,NA,NA,NA,NA,NA,NA,NA,NA,NA,NA,NA,NA,NA,NA,NA,NA
175.1,"KOHALA MISSION 175.1","BOND ESTATE","COOP","BI",163,20.2252605,-155.7922137,"USC00514680",NA,NA,NA,NA,NA,NA,NA,NA,NA,NA,NA,66.8562927596518,NA,NA,NA,NA,NA,NA,NA,NA,NA,NA,NA,NA,NA,NA,NA,NA,NA,NA,NA,NA,NA,NA,NA
176.3,"Kahua Ranch HQ","KAHUA RANCH","HydroNet-UaNet","BI",987.552,20.1249008,-155.7884,NA,"KASH1","15D293C2",NA,NA,0,1.27,0.254,4.572,0.254,27.432,7.112,1.524,0,0,0,0,0.254,0,1.778,0,0,0,1.778,18.288,0.762,4.826,0.762,8.89,4.572,3.302,2.032,0.508,1.016,3.302,1.524
178.12,"PONOHOLO RCH 178.11","PONOHOLO RCH 178.11","COOP","BI",762,20.12554592,-155.7774941,"USC00518101",NA,NA,NA,NA,0,0,0,0,0,0,33.3,16.5,0,0,0,1.5,0,0,0,2.5,0,0,0,0,34.5,5.1,0,0,12.7,7.6,0,0,0,7.4,0
179.3,"POLOLU LOOKOUT 179.3","POLOLU LOOKOUT 179.3","COOP","BI",149,20.20694,-155.73778,"USC00518086",NA,NA,NA,NA,NA,NA,NA,NA,NA,NA,NA,80.9516565319136,NA,NA,NA,NA,NA,NA,NA,NA,NA,NA,NA,NA,NA,NA,NA,NA,NA,NA,NA,NA,NA,NA,NA
185.7,"KawainuiRainGagenearKamuela","USGS","USGS","BI",1237.488,20.08533333,-155.6811667,NA,"KWSH1","DDF6A592",NA,NA,0.254,20.32,1.27,3.302,0,11.938,48.006,59.944,13.716,4.572,7.112,12.192,5.334,1.778,11.938,0.508,0,0,21.59,73.406,24.638,27.178,10.414,48.26,26.162,42.672,18.542,8.382,0.762,50.292,28.956
189,"Waimea Plain","SCAN","SCAN","BI",927,20.01666667,-155.6,NA,NA,NA,2099,NA,5.588,0,2.54,0,0.254,0,14.224,16.764,3.556,0.254,0,1.016,1.016,0,0,0.508,0.254,0,0,0,2.54,1.27,2.032,0.508,4.064,0.254,0.762,3.556,0.254,0,0
191.1,"LALAMILO FLD OF 191.1","DOWALD","COOP","BI",799,20.01083015,-155.6763867,"USC00515260",NA,NA,NA,NA,0,0,0,0.3,NA,NA,NA,0.5,0,0,0,NA,NA,NA,NA,0,0,0,NA,NA,NA,0.5,0.3,0.3,0.8,NA,NA,NA,NA,1,0.5
192.7,"Kamuela Upper","NWS","HydroNet-UaNet","BI",948.5376,20.0319996,-155.6667,"USC00513080","KUUH1","817075F6",NA,NA,0,5.588,0.762,1.524,0.254,18.288,24.892,21.844,0.762,0.254,1.524,2.794,2.032,1.016,0,0,0,0,1.016,20.32,4.064,7.62,4.572,11.938,3.302,6.096,3.302,0.254,0,14.478,6.858
199,"KUKUIHAELE HIC 199","HONOKAA SUGAR","COOP","BI",299,20.11526922,-155.5822202,"USC00514928",NA,NA,NA,NA,0,0,0,17.586342815014,2.95245171346951,0,85.7494671564187,248.391046328848,59.3057692009962,1.92551198704533,3.59428904248462,2.3106143844544,1.02693972642418,0,2.56734931606044,0,0,0,0,30.2947219295132,62.0014859828596,31.9634989849525,8.21551781139341,2.3106143844544,11.424704456469,0,0,3.20918664507555,1.02693972642418,25.8018606264074,13.0934815119082
201.3,"Kamuela 1","NWS","HydroNet-UaNet","BI",877.824,20.0394993,-155.6084,NA,"KMUH1","81706680",NA,NA,0.254,3.048,0.254,0.254,0,42.164,31.496,15.494,0.762,0.508,2.794,2.54,0.254,0.254,1.016,0,0,0,0,6.604,4.318,4.064,1.778,5.334,1.27,6.604,8.89,0.254,0,2.54,2.286
206.1,"KUKUIHAELE 206.1","COOP","COOP","BI",226,20.12167,-155.57417,"USC00514927",NA,NA,NA,NA,0.268598619717964,0.477983545760703,6.77845318298324,10.6648203620546,0.719512354197957,0,78.3544380311687,160.417537464455,34.6762595223426,2.95609673813594,10.5964449181305,2.17063856144348,2.92037338307946,0.110240968877755,4.0025725113981,1.30097028373128,0,0,0,24.2623147018939,37.7218851537925,17.5528106668459,4.66131836403819,0.476821084163636,5.43699411256261,5.42036175694551,2.86444532007661,2.8121311860216,0.211920481850505,8.27381109815893,5.35704653762782
214,"HAINA 214","HONOKAA SUGAR","COOP","BI",140,20.09193527,-155.4738903,"USC00510840",NA,NA,NA,NA,0,0,0,12.8354693914859,2.154859824848,0,62.5846244781941,181.289293960038,43.2845756121642,1.40534336403131,2.62330761285844,1.68641203683757,0.749516460816696,0,1.87379115204174,0,0,0,0,22.1107355940925,45.252056321808,23.3286998429197,5.99613168653357,1.68641203683757,8.33837062658574,0,0,2.34223894005218,0.749516460816696,18.8316010780195,9.55633487541287
215,"HONOKAA TOWN 215","HONOKAA SUGAR","COOP","BI",326,20.08026947,-155.4672231,"USC00511856",NA,NA,NA,NA,0.3,1.3,13.7,13.7,0,0,99.6,179.6,38.4,6.9,31.5,3,2.3,0,7.6,3.3,0,0,0,22.1,47.2,16,3.6,0,5.3,7.6,4.8,7.6,0,5.1,3.8
215.5,"Honokaa","NWS","HydroNet-UaNet","BI",591.9216,20.0656,-155.49,NA,"HNKH1","B15047DC",NA,NA,0.0918235181305288,0.397901911898958,4.19327399462748,8.12004543657746,0.65923900120328,0,49.6320016195004,110.433743317695,24.9955154753127,2.54187939604778,10.4440212312573,1.43416135616003,0.933280827825051,0,2.89944709803422,1.01005869943582,0,0,0,13.5286979059333,28.2909192111388,12.0342330524521,2.93628639482765,0.515926174854741,4.17318379597667,2.32619579264006,1.46917629008846,3.04275992438276,0.229300522157663,7.32217542743027,4.08667955383023
216.6,"HONOKAA 2.5 SSW","HONOKAA 2.5 SSW","CoCoRaHS","BI",757,20.0417,-155.4777,"US1HIHI0033",NA,NA,NA,NA,0.3,1.8,14.2,0.8,1,0.3,107.2,102.6,29.5,1.5,10.7,4.1,8.9,0.3,0.8,0.5,0.3,0.3,0,0.5,22.6,22.9,5.8,2.3,5.3,3,5.3,9.4,0.5,1,2.8
216.8,"KALOPA 216.8","COOP","COOP","BI",396,20.06111,-155.43528,"USC00512982",NA,NA,NA,NA,0.615108228543625,0.5723075686266,7.81547990378593,9.87671217830729,0.740914050654653,0,83.6802341704232,169.354909208919,38.526325628005,3.55740745004508,17.1926888865269,2.51262445863134,1.42423299390813,0.950824023948406,4.00931863091264,1.96091342789501,0,0,0,19.4084509412385,41.9547680450597,18.3543745837801,5.5770448313,0.830062627180682,5.89125262372345,5.71708391841712,2.55197749521286,4.04527847859034,0.257709235010314,8.55462307606893,6.86996356597174
216.9,"HONOKAA 2.7 ESE","HONOKAA 2.7 ESE","CoCoRaHS","BI",333,20.0606,-155.43,"US1HIHI0034",NA,NA,NA,NA,0.921535136989584,0.5,12.4,3,0,0,111.5,180.8,41.7,2.8,21.8,3.6,1.5,3.8,3,3.3,0,0,0,16.8,40.6,19.3,9.1,1,4.8,12.4,3.6,2.5,0,1.3,9.1
217,"PAAUHAU 217","PAAUHAU SUGAR","COOP","BI",122,20.08360173,-155.4372236,"USC00517204",NA,NA,NA,NA,0,0,0,11.9740073026316,2.01023480263159,0,58.3842107894739,169.121927960527,40.3794990789475,1.31102269736843,2.44724236842106,1.57322723684211,0.699212105263161,0,1.7480302631579,0,0,0,0,20.6267571052632,42.2149308552633,21.7629767763159,5.59369684210529,1.57322723684211,7.77873467105267,0,0,2.18503782894738,0.699212105263161,17.5677041447369,8.9149543421053
217.2,"PAAUHAU MAUKA 217.2","COOP","COOP","BI",341,20.07306,-155.44722,"USC00517209",NA,NA,NA,NA,0.5,0.3,7.9,8.6,0.3,0,88.4,158.8,31.5,2.44588956155109,18.4141101940284,2.3,5.6,0.3,3.6,1,0,0,0,32,31.5,17.5,5.3,0,4.3,8.9,4.1,0,0,4.1,4.3
221,"PAAUILO 221","HAMAKUA MILL","COOP","BI",244,20.03860487,-155.3688913,"USC00517312",NA,NA,NA,NA,0,0,0,13.7,2.3,0,66.8,193.5,46.2,1.5,2.8,1.8,0.8,0,2,0,0,0,0,23.6,48.3,24.9,6.4,1.8,8.9,0,0,2.5,0.8,20.1,10.2
221.7,"PAAUILO 2.4 SW","PAAUILO 2.4 SW","CoCoRaHS","BI",613,20.019,-155.3988,"US1HIHI0050",NA,NA,NA,NA,2,2.5,9.1,0.8,0.8,0,159,133.1,23.1,0.8,32.8,3.88119922730671,2,0.3,0,0,0,0,0,0.8,22.1,18.3,7.4,1.3,6.1,2.5,2.3,0.8,0,1,3.6
222,"KUKAIAU 222","HAMAKUA MILL","COOP","BI",256,20.02693892,-155.3422253,"USC00514815",NA,NA,NA,NA,0,0,0,19.5673137117884,3.28502346986229,0,95.4085077333918,276.370452790588,65.9861236120165,2.14240661077976,3.99915900678888,2.57088793293571,1.14261685908254,0,2.85654214770634,0,0,0,0,33.7071973429348,68.9854928671081,35.5639497389439,9.14093487266029,2.57088793293571,12.7116125572932,0,0,3.57067768463293,1.14261685908254,28.7082485844487,14.5683649533023
223,"OOKALA 223","LAUPAHOEHOE SUG","COOP","BI",131,20.01527222,-155.2838932,"USC00517131",NA,NA,NA,NA,1.41076598689644,0.282153197379289,0,11.1988622580347,1.66694143070103,0.282153197379289,77.6166331334645,166.621831276985,34.6123928322943,7.71773585408787,2.02932000259255,2.00994585225772,2.69595469537111,3.8090681646204,1.44951428756611,5.78414054627542,11.7093576912405,0.705382993448222,2.68045537510324,36.572839212451,35.2879232421008,18.8929124723359,5.76705850972871,10.1923885762571,9.83617694822066,7.90028952662009,1.69291918427573,2.94050564897479,19.0608401433699,17.6713037612116,9.08544205086289
249.1,"MAKENA GOLF CRS 249.1","MAKE GC","COOP","MA",30,20.6420893,-156.4388486,"USC00515842",NA,NA,NA,NA,0,0,29,NA,NA,NA,NA,0,0,0,6.1,NA,NA,NA,0,0,0,0,NA,NA,NA,0,0,0,0,NA,NA,NA,0,0,0
250,"ULUPALAKUA RANCH 250","ULUPALAKUA RANCH","COOP","MA",579,20.648174,-156.398497,"USC00518760",NA,NA,NA,NA,0,0,0,13.2,NA,NA,NA,0.3,1,6.4,NA,NA,NA,NA,NA,8.1,3,0.8,0,0,NA,NA,NA,NA,NA,NA,NA,NA,NA,NA,NA
250.2,"Ulupalakua Ranch","NWS","HydroNet-UaNet","MA",581.5584,20.6487999,-156.3981,NA,"ULUH1","8170531A",NA,NA,0,0,13.462,9.398,0,4.572,0,0.254,0,0.254,1.27,0.254,0,12.954,7.874,2.794,0.254,0,0,0,0,0,0,0,0,0,0,0,0,0,0
253,"AUWAHI HN-141","HaleNet","HaleNet","MA",1166,20.64422222,-156.3420556,NA,NA,NA,NA,NA,0,0,NA,NA,NA,NA,NA,NA,NA,NA,NA,NA,0,NA,NA,NA,NA,NA,NA,NA,NA,NA,NA,NA,NA,NA,NA,NA,NA,NA,NA
255,"KepuniGulchRainGage","USGS","USGS","MA",225.552,20.6195,-156.2518889,NA,"KPNH1","F000D4EA",NA,NA,0,0,0,0,0,0,0,0,0,1.778,0,0,0,0,0,0,0,0,0,0,0,0,0,0,0,0,0,0,4.826,0,0
258.6,"OHE'O 258.6","HALEAKALA TL PK","COOP","MA",24,20.662925,-156.04248,"USC00517000",NA,NA,NA,NA,0,0,0,0.8,0,0,0,7.6,3.6,4.6,17.5,0,10.2,0,2.5,0.5,0.5,1.8,0,0,4.6,0.3,1.3,9.7,0,0.5,2.8,0,0.5,3.3,0.5
266,"KAUPO GAP","RAWS","RAWS","MA",1228.344,20.68416667,-156.1519444,"USR0000HKAU","KPGH1","FA45A6E0",NA,NA,0,0,0.595751587861304,0.210387023860336,0.332767808035884,9.90018929398157,0.400772530885768,0.490558075931136,0.262983779825419,22.671126598806,0.748948305806453,0,0.105193511930168,2.31322232323475,1.48708219467821,0.368177291755587,3.50800307371432,0,0,0.736354583511174,0.0525967559650839,0,0.105193511930168,0.105193511930168,0.157790267895252,0.368177291755587,0.0525967559650839,0.788951339476258,11.8182675755096,0.0525967559650839,0.105193511930168
267,"KULA HOSPITAL 267","KULA SATORIUM","COOP","MA",916,20.70013977,-156.3555187,"USC00515004",NA,NA,NA,NA,0,0,0,23.1,25.9,6.6,0.5,0.3,0,0,5.8,11.2,0,0.5,0,8.4,0,0,0,0,0,0,0,0,0,0,0,0,0,0,0
267.8,"KULA 1","KULA 1","RAWS","MA",1998.5736,20.68305556,-156.3216667,NA,"KLFH1","AA10F12E",NA,NA,0,0.300000000000068,0,9.39999999999998,0,6.79999999999995,0.300000000000068,0,0,4,9.89999999999998,0,0,1.60000000000002,6.79999999999995,0.299999999999955,3.5,0,0,1,0,0,0,0.5,0,0,0.300000000000068,0,0,0,0.5
276,"BIG BOG HN-164","HaleNet","HaleNet","MA",1650,20.72655556,-156.09225,NA,NA,NA,NA,NA,0,0,5.588,2.286,1.27,3.302,12.7,11.684,28.956,83.058,3.048,0,7.112,24.892,4.572,0.254,28.702,3.81,4.826,30.734,1.524,6.858,24.13,38.354,14.732,44.958,12.7,39.624,165.094,34.036,27.94
277,"HORSHOE PU'U HN-163","HaleNet","HaleNet","MA",1930,20.73630556,-156.1071389,NA,NA,NA,NA,NA,1.75786299072414,0.351572598144827,3.30489230935913,3.00258629676519,1.17194801001903,26.7814667626933,40.1407183587834,37.2376767983917,9.56685337295962,68.199183198319,1.82224230547205,0.878931495362068,4.80734865982279,18.8025148041655,5.20944575464213,8.77655918900678,32.4181918266425,2.71655621544934,4.52060725907446,34.7918585801284,0.939726494824234,2.73250856132196,7.74025128414779,20.8883600644527,8.46894881872057,22.3500638592484,5.43176703158723,14.3298651618287,99.3748176722007,12.4094235192946,9.3755024620416
278,"TREE LINE HN-162","HaleNet","HaleNet","MA",2195,20.73422222,-156.1228889,NA,NA,NA,NA,NA,1.55416890259389,0.135145121964686,20.4158675248416,1.29068080377607,6.38279202805396,38.44620706464,31.8196227092539,24.3537409040456,15.9978377717688,43.6626882232882,1.37653861060538,1.35145121964686,10.5463185181011,23.2736597831606,10.1614794087105,1.12728576671,8.07278826548158,1.20705317738694,1.25354089453221,18.986153176696,0.625204571982023,6.74615259388003,10.3610960687076,15.9015407657413,5.89099355181212,16.8218382638362,4.48127013528124,10.7023778998445,65.1805870323269,11.068836875782,7.51687989391905
278.1,"Lakes - Subalpine","Lakes - Subalpine","Little HaleNet","MA",2228,20.73492113,-156.1234398,NA,NA,NA,NA,NA,1.44113152629739,0.125315784895425,18.9309863797013,1.19680736990951,5.91856059021391,35.6499483260397,29.5053268436014,22.5824514578318,14.8342875262841,40.4870258415642,1.27642059083676,1.25315784895425,9.77926664048104,21.5809264938024,9.42241754115253,1.0452963348068,5.73780677111271,0.746174749709855,1.16236871011789,17.6052576141382,0.579732368576411,6.2554933173784,9.60751573827634,14.7449943670639,5.46253146267556,15.5983570458974,4.15533965390136,9.92397555508455,60.4398908754914,10.2637813396661,6.97016429580971
278.11,"Puu Alaea - Cloud forest","Puu Alaea - Cloud forest","Little HaleNet","MA",1993,20.745673,-156.1425145,NA,NA,NA,NA,NA,1.02891012443429,0.0894704456029819,13.5159651955201,0.85447247348842,4.22561494369268,25.4526336416099,21.0656202852783,16.1229648477722,10.591086480342,28.9061130344197,0.911313120963067,0.894704456029819,6.98200426007271,15.4079161818041,6.72722831180261,0.746299669593679,5.34444716073356,0.799108277659655,0.8298846512911,12.5694480149223,0.413905665517617,4.46617140082848,6.85938100262918,10.5273347450647,3.90002843212238,11.1366014802961,2.96674589539172,7.08532062267701,43.1516586145822,7.32792832760702,4.97641782312178
278.12,"Puu Alaea - Forest line","Puu Alaea - Forest line","Little HaleNet","MA",2033,20.74567736,-156.1424321,NA,NA,NA,NA,NA,1.16971833142361,0.101714637515096,15.3656494193561,0.971408573208291,4.80389797300564,28.9358724796003,23.9484884299753,18.3294216778231,12.0404957746531,32.8619667584222,1.03602796584731,1.01714637515096,7.93750414068002,17.5165173117564,7.64786164419742,0.848432125924581,6.0758443976553,0.908467687286851,0.943455863179508,14.2895996547944,0.47054940265287,5.077375015336,7.79809966920645,11.9680194993759,4.43375435987185,12.6606654866224,3.37275042406978,8.05495953392024,49.0570409544395,8.33076854100651,5.65744958115675
278.2,"Lakes - Forest line","Lakes - Forest line","Little HaleNet","MA",2182,20.735063,-156.1222481,NA,NA,NA,NA,NA,0.964252525931053,0.0838480457331351,12.666610300236,0.800776687227927,3.96007366076597,23.8531682191523,19.7418385610232,15.1097838487202,9.9255334829551,27.0896279921559,0.854045419453805,0.838480457331351,6.54324909820288,14.4396694568509,6.30448348998127,0.699401555507946,3.87421768850021,0.499261083436478,0.777733984956972,11.779573074579,0.387895476965952,4.18551334292455,6.42833159188247,9.86578796163715,3.65494728603683,10.4367678504157,2.78031302782631,6.64007297158637,40.4399712172166,6.86743499936087,4.6636954405243
278.3,"Lakes - Cloud forest","Lakes - Cloud forest","Little HaleNet","MA",2143,20.73575551,-156.1214124,NA,NA,NA,NA,NA,1.67012750320048,0.145228478539172,21.9391224454611,1.38698020829116,6.8590205964552,41.3147295028422,34.1937269105646,26.1708057739289,17.1914576400143,46.920419230931,1.47924397982254,1.45228478539172,11.3331933132854,25.0101383698476,10.9196408481526,1.21139405106265,6.64954497325164,0.864742009277921,1.34706924121993,20.4027352158794,0.671851913296649,7.2494919754358,11.1341511715813,17.087975786804,6.33052838442295,18.0769379003359,4.81562363634539,11.5008964922302,70.0437969745473,11.894697457805,8.07772426030153
278.4,"Lakes - Alpine","Lakes - Alpine","Little HaleNet","MA",2304,20.73450891,-156.1273482,NA,NA,NA,NA,NA,1.4158947839118,0.123121285557548,18.599471582022,1.17584917232072,5.81491620648962,35.0256551608798,28.9886367851528,22.1869930978717,14.5745131157301,39.7780269594514,1.2540682260187,1.23121285557548,9.60801451781052,21.2030065937599,9.25741447252458,1.02699136136285,5.63732770400569,0.733107920215504,1.14201359390605,17.2969586539582,0.569580237302216,6.14594865024377,9.43927127534702,14.4867836364482,5.36687294936073,15.3252024370206,4.08257236343788,9.75018932533767,59.3814823069433,10.0840445142309,6.84810448550874
278.5,"Frisbee - Alpine","Frisbee - Alpine","Little HaleNet","MA",2320,20.73857613,-156.1365744,NA,NA,NA,NA,NA,0,0,2.19525018295435,0.94356296018567,0.778457765816323,17.5558609991259,2.49287213425781,2.89984321274311,5.42059338059468,39.8128581910075,1.21041092417634,0,1.44177449701275,9.33678278595441,3.4603356707216,1.04240977608796,9.32844348186808,1.2382889577701,0.784249673254396,6.99669908466397,0.39067685976768,1.11446006199309,4.2072865026993,6.51875922387015,2.82308252299651,8.30703832833921,2.20683399783049,8.58438860360942,50.7128034460246,5.67404307958677,4.82643098158435
278.6,"Frisbee - Subalpine","Frisbee - Subalpine","Little HaleNet","MA",2191,20.74071537,-156.1350318,NA,NA,NA,NA,NA,1.12224544418884,0.0975865603642471,14.7420362617455,0.931984065259718,4.6089323127836,27.7615133417113,22.9765417141401,17.5855241556472,11.5518336046201,31.5282675247473,0.993980887098982,0.975865603642471,7.61536142574335,16.8056114220669,7.3374740374817,0.813998603290675,5.82925693450524,0.871597628131235,0.905165812831071,13.7096578561424,0.451452207943321,4.87131032003597,7.48161466910291,11.482298770843,4.25381093665758,12.1468337984142,3.23586772654207,7.72804990502778,47.0660664516572,7.99266523450809,5.42784262468906
278.7,"Frisbee - Forest line","Frisbee - Forest line","Little HaleNet","MA",2135,20.74195056,-156.1342138,NA,NA,NA,NA,NA,1.46941124688276,0.127774891033283,19.3024743358345,1.22029265032837,6.03470213365017,36.3495170740314,30.0843179930496,23.0255931181915,15.125384833276,41.2815138929593,1.30146814340194,1.27774891033283,9.97116788132973,22.0044149541417,9.60731623390897,1.06580847248323,7.6325332794935,1.14122571329134,1.18517819123705,17.9507304298224,0.591108616405613,6.37824658445432,9.79604666389979,15.0343394498162,5.56972422102854,15.9044478993688,4.23688102761035,10.118716458793,61.6259194891048,10.4651903458106,7.10694174819537
278.71,"Frisbee - Cloud forest","Frisbee - Cloud forest","Little HaleNet","MA",2087,20.73622225,-156.1341472,NA,NA,NA,NA,NA,1.43726921186885,0.124979931466857,18.8802502598492,1.19359985811157,5.902698511322,35.5544044375856,29.4262508900834,22.52192920396,14.7945307922842,40.378518310348,1.27299971108019,1.24979931466857,9.7530576498672,21.5230883837776,9.39716492641418,1.04249488119737,7.46557855362304,1.11626243843334,1.15925349588626,17.5580745227545,0.578178652866926,6.23872823962079,9.5817670498456,14.7054769438077,5.44789156777378,15.5565525621425,4.14420310736978,9.89737873635189,60.2779085315292,10.2362738221105,6.95148385919603
278.8,"Puu Alaea - Alpine","Puu Alaea - Alpine","Little HaleNet","MA",2320,20.74402239,-156.1421477,NA,NA,NA,NA,NA,1.28410651635487,0.111661436204772,16.0568997023129,0.734477525287713,5.08927353727381,31.2860977366127,24.4464054917869,18.4253661266859,9.01355103145558,24.0155904953173,0.694774034200098,1.11661436204772,7.6810628340564,15.6151705690883,7.73190282089796,0.894520642536797,NA,NA,0.334984308614315,11.2244326443768,0.2952808175267,4.57811888439564,5.05701908324427,7.56940139785163,2.72825614995883,7.37088394241355,1.8585409243935,3.08927502844324,29.8828066273286,4.20343108469371,2.1538217419202
278.9,"Puu Alaea - Subalpine","Puu Alaea - Subalpine","Little HaleNet","MA",2075,20.74489428,-156.1421289,NA,NA,NA,NA,NA,1.15106303304213,0.100092437655838,15.1205897609387,0.955916025731952,4.72728281902107,28.4743875900045,23.5665450292056,18.0370941820716,11.8484674586877,32.3378664012581,1.01950483346987,1.00092437655838,7.81091254664355,17.2371544529582,7.52588942480071,0.834900873108967,4.62479344701181,0.59598596998789,0.928409120588113,14.0617014179705,0.463044827171839,4.99639830208703,7.67373137281454,11.7771470741105,4.36304245572231,12.4587463698436,3.31895998252759,7.92649469796856,48.2746528254926,8.19790495435967,5.56722152609481
279,"POHAKAU PALAHA HN-161","HaleNet","HaleNet","MA",2460,20.73061111,-156.1413056,NA,NA,NA,NA,NA,0,0,2.286,1.016,1.016,30.226,0.762,1.778,1.27,46.736,1.27,0,0.508,9.398,4.826,1.778,NA,NA,0,3.556,0.254,0,0.508,0.508,0.762,1.778,0.254,3.81,42.418,0.254,0.508
280.1,"OheoGulchRGatdamnearKipahulu","OheoGulchRGatdamnearKipahulu","USGS","MA",128.016,20.66836111,-156.0522222,NA,NA,NA,NA,NA,0,0,1.15648812082611,1.01976917250925,0.513994720367162,15.2913429309231,0.385496040275372,5.70434805599237,2.91847843509835,26.5519602367065,11.7063095410671,0,6.7056216249952,4.75445116339625,4.02202008468804,1.21559979323134,0.596813650822742,1.25027436461327,0,1.79898152128507,3.0367017799088,0.189665419553283,1.07888084491447,6.3895125924064,0.385496040275372,1.21559979323134,1.8987092625891,1.92748020137686,21.7753886079178,2.2148182951779,0.573106392772386
307.2,"POHAKEA BRIDGE 307.2","WAILUKU SUGAR","COOP","MA",50,20.81346495,-156.5071787,"USC00518060",NA,NA,NA,NA,0,0.260968739264382,0.115178034101987,9.57623899062348,NA,NA,NA,6.38356952788423,3.70033276681994,0.503953247868373,2.67657293912537,NA,NA,NA,3.67951843397918,0.772194637272399,0.0766838847012025,0,NA,NA,NA,0.631759722370377,0.491324807468356,0.260968739264382,0,NA,NA,NA,NA,0.0766838847012025,0
311.2,"Kealia Pond NWR","Kealia Pond NWR","RAWS","MA",3.6576,20.7975,-156.4772222,NA,"KPDH1","32B2C438",NA,NA,0,0,0.700000000000017,0,4.59999999999999,0.299999999999983,0,0,0,0,0,0,0,0,0,0,0,0,0,0,0,0,0,0,0,0,0,0,1.5,0,0
311.5,"Kihei 2","NWS","HydroNet-UaNet","MA",54.5592,20.7061005,-156.437,NA,"KHIH1","93202508",NA,NA,0,0,7.62,0,0,0.254,0,0,0,0,0,0,0,0,0,0,0,0,0,0,0,0,0,0,0,0,0,0,0,0,0
324.6,"KULA AG HN-119","HaleNet","HaleNet","MA",965,20.75788889,-156.3200278,NA,NA,NA,NA,NA,0,0,6.35,8.382,0,0.508,0,0.254,0,5.08,0.254,0,1.524,5.08,5.08,1.778,3.048,0.254,0,0,0,0,0,0,0,0,0,0,0,0,0
324.7,"Kula Branch Stn","NWS","HydroNet-UaNet","MA",944.88,20.7577991,-156.3217,"USC00515000","KBSH1","93220610",NA,NA,0,0,5.842,8.636,0,0.508,0,0,0,3.81,0.254,0,1.524,3.81,4.318,0.508,2.032,0.254,0,0,0,0,0,0,0,0,0,0,0,0,0
328.4,"PU'U PAHU HN-106","HaleNet","HaleNet","MA",960,20.75763889,-156.2775,NA,NA,NA,NA,NA,0,0.229455993283545,2.6720269543921,7.14304178621093,0,2.24952745904697,0.0762993540062379,0.106881078175684,0.153156639277307,3.92072947998315,2.62475976038096,0,0.641286469054103,2.7487603039166,4.42864793167146,0.824466901235996,3.09167190384462,0.106881078175684,0,0.611696671667784,0,0,0,0.127165590010368,0,0,0.0762993540062379,0,0,0,0.127165590010368
337,"south rim","south rim","CraterNet","MA",2898,20.703948,-156.241101,NA,NA,NA,NA,NA,0,0,0,0,0,3,0,0,0,16.6,0.4,0,0,0.6,0.6,0,6.8,0,0,0.2,0,0,0,0,0,0,0,0,3.2,0,0
337.1,"Sliding Sands","Sliding Sands","CraterNet","MA",2697,20.714563,-156.2394,NA,NA,NA,NA,NA,0,0.0837884204251315,0.0837884204251315,0.487130324701076,0,2.39495559691475,0,0,0,10.1596477419981,0.362588728546952,0,0,0.357812338532169,0.190235497681906,0,2.77170897798866,0,0,0.458953637911723,0,0,0,0,0,0,0,0,3.5476168950021,0,0
337.11,"Pohaku Palaha","Pohaku Palaha","CraterNet","MA",2461,20.7300298,-156.140176,NA,NA,NA,NA,NA,0,0,2.8,0.6,0.8,38,0.4,1,1.8,56.2,1.2,0,0.2,10.6,4,0.2,1.6,0,0.2,4.4,0,0,0.2,0.8,0.4,1.6,0.2,4.6,55.2,0.2,0.4
337.12,"Puu Alaea","Puu Alaea","CraterNet","MA",2282,20.73782363,-156.1453106,NA,NA,NA,NA,NA,0,0,6.2,1,2.4,32,5,4.6,0,27.6,0.8,0,1.4,12,4.2,0,0.4,0,1,10.4,0,0,2.2,2.4,0,0.2,0,1.2,26.4,0,0
337.13,"Paliku","Paliku","CraterNet","MA",1927,20.71236611,-156.1437572,NA,NA,NA,NA,NA,0,0,0.8,1.4,0,26.8,0.2,0.4,0.2,51.2,1.4,0,0,3.6,5.8,0.2,1.2,0.8,0.8,8.2,0,0,1.2,6.4,2.4,1.8,0.2,1.4,48.6,4,2.2
337.2,"Puu o Pele","Puu o Pele","CraterNet","MA",2424,20.709651,-156.224485,NA,NA,NA,NA,NA,0,0,0,0,0,3.4,0.2,0,0,11.4,0.4,0,0,0,0.2,0,2.2,0,0,0,0,0,0,0,0,0,0,0,2.8,0,0
337.3,"Lava lake","Lava lake","CraterNet","MA",2270,20.718443,-156.212261,NA,NA,NA,NA,NA,0,0,0.2,0,0.2,2.6,0.2,0.2,0,10,0.4,0,0,0.6,0.6,0,3,0,0,0,0,0,0,0,0,0,0,0,2.2,0,0
337.4,"Silversword loop","Silversword loop","CraterNet","MA",2186,20.731704,-156.205387,NA,NA,NA,NA,NA,0,0,0.4,0,0,3.2,0.2,0.2,0,4.2,0.2,0,0,1.6,0.2,0,2.4,0,0,0,0,0,0,0,0,0,0,0,1.2,0,0
337.5,"Leleiwi","Leleiwi","CraterNet","MA",2722,20.74337371,-156.2288651,NA,NA,NA,NA,NA,0,0,1,1.4,0,1.6,0,0,1.6,3.8,0.6,0,0.2,6,3,0,1.8,0,0,7,0,0,0,0,0,0,0,0,1.6,0,0
337.6,"Puu Nole","Puu Nole","CraterNet","MA",2261,20.717807,-156.188007,NA,NA,NA,NA,NA,0,0,0,0.2,0.070806837958672,5.6,0.2,0,0,12,0.6,0,0,0.4,1.6,0.2,0.6,0,0,0,0,0,0,0,0,0,0,0,2.8,0,0
337.7,"Hanakauhi","Hanakauhi","CraterNet","MA",2645,20.73567887,-156.1754875,NA,NA,NA,NA,NA,0,0,2,0.4,0,30.4,0.2,0.6,1.2,16.6,1.2,0,0,4.8,22.2,0.2,4.8,0,0,1,0,0,0,0,0,0,0,0,6.2,0,0
337.8,"Aloha Park","Aloha Park","CraterNet","MA",2455,20.73555054,-156.1587809,NA,NA,NA,NA,NA,0,0,4.2,0.6,1.4,34.4,2.2,4,1.2,24.6,1,0,0.4,10.2,17.6,0.2,3,0.2,0.4,5,0,0,0.6,0.4,0,0,0,0,0,0,0
337.9,"Laie","Laie","CraterNet","MA",2051,20.7229056,-156.1544823,NA,NA,NA,NA,NA,0,0,0.6,0.4,0,15.8,0.2,0,0,27.2,1.2,0,0,3,2.2,0,0,0,0,0.6,0,0,0,0,0,0.4,0,0,24.6,0,0
338,"HALEAKALA RANGER STATION 338","HAWAII T PARK","COOP","MA",2143,20.75846738,-156.2455233,"USC00511004",NA,NA,NA,NA,0,0,0,0,8.6,1.8,1.5,1.3,NA,NA,4.8,0,0,0,2.5,4.1,0,6.1,0,0,3.6,0,0,0,0,0,0,0,0,0,0
338.4,"HALEAKALA SUMMIT 338","SMITHSONIAN INST 1","COOP","MA",3037,20.71667,-156.26667,"USC00511008",NA,NA,NA,NA,NA,NA,17.3,0,5.1,NA,NA,NA,0,0,0,0,0,NA,0,0,0,0,NA,NA,NA,NA,0.3,0,NA,0,0,0,0,0,0
339.4,"PARK HQ HN-151","HaleNet","HaleNet","MA",2120,20.75980556,-156.2481667,NA,NA,NA,NA,NA,0,0.762,0,6.096,0,1.524,0,0,0.762,3.81,0,0,0,1.016,2.794,0,4.572,0,0,1.778,0,0,0,0,0,0,0,0,0,0,0
339.5,"NENE NEST HN-152","HaleNet","HaleNet","MA",2590,20.73819444,-156.2458333,NA,NA,NA,NA,NA,0,0.254,0.254,1.016,0,0,0,0,0,3.556,0.254,0,0,0.508,0,0,0.254,0,0,0.508,0,0,0,0,0,0,0,0,3.302,0,0
339.6,"SUMMIT HN-153","HaleNet","HaleNet","MA",2990,20.71036111,-156.25675,NA,NA,NA,NA,NA,0,0,0,0.508,0,4.826,0,0,0,12.446,0.508,0,0,0,0,0,1.778,0,0,0.762,0,0,0,0,0,0,0,0,4.826,0,0
348.5,"WestWailuaikiRainGagenrKeanae","USGS","USGS","MA",472.44,20.81436111,-156.1429722,NA,"WWKH1","DD5E710A",NA,NA,5.842,0.508,67.818,1.016,20.828,73.152,109.474,79.756,38.1,2.286,0.254,5.08,33.782,49.53,24.13,0,1.27,0.508,1.524,42.926,0.762,20.828,21.844,33.274,10.668,29.464,7.874,5.334,38.862,18.542,8.636
350,"PAAKEA 350","EMI","COOP","MA",390,20.81179461,-156.1171956,"USC00517194",NA,NA,NA,NA,12.7,NA,NA,NA,NA,NA,NA,121.892299976318,37.673157152585,NA,NA,NA,NA,NA,27.3457665817992,NA,NA,0,NA,NA,NA,0.436368615667008,1.89093066789037,5.96370441411578,2.61821169400205,NA,NA,NA,NA,NA,0
353,"Hana AP","NWS","HydroNet-UaNet","MA",19,20.7946,-156.0157,"USC00511125","HNAH1","B150314C",NA,NA,1.3,0,6.1,3.8,3.6,34,8.1,36.3,1,28.2,0.3,1.3,NA,11.4,0.3,0,4.3,1.3,0,1.3,0,1.8,3.6,0.8,0,6.1,3,13.2,1.8,0.3,1.8
355,"HANA AIRPORT 355","HAWN AIRLINES","COOP","MA",24,20.792,-156.017,"USC00511125",NA,NA,NA,NA,1.3,0,6.1,3.8,3.6,34,8.1,36.3,1,28.2,0.3,1.3,NA,11.4,0.3,0,4.3,1.3,0,1.3,0,1.8,3.6,0.8,0,6.1,3,13.2,1.8,0.3,1.8
361.1,"Lahainaluna","NWS","HydroNet-UaNet","MA",238.0488,20.8909,-156.6556,NA,"LAHH1","81700366",NA,NA,0,0.254,1.27,0,0,0,0,0,0,NA,0,0,NA,3.556,0.254,NA,0,0,0,0,0,0,0,NA,0,0,0,0,0.254,0,0
364,"WAHIKULI 364","PIONEER MILL","COOP","MA",177,20.89679257,-156.6621736,"USC00518955",NA,NA,NA,NA,0,0,0,0.889883023540647,0.116071698722693,0.193452831204489,0,0,0,0,0,0,0,0,0.773811324817954,0.193452831204489,0,0,0,0.116071698722693,0,0,0,0,0,0,0,0,0,0,0
380,"PuuKukuiRainGageatalt","BALDWIN PKRS","USGS","MA",1759,20.89083333,-156.6008333,"USC00514887","PKKH1","DD73556E",NA,NA,0,1.016,11.176,3.048,1.27,0.762,8.382,4.318,4.572,10.16,0.254,3.048,21.59,57.912,77.216,0.508,3.302,0,3.048,59.436,0,9.906,19.812,33.274,3.81,31.496,3.302,11.43,44.196,7.874,6.858
386,"WAILUKU 386","WAILUKU SUGAR","COOP","MA",55,20.89345755,-156.4971783,"USC00519484",NA,NA,NA,NA,0,0.738156866898967,0.461348041811855,47.1855471109332,NA,NA,NA,12.7570995499282,6.12938370919056,4.11737252215914,7.95386898000712,NA,NA,NA,2.7438134229989,0.818098445349606,0,0,NA,NA,NA,1.47930043328806,1.46099900439608,0.618244499223009,0.199853946126597,NA,NA,NA,NA,0.199853946126597,0.199853946126597
386.6,"Wailuku","NWS","HydroNet-UaNet","MA",146.9136,20.8831005,-156.5124,NA,"WUKH1","9321D776",NA,NA,0,0.508,0.254,6.858,1.016,7.874,20.828,17.272,3.81,1.778,0.254,0,0.762,1.27,7.366,0,0,0,0,0,0,0.508,0.762,0.762,0,0,0,0,0,0,0
390,"WAIKAPU 390","WAILUKU SUGAR","COOP","MA",130,20.8491,-156.5092,"USC00519376",NA,NA,NA,NA,0,0.3,0,4.3,NA,NA,NA,14.7,9.7,0.8,2,NA,NA,NA,10.7,2.3,0.3,0,NA,NA,NA,1.3,0.3,0.3,0,NA,NA,NA,NA,0.3,0
390.4,"Waikapu Country Club","NWS","HydroNet-UaNet","MA",145.9992,20.8346996,-156.5135,NA,"WCCH1","9320E016",NA,NA,0.254,0,0,0.254,2.286,1.27,15.24,14.732,2.286,0,0.254,0,0,0,6.35,0,0,0,0,0,0,0,0,0,0,0,0,0,0.254,0,0
396,"PUUNENE 396","HC&S","COOP","MA",18,20.8717927,-156.4538466,"USC00518543",NA,NA,NA,NA,0,0.159579630516529,0,2.28730803740359,NA,NA,NA,7.81940189530994,5.15974138670112,0.425545681377412,1.06386420344353,NA,NA,NA,5.69167348842289,1.22344383396006,0.159579630516529,0,NA,NA,NA,0.691511732238295,0.159579630516529,0.159579630516529,0,NA,NA,NA,NA,0.159579630516529,0
398,"KAHULUI AIRPORT","NOAA-NWS","NWS","MA",12,20.8887,-156.41,"USW00022516","HOG",NA,NA,NA,0,0.3,13.2,4.1,5.1,0,3,1,0,0,0,0,0,0.5,1.3,0,0,0,0,0.3,0,1.5,0,NA,NA,NA,NA,NA,NA,NA,0
400,"SPRECKELSVILLE 400","HC&S","COOP","MA",20,20.897526,-156.41427,"USC00518688",NA,NA,NA,NA,NA,NA,5.68479623612812,10.0393140586372,3.23671079255748,0.185201845054375,2.20027047712081,5.95899217955613,3.20896407116262,NA,NA,NA,NA,NA,NA,NA,NA,NA,NA,NA,NA,NA,NA,NA,NA,NA,NA,NA,NA,NA,NA
406,"PAIA 406","HC&S","COOP","MA",50,20.9051221,-156.3738494,"USC00517566",NA,NA,NA,NA,0,0.389741118257605,0.412316170312516,25.3065891023595,0.0826768323231026,1.30204217223235,1.8131898233163,7.38359342201327,3.56085477111776,0.439092147415294,2.58350681976572,0,0.0511241569154475,4.61106307670515,6.26636274741441,1.22225898333486,0,0.991808644159681,0,2.0991619475144,3.95307367362883,1.8587067327897,1.10425001876936,2.01352493591879,0.997752144081722,1.23097234270421,1.58695164129637,0.352756682716588,0.480964249997185,0.357541703033125,0.235171121811058
410,"KEAHUA 410","HC&S","COOP","MA",120,20.85846016,-156.3805162,"USC00513910",NA,NA,NA,NA,NA,NA,0.153095984068764,12.7288483726766,NA,NA,NA,8.48511494715598,4.9185254005687,NA,NA,NA,NA,NA,NA,NA,NA,NA,NA,NA,NA,NA,NA,NA,NA,NA,NA,NA,NA,NA,NA
423,"HALIIMAILE 423","MAUI PINE","COOP","MA",326,20.86679262,-156.3405177,"USC00511075",NA,NA,NA,NA,0,0.185340523608557,0.185340523608557,4.42261192090792,0.219334801228122,1.21241941411414,1.31889530175534,1.66348212077061,0.831741060385306,0.0601382625871556,0.400921750581037,0,0,2.47629949845256,6.58090470185711,1.60392580954531,0,0.100230437645259,0,1.06619621329539,2.61740137184093,1.31777289692964,0.445939661486231,2.3760690608073,0.497005713064209,1.14228384501526,1.4191257394006,0,0.390898706816511,0.411895627100912,0.100230437645259
426.6,"Pukalani","NWS","HydroNet-UaNet","MA",495.9096,20.8355007,-156.3307,NA,"PUKH1","15D2B52E",NA,NA,0,0,15.748,0.254,3.81,34.544,0.254,0,0,3.048,0.254,0,0,3.302,1.524,0,1.016,0,0,0.254,0,0,0,0,0,0,0,0,0,0,0
446,"KAILUA 446","EMI","COOP","MA",213,20.89012208,-156.2121892,"USC00512679",NA,NA,NA,NA,0,0.0875747032391199,36.8584027973398,3.26611389887795,6.51175335864253,20.4755009898449,45.6124772076299,83.8,25.9,13.6729927253534,8.89776466080182,0.875747032391199,12.6510053322209,13.4820867633872,18.8,0.246550581304463,0.69019430292831,0,0.26272410971736,10.5459599130703,2.39962740285974,0.3,1.3,4.1,1.8,8.47178085853807,8.58047220718858,1.81836223811495,8.51896412377946,5.04841746836338,0
457.1,"PUUKOLII 457.1","COOP","COOP","MA",128,20.93194,-156.67611,"USC00518407",NA,NA,NA,NA,0,0,0,2.3,0.3,0.5,0,0,0,0,0,0,0,0,2,0.5,0,0,0,0.3,0,0,0,0,0,0,0,0,0,0,0
462.4,"KAPALUA W.MAUI AIRPORT 462.4","KAPALUA W.MAUI AIRPORT 462.4","NWS","MA",73,20.9625,-156.6753,"USC00513317",NA,NA,NA,NA,0,0.5,0.5,1.5,0,0.5,0.8,2,1,0,0,0,0,2.3,6.4,2.8,0,0,0,0.5,3.6,1.5,0.5,2.3,0.8,2,0.8,0.230738817284935,0.314599630958225,0.3,0
465.1,"Mahinahina","NWS","HydroNet-UaNet","MA",223.1136,20.9552002,-156.6562,NA,"MABH1","190524C8",NA,NA,NA,NA,NA,1.016,NA,NA,NA,NA,NA,NA,NA,NA,NA,NA,NA,0,NA,NA,NA,NA,NA,NA,NA,NA,0.254,NA,NA,NA,NA,NA,NA
466,"MAHINAHINA 466","PIONEER MILL","COOP","MA",257,20.94678808,-156.6555055,"USC00515715",NA,NA,NA,NA,0,0,0,13.2,0.3,3.8,5.1,4.6,2.3,0.3,2,0,0,8.1,15.7,1.5,0,0.5,0,3.6,6.4,3.8,1.3,7.6,1,2,5.6,0,1.3,1.5,0.5
474,"FIELD 46 474","MAUI PINE","COOP","MA",319,20.9951177,-156.6391163,"USC00510541",NA,NA,NA,NA,0,0.445183268956923,0.445183268956923,7.69137584800841,0.144450591844037,2.27489076564806,3.16795329167971,14.7347962117454,5.06266592870821,0.144450591844037,0.963003945626916,0,0,5.94800901699085,11.5466781853815,3.21527926537895,0,0.160500657604486,0,2.17859037108537,6.28693216249597,2.15338526402977,0.90135004513756,4.39542630745448,1.05514583869403,2.74373702145461,3.40870427808644,0,1.25190512931499,0.989362920594341,0.160500657604486
482,"WAIHEE VALLEY 482","WAILUKU SUGAR","COOP","MA",91,20.94012106,-156.5255102,"USC00519315",NA,NA,NA,NA,0,0.8,0.5,69.9,1.32147320246917,0.80868517018269,1.2938962722923,17,8.4,8.6,7.6,0,0.96211042181589,5.17590499846742,1.5,1,0,0,0,3.42231485540704,6.6107164923995,2,1.3,0.5,0.5,1.37030872618812,2.5594832201758,0.559785179171459,0.194707888407464,0.5,0.5
482.4,"KAHAKULOA MAUKA 482","NWS","COOP","MA",334,20.9539,-156.5342,"USC00512450",NA,NA,NA,NA,0,0.605384958624362,0.378365599140226,52.8955107598036,2,NA,NA,12.8644303707677,6.3565420655558,6.50788830521189,0.3,0,2,0.5,0.5,0.756731198280452,0,0,NA,NA,NA,1.5134623965609,0.983750557764588,1,0.378365599140226,0,3.8,0,0,0,0
482.5,"Kahakuloa","Kahakuloa","HydroNet-UaNet","MA",335.28,20.9540997,-156.5342,NA,"KHKH1","781001B6",NA,NA,0.508,1.27,37.084,13.97,1.778,11.938,28.702,33.528,7.62,10.668,0.254,0,1.524,0.508,1.016,0,2.54,0,0,0,0,0,5.334,2.54,0,0.254,3.048,0.762,0,0,0
484,"WAIEHU CAMP 484","WAILUKU SUGAR","COOP","MA",98,20.91623388,-156.5088444,"USC00519275",NA,NA,NA,NA,0,0.8,0.5,36.8,0,0.61805954743085,0.98889527588936,11.4,5.3,1.3,9.4,0,0.0930067362951238,5.68124548140762,4.1,0.8,0,0,0,2.61559683383449,5.05241915412282,1.3,1.8,0.8,0,1.57094334552415,1.01528536119737,0.855661973915138,0.297621556144396,0,0
485,"HAMAKUAPOKO 485","HC&S","COOP","MA",98,20.91345401,-156.3455169,"USC00511086",NA,NA,NA,NA,0,0.387387240373393,0.387387240373393,6.69284106614268,0.125697257841421,1.97955250636472,2.75667296790158,17.3054134912341,5.64442712180023,0.186543179843544,0,0,0.116589487402215,7.12177982873905,10.1703170027284,2.28595803349321,0,1.50789070373531,0,3.27880652794832,6.33350854771576,2.32026867977981,1.0896530343117,3.24088320658968,1.74254784225885,1.96927111614154,1.27272071404983,0.536311642050189,0.731231297156367,0.81537978123511,0.357541094700126
486.7,"HAIKU 3.2 SE","HAIKU 3.2 SE","CoCoRaHS","MA",416,20.92011989,-156.3071849,"US1HIMI0001",NA,NA,NA,NA,0,0,NA,NA,NA,NA,NA,NA,NA,0.8,0,0,0.5,22.9,29,0.5,0,9.7,0,12.4,15.2,9.7,4.3,9.9,7.1,1.8,2.8,2.3,0.8,2.5,2.3
489,"Haiku","NWS","HydroNet-UaNet","MA",99.3648,20.9288998,-156.3225,"USC00510822","AIKH1","50A30568",NA,NA,0,0,28.448,3.048,3.302,8.89,30.226,18.542,5.08,12.446,0.254,0,2.032,5.588,1.27,0,0.254,0,0,3.556,0,0.254,4.318,5.334,1.016,3.556,6.604,1.016,1.778,0.254,0.762
490.7,"KUIAHA 490.7","COOP","COOP","MA",341,20.89306,-156.30306,"USC00514806",NA,NA,NA,NA,0.644887691336294,0.495855100557545,7.92608284856267,7.71014251627463,2.44186150361647,10.3223847690132,15.2141229671926,28.4499352568634,10.6135748456879,0.395044048505623,0.979349868783518,0.560771905509821,3.72913317164031,11.3433151224585,12.3055928728387,3.17623975116777,0.140192976377455,0.0560771905509821,0.168231571652946,6.890660803879,6.29471281309941,3.68253209165649,3.12857581623379,6.57115953742221,2.26546695186035,5.96289996549124,4.2365126753732,1.16436187558707,5.91547231083342,3.0241676562458,0.953312239366695
492.2,"HALEHAKU 492.2","COOP","COOP","MA",210,20.91,-156.282,"USC00511016",NA,NA,NA,NA,0.691149255662236,0.0901499029124655,37.9422517095602,2.95607548483344,6.70323633833697,21.0775984165032,46.953746227804,39.8628249142202,13.5164923175742,11.7400919190575,0.276389591373608,0.901499029124655,7.84548566301796,13.8785376121476,7.9264241844902,0,0.456689397198539,0.060099935274977,0.270449708737397,10.8560717549466,0.135224854368698,2.68693415609989,5.50324701870491,8.11285373439347,2.29069997983969,8.46709932776626,7.41150413299498,1.87183254025039,8.51567005222524,3.52178609622237,1.48432817950936
493,"HONOKOHUA 493","MAUI LAND&PINE CO","COOP","MA",38,21.00011804,-156.655505,"USC00511887",NA,NA,NA,NA,0,0.253066601375308,0.253066601375308,4.37220012853616,0.0821136437365963,1.29317275537219,1.80083850572263,2.27134227612904,1.13567113806452,0.0821136437365963,0.547424291577309,0,0,3.38117474721452,7.53653318648581,1.8277411863847,0,0.136856072894327,0,1.23843032621446,3.5738372629496,1.79930595812281,0.608892390900558,3.24431867432019,0.678618707989147,1.55969069707854,1.93769457861696,0,0.711651579050502,0.562408179508166,0.136856072894327
494,"HONOLUA FIELD 49 494","MAUI LAND&PINE CO","COOP","MA",61,21.010978,-156.633839,"USC00511914",NA,NA,NA,NA,NA,0.300730605971127,0.300730605971127,5.19568519486987,0.0975793949308293,1.53673627509497,2.1400186833779,NA,NA,0.0975793949308293,0.650529299538862,0,0,4.01800445059958,NA,2.17198836809246,0,NA,0,1.47168334514108,4.24695412151648,NA,NA,NA,NA,1.85345172342337,2.30265100826262,0,0.845688089400521,0.668335338236823,NA
497,"NAKALELE FIELD 60 497","MAUI LAND&PINE CO","COOP","MA",104,21.02511528,-156.6005068,"USC00516645",NA,NA,NA,NA,NA,0,0,7.40675960571454,0.168335445584421,2.13224897740267,2.86170257493516,NA,NA,0.168335445584421,1.12223630389614,0,0,4.54505703077938,NA,0.841677227922107,0,NA,0,2.02002534701306,3.59115617246765,NA,NA,NA,NA,1.12223630389614,3.1422616509092,0,0.729453597532492,0.841677227922107,NA
499.11,"LUA MAKIKA","RAWS","RAWS","KO",335.28,20.5625,-156.5630556,"USR0000HLUA","HLUA",NA,NA,NA,0,0,0,3.76575770161545,0.101120170046358,0.15168025506948,0,0.101120170046358,0.404480680185317,0.252800425115838,0.353920595162195,0.15168025506948,1.4156823806487,29.0924857677804,0.660077873386202,0,0,0.101120170046329,0,3.33696561152907,0.15168025506948,0,0,0,0,2.29198443455258,0.101120170046358,0.425995322001412,0,0.404480680185317,0.151680255069508
499.12,"KEALIALALO","RAWS","RAWS","KO",251.46,20.54361111,-156.6408333,"USR0000HKLL","KLLH1","32792006",NA,NA,0,0,0,3.85277505596835,0.126320493638336,0.189480740457432,0,0.126320493638336,0.5052819745532,0.315801234095768,0.442121727734104,0.189480740457432,1.76848691093631,32.08540538413,0.505281974553236,0,0,0.1263204936383,0,4.16857629006415,0.189480740457432,0,0,0,0,0.947403702287304,0.126320493638336,0,0,0.5052819745532,0.189480740457468
499.13,"HAKIOAWA","RAWS","RAWS","KO",365.76,20.58027778,-156.5711111,"USR0000HHAI","HKIH1","3279159C",NA,NA,0,0,0,6.09999999999997,0.200000000000045,0.299999999999955,0,0.200000000000045,0.799999999999955,0.5,0.700000000000045,0.299999999999955,2.80000000000001,50.8,0.800000000000011,0,0,0.199999999999989,0,6.60000000000002,0.299999999999955,0,0,0,0,1.5,0.200000000000045,0,0,0.799999999999955,0.300000000000011
499.9,"KANELOA","RAWS","RAWS","KO",248.412,20.52222222,-156.5658333,"USR0000HKAN","KAOH1","32793370",NA,NA,0,0,0,0.799999999999983,0,0,0,0,0,0,0,0,0,4,0.300000000000011,0,0,0,0,0,0,0,0,0,0,1.79999999999998,0,0.5,0,0,0
511,"MAUNALOA 511","MOLOKAI RANCH CO","COOP","MO",314,21.13348648,-157.2121842,"USC00516190",NA,NA,NA,NA,NA,NA,NA,2.3,NA,NA,NA,0.5,0.5,0,0,NA,NA,NA,NA,3,0,3,NA,NA,NA,0,0,0,0,NA,NA,NA,NA,0.8,0.8
524,"MOLOKAI KAUNAKAKAI MOLOKAI AIRPORT","ALOHA AIRLINES","NWS","MO",141,21.15514996,-157.0924625,"USW00022534","HMK",NA,NA,NA,0,1.3,5.3,1.8,0.3,0,0,0.8,0,0,0,0,0,2.3,5.8,0,0,0,0,0,0,0,0,0,0,0,0,0.5,0,0,0
536,"KAUNAKAKAI 536","MOLOKAI RANCH","COOP","MO",3,21.08876308,-157.0216311,"USC00513541",NA,NA,NA,NA,0,0,1.8,0.8,0.8,0,0,0,0,0,0,0,0,0,0,0,0,0,0,0,0,0,0,0,0,0,0,0,0,0.5,0
536.5,"Kaunakakai Mauka","MOLOKAI GEN HOSP","HydroNet-UaNet","MO",28.3464,21.0946007,-157.0174,NA,"KACH1","50A0F2E2",NA,NA,0,1.27,0.508,1.524,0.254,0,0,0,0,0,0,0,0,0,0,0,0,0,0,0,0,0,0,0,0,0,0,0,0,0,0
536.6,"KAUNAKAKAI 3.5 ESE","KAUNAKAKAI 3.5 ESE","CoCoRaHS","MO",13,21.068,-156.963,"US1HIMI0002",NA,NA,NA,NA,0,0,2,1,1.8,0.3,0,0,0,0,0,0,0,0,0,0,0,0,0,0,0,0,0,0,0,0,0,0,0,0.3,0
538,"MOLOKAI 1","RAWS","RAWS","MO",833.0184,21.115,-156.9475,"USR0000HMLK","MLKH1","487016AC",NA,NA,0,2.80000000000001,27.2,30.2,1,0,1,0,0,1.30000000000001,6.30000000000001,0,0,1.59999999999997,9.10000000000002,0,0,0,0,0,0,0,0,0,0,0,0.5,0,0.5,0.300000000000011,0
541.2,"Puu ALII WEST","Puu ALII WEST","RAWS","MO",1159.764,21.14083333,-156.9022222,NA,"PAFH1","32D6062E",NA,NA,0,4,91,21,13,11,31,15,4,5,0,2,11,41,15,0,0,0,1,9,0,7,10,6,1,7,6,2,2,1,4
550.3,"MAUNALOA 3.2 NNW","MAUNALOA 3.2 NNW","CoCoRaHS","MO",93,21.1804,-157.2319,"US1HIMI0006",NA,NA,NA,NA,NA,NA,NA,0.3,16,0,0,0,0,NA,NA,NA,NA,NA,20.1,0.3,0,0,0.3,0,0,NA,0,0,NA,0,NA,NA,0,0,0
553,"MAKAPULAPAI","RAWS","RAWS","MO",22.86,21.20333333,-156.9661111,"USR0000HMAK","MKPH1","FA9024CE",NA,NA,0,1.80000000000001,13.2,0.699999999999932,3.10000000000002,0,29.2,11.4,1.29999999999995,NA,NA,0.5,0,22.9,0.300000000000068,0,0.5,0,0,1,0,0,3,0.299999999999955,0,0,0,0,0.700000000000045,0,0
563,"KALAUPAPA 563","CIVIL AIR PATROL","COOP","MO",9,21.19014673,-156.9824624,"USC00512896",NA,NA,NA,NA,0,0,2.3,13.2,NA,NA,NA,35.8,13,NA,NA,NA,NA,NA,NA,0,0,0,NA,NA,NA,0,1.3,2.8,NA,NA,NA,NA,NA,0.5,0
672.1,"Lanai City","NWS","HydroNet-UaNet","LA",498.0432,20.8262997,-156.9182,"USC00515286","LANH1",NA,NA,NA,0,1.016,0,11.43,0,0,4.318,NA,0.508,3,0,0,0,12.192,14.732,NA,2.032,0,0,0,0,0,NA,NA,0.3,0,0,0.508,1.3,0.3,0
679,"LANAI 1","RAWS","RAWS","LA",387.096,20.87333333,-157.0063889,"USR0000HLAN","LNIH1","48702336",NA,NA,0,1,0.300000000000011,1.19999999999999,4.60000000000002,0,0,0,0,4.09999999999997,0,0,0,2,6.90000000000003,0,0,0,0,0,0,0,0,0,0,0,0,2,1.79999999999995,0,0
702.2,"HONOLULU OBSERV 702.2","USC&GEODETIC SURVEY","COOP","OA",2,21.313926,-157.999529,"USC00511918",NA,NA,NA,NA,NA,NA,0,3,0,0,0,0,0,0,0,0,NA,NA,0,0,0,0,0,0,0,0,1.8,0,0,0,0,0.3,0,0,0
702.7,"Kapolei-Kalaeloa AP","NWS","NWS","OA",15,21.31667,-158.06667,"USW00022551","HJR",NA,NA,NA,0,5.6,0,0,0,0,0,0,0,0,0,0,0,0,0,0,0,0,0,0,0,0,0,0,0,0,0,0,0,0,0
702.8,"PTWC","NWS","HydroNet-UaNet","OA",1.524,21.3150005,-157.9992,NA,"PTWH1",NA,NA,NA,0,11.938,0,3.048,0,0,0,0,0,0,0,0,0,0.762,0,0,0,0,0,0,0,0,1.778,0,0,0,0,0.254,0,0,0
703,"HONOLULU INTERNATIONAL AIRPORT","USWB","NWS","OA",2.1,21.324,-157.9294,"USW00022521",NA,NA,NA,NA,0,5.3,0,0,0,0,0,0,0,0,0,0,0,0,0,0,0,0,0,0,0,0,0,0,0,0,0.5,0.3,0.3,0,0
703.1,"HONOLULU FIRE STATION 703.1, HI US","COOP","COOP","OA",1,21.3287,-157.9298,"USC00511925",NA,NA,NA,NA,0,3,33,0,0,0,0,0,0,0,0,0,0,0.3,0,0,0,0,0,0,0.3,0,0,0,0,0,1.3,0,1.38700057572705,3.6,0
705,"BERETANIA PUMP STN 705","BWS","COOP","OA",6,21.305169,-157.8522571,"USC00510211",NA,NA,NA,NA,0,3.6,0,0,0,0,0,0,0,0,0,0,0,0,0,0.5,0,0,0,0,0,0,0.8,0.3,0,0.5,0.3,0.8,1.8,0.3,0
705.12,"Aloha Tower","NWS","HydroNet-UaNet","OA",38.1,21.3034,-157.8627,NA,"ALOH1",NA,NA,NA,0,3.556,0,0,0,0,0,0,0,0,0,0,0,0,0,0,0,0,0,0,0,0,0.508,0.268625545514189,0,0.254,0.254,0.254,0.254,0,0
706.5,"Niuhelewai HCC JD","J_Delay","PrivateObs","OA",2,21.32180556,-157.8694722,NA,NA,NA,NA,NA,0,4.2,0,0,0,0,0,0,0,0,0,0,0,0,0.3,0,0,0,0,0,0,0,0.6,0.6,0,1.3,1.2,1.5,3,0.6,0
707.2,"EWA KALAELOA AIRPORT","LYDECKER RC","STATE","OA",14,21.30489073,-157.8305905,"USW00022551",NA,NA,NA,NA,0,5.6,0,0,0,0,0,0,0,0,0,0,0,0,0,0,0,0,0,0,0,0,0,0,0,0,0,0,0,0,0
707.5,"HONOLULU 2.0 SW","CoCoRaHS","CoCoRaHS","OA",12,21.3004,-157.8293,"US1HIHN0023",NA,NA,NA,NA,0,1.8,1.8,0,0,0,0,0,0.8,0,0,0,0,1,3.3,1,0,0.3,0,0,0,0,0.5,1.3,0.3,0,1,0.3,2,2.5,0
709,"PUNCHBOWL CRATER 709","T MEM CEMETERY","COOP","OA",108,21.31016855,-157.846146,"USC00518316",NA,NA,NA,NA,0,2.8,2,0,0,0,0,0,0,0,0,0,0,0,1,1.8,0.5,0,0,0,0,0.5,0.3,1.3,0.3,0.5,2.5,0.5,4.3,3,0
711.6,"ManoaRGatKanewaiFld,Honolulu","USGS","USGS","OA",11.5824,21.29322222,-157.8127222,NA,NA,NA,NA,NA,0,1.94521531536801,0.0596080327675727,0.0357648196605436,0,0,0.574141723418512,0.678931932974217,0.452798960462173,0.104790209555706,0.178824098302718,0,0.119216065535145,8.35064467309327,3.28211991537252,0.815233567348079,1.86178091831956,0.276324721018256,0,0.333804983498407,0.59297643767369,0.324165537799438,1.10075248405632,0.996717378510074,0.0357648196605436,2.33989148140557,1.14001592947095,3.17996263818884,2.61723692033413,0.479918710751909,0.283614307858424
711.7,"H-1RainGageatKapiolaniAve","USGS","USGS","OA",6.096,21.28944444,-157.8155556,NA,NA,NA,NA,NA,0,2.30860984611347,0,0,0,0,0.219772087884281,0.274715109855351,0.284505028317496,0.0549430219710702,0,0,0,4.93887854773597,2.10957308652298,0.627977184408465,1.26368950533461,0.191481539846856,0,0,0.329658131826421,0.229562006346426,1.00400419729318,0.79978784053079,0,1.24225415305268,0.564040519327079,1.47663654055334,1.90078152274358,0.316796920457263,0.0824145329566053
712.1,"MANOA 712.1","BEAUMONT MRS J","COOP","OA",61,21.31044568,-157.8147571,"USC00516122",NA,NA,NA,NA,0,3.8,0,0,0.5,0,0,0.3,3.3,0.8,0,0,0.3,4.8,13.7,3.6,3.6,3.3,0,0,1.3,1.3,1.5,1.8,0.5,0.5,7.6,1,15.5,8.4,0.3
713,"UNIV OF HAWAII 713","UH MET DEPT","COOP","OA",24,21.29933514,-157.8167017,"USC00518815",NA,NA,NA,NA,0,2.5,0,0,0,0,0,0,0.5,0,0,0,0,2.5,5.6,1,0,0.8,0,0,0,0.5,1,2,0.265734540349853,0.561793733665743,1.21228206656306,0.327108955590148,2.24669038305478,1.49749020316974,0.145306718453462
715,"WAIALAE KAHALA","TINKER SPENCER","COOP","OA",15,21.27433592,-157.7880917,"USC00519185",NA,NA,NA,NA,0,0.8,2,0,0,0,0,0,0,0,0,0,1,2.3,3.6,0,0,0.8,0,0,0.3,0.5,0.3,1,0.3,0,0,0.3,0.3,0.3,0
716,"MANOA TUN 2 716","BWS","COOP","OA",198,21.32794416,-157.7914236,"USC00516130",NA,NA,NA,NA,0,6.31852670843746,1.44263858944537,18.8153973721185,15.0868511722632,3.54268694379576,57.2989748090325,32.2678733913425,15.1159346564442,5.00055970265769,1.42450749499349,1.75295857135789,2.6151970491576,53.9591138741379,38.5607097582539,13.2151885098002,6.43941384095128,1.73808667019282,0.115266555697191,2.9912901170584,6.97110069343166,1.36178862637567,4.23132990556987,2.42968600437597,0.362750069778541,6.39140159070396,12.0242162582461,24.0486396009717,7.68115369719639,5.23227350581699,5.88885308341609
717.2,"WAIKIKI 717.2","PURINTON J","COOP","OA",3,21.27183682,-157.8180917,"USC00519397",NA,NA,NA,NA,0,1,1.5,0,0,0,0,0,0,0,0,0,0,0.5,0,1,6.9,0,0,0,0,0,0,0.3,0,0,0,0,0,0,0
718,"PALOLO VALLEY 718","BWS","COOP","OA",302,21.32183297,-157.7717015,"USC00517664",NA,NA,NA,NA,0,4.1,1.3,14,11.4,5.6,79.5,51.6,16.5,1,1,1,2.3,68.6,50,19.1,7.1,1,0.3,3.6,5.8,1.5,4.3,2.8,0,4.8,6.9,21.6,6.6,2.8,4.1
720.6,"HONOLULU 2.7 SSE","CoCoRaHS","CoCoRaHS","OA",113,21.285,-157.7816,"US1HIHN0010",NA,NA,NA,NA,0,2,0,0,0,0,0,0,0.5,0.3,0,0,0.3,0.5,4.1,1.3,0.3,1.3,0,0,0,0.8,0.3,0.8,0.3,0,2.8,0.3,0.3,0.3,0
721,"WILHELMINA RISE 721","BWS","COOP","OA",335,21.29766804,-157.7853133,"USC00519980",NA,NA,NA,NA,0,2.8,0,0.3,0.3,0,0.8,1,1.5,0,0,0.5,0.8,18,3.6,0.8,6.9,0.3,0,0.3,1.5,0.5,2,1.3,0.3,3.6,1.3,2.5,1,0.8,0.5
721.4,"Palolo Fire Stn","NWS","HydroNet-UaNet","OA",59.436,21.2996006,-157.7944,"USC00517662","PFSH1","19014414",NA,NA,0,2.286,0,0,0,0,1.016,1.27,0.762,0.254,0,0,0,20.066,3.556,1.016,5.842,0,0,0,1.524,0.508,2.286,1.016,0,3.048,1.27,3.302,3.048,0.508,0.254
723.4,"PAIKO DRIVE 723.4","GRUBB DL","COOP","OA",3,21.28172556,-157.7282194,"USC00517540",NA,NA,NA,NA,0.5,2,0,0.3,0.5,0,0.8,0.3,0,0,0,0,12.2,3,0,0,0,0,0,0,2.8,0,0.8,0.3,0,1,0,0,0.3,0,0
723.8,"Niu Valley","NWS","HydroNet-UaNet","OA",19.812,21.2896996,-157.7332,"USC00516865","NIUH1","1900D38C",NA,NA,0,2.032,0.762,2.286,4.064,0.254,4.064,8.128,0.254,0.254,0,0.508,1.016,16.002,5.588,0.254,4.064,0,0,0,1.778,0.254,1.27,0.762,0.254,0,0,0,0,0.254,0
724.19,"HAWAII KAI GC 724.19","UNOAA-NWS","COOP","OA",9,21.29889,-157.66444,"USC00511308",NA,NA,NA,NA,0,1.524,0.254,0,0,0,0,0,0,0,0,0,0,2.54,0.762,1.016,0,0,0,0,2.032,0,1.524,0,0.254,0,0,0.508,0,0.254,0
724.21,"Kamehame","NWS","HydroNet-UaNet","OA",242.316,21.3085995,-157.6791,NA,"KMHH1","190046EE",NA,NA,0,2.032,0,0.254,0.508,0,1.524,0,0,0,0.508,0.254,0,5.842,0.254,0.508,0,0,0,0,1.016,0,0,0,0,0,0,0,0,0,0
728.2,"PALEHUA","RAWS","RAWS","OA",722.376,21.385,-158.1041667,NA,"PLHH1","4870F55E",NA,NA,0,6.29999999999995,0,1.80000000000001,0,0,0,0,0,0,0.199999999999989,0.300000000000011,0.199999999999989,1.60000000000002,1.69999999999999,0.300000000000011,0,0,0,0,0.5,0,0.300000000000011,0.5,0.199999999999989,0,0.5,6.60000000000002,0.299999999999955,0.5,0
740.5,"Kunia","NWS","HydroNet-UaNet","OA",85.0392,21.3869991,-158.0358,NA,"KUNH1",NA,NA,NA,0,6.604,0.254,0,0,0,0,0,0,0,1.27,0,0,0,0,0,0,0,0,0,1.524,0,2.286,0,0,0,0,2.286,0.254,0,0
741,"EWA PLANTATION 741","EWA PLANTATION","COOP","OA",12,21.3401713,-158.0339215,"USC00510507",NA,NA,NA,NA,0,9.27244052945826,0.275965491948163,2.1814493457378,0,0,0,0,0,0,0,0,NA,NA,0,0,0,0,0,0,0,0,1.30886960744268,0.44154478711706,0,0,0,0.43628986914756,1.65579295168898,0.165579295168897,0
742.4,"HONOULIULI PHB","FWS","RAWS","OA",1.524,21.35666667,-158.0205556,NA,"HOFH1","327BF39A",NA,NA,0,9.10000000000002,0,0,0,0,0,0,0,0,0.799999999999955,0.300000000000068,0,0.5,0,0,0,0,0,0,0.5,0,0,0,0,0,0,2.79999999999995,0.5,0,0
750,"WAIPAHU 750","OAHU SUGAR","COOP","OA",18,21.38683459,-158.0072536,"USC00519738",NA,NA,NA,NA,0,8.4,0.5,0,NA,NA,NA,0,0,0,0,NA,NA,NA,0,0,0,0,NA,NA,NA,0,0,0.8,0,NA,NA,NA,3,0.3,0
752.6,"WAIAWA PHB","FWS","RAWS","OA",1.524,21.38694444,-157.9811111,NA,"WWFH1","3274C092",NA,NA,0,8.39999999999998,0,0.700000000000045,0,0,0,0,0,0,6.39999999999998,0,0,1.20000000000005,0,0,0,0,0,0,2.10000000000002,0,0.5,0.199999999999932,0,0,0,3.80000000000007,0.299999999999955,0,0
764.6,"AIEA HEIGHTS 764.6","G FOWLER","COOP","OA",238,21.39488776,-157.91031,"USC00510123",NA,NA,NA,NA,0,4.3,6.4,0,0,0,0,0,1,0.8,0,0,0,2.5,6.9,1.3,0,0,0,0,2.5,0,0,1.3,1,1.3,2.8,0.8,4.8,0.8,0.8
764.7,"AIEA 0.7 ENE","CoCoRaHS","CoCoRaHS","OA",175,21.393,-157.9186,"US1HIHN0014",NA,NA,NA,NA,0,1.3,10.2,0,0,0,0,0,1,0.5,0,0,0,0.5,6.9,0.5,0,0,0,0,2,0,0,1.8,1.3,1,0.5,0.8,2.8,0.8,0.8
770,"MOANALUA 770","ROXBURGH J","COOP","OA",6,21.34794527,-157.8950332,"USC00516395",NA,NA,NA,NA,0,4.3,3.3,0,0,1,0,0,0,0,0,0,0,0,0,0,0,0,0,0,0.3,0,0,2.5,0,1,1.3,0.3,2.5,2,0
771.11,"N.HalawaValleyRGattunnel","USGS","USGS","OA",335.28,21.40488889,-157.8504444,NA,"TNLH1","DD75A524",NA,NA,0,9.906,2.032,14.224,2.794,6.35,87.376,31.242,10.414,9.144,1.778,1.778,4.318,53.848,57.15,0.508,1.016,1.016,0.254,2.286,11.938,0,7.62,2.032,4.064,5.334,17.526,16.002,2.54,4.318,3.556
771.9,"NHalawaRainGagenrHonolulu","USGS","USGS","OA",210.312,21.382,-157.9033333,NA,NA,NA,NA,NA,0,5.46446810368063,0.216837308073434,0.294179993599058,0,0,0.565002128193019,1.14549695743363,1.21611533895458,0.172400679421863,2.32335516723565,0,0.168737884148897,7.55514006430959,1.52783011436086,0.409054477208182,0.946793099161629,0.122200074155057,0,0.676513150526285,1.38443246312562,0.0506213652446691,0.865248050951466,0.566142982145853,0.56980577741882,3.722622562832,3.2824067877909,6.04724786564237,2.56433799078135,0.987448125106523,0.446885609288791
772,"MoanaluaRaingagenrHonolulu","USGS","USGS","OA",103.058976,21.37823611,-157.8700306,NA,NA,NA,NA,NA,0,7.91198377805268,1.27274872900091,5.89159919244098,4.48469986617255,0.471547540554486,23.239386174634,11.4987774155276,6.20836397455719,1.22280569417748,0.0658497304591105,0.760429514990869,1.31271041126369,26.620974977589,23.1310934070643,3.06129087873761,2.75895334501484,0.838711734359919,0.0523941711727207,1.21647535550606,5.58697222028319,0.315793093009163,2.00175473906759,1.31738449552938,0.646859697624721,4.73744797939888,9.64021165405813,14.8799974949064,5.5078588469504,3.29998652066845,3.30449890701986
772.1,"N.HalawaRaingagenrAiea","USGS","USGS","OA",97.536,21.39295833,-157.8908639,NA,NA,NA,NA,NA,0,5.99797806413264,0.238007687597995,0.322901536807462,0,0,0.620164727250835,1.25733474747337,1.33484778172495,0.189232597536329,2.55019025893524,0,0.185212194217319,8.29276766144101,1.67699606581751,0.448991509288407,1.03923092463813,0.134130779118965,0,0.742562855151598,1.51959813609444,0.0555636582651956,0.949724425355294,0.621416965685327,0.625437369004337,4.08607169980043,3.60287653568132,6.63765610088659,2.81470085027464,1.08385520447426,0.490516191298712
772.3,"MoanaluaRGNo.1atalt1000","USGS","USGS","OA",304.8,21.39338889,-157.8401111,NA,"MOGH1","1689664A",NA,NA,0,9.144,1.016,19.304,17.272,2.286,68.834,26.416,10.16,1.778,0,3.048,3.81,40.64,75.692,3.302,2.794,0.508,0.254,1.016,15.494,0.254,4.318,1.778,0.762,3.302,13.97,18.796,2.794,6.096,6.35
772.5,"Moanalua Stream","USGS","HydroNet-UaNet","OA",72.2376,21.3736,-157.8801,"USC00516400","MOAH1","1900B66A",NA,NA,0,7.874,0.254,0,0,0,0.508,1.524,2.54,0,0,0,0,10.414,2.032,0.254,0.254,0.254,0,0.508,2.286,0,1.524,0.762,0.762,2.794,6.35,8.89,3.302,1.778,0.508
772.6,"MoanaluaRaingagenrKaneohe","USGS","USGS","OA",350.52,21.38823333,-157.8486389,NA,NA,NA,NA,NA,0,7.46005109556834,2.88083791144318,14.2037525403038,9.23591087015413,1.17312411355264,46.6047563212978,23.4818553447061,10.5360144265241,3.56363437725685,0.207058342239785,1.30914219292841,2.23689509710216,43.2691778602018,41.9765560022614,7.64765070737405,5.44777844960095,1.76328927979825,0.0776270043841673,2.04067161975684,7.12378421651445,1.0153560058268,2.00189826684533,1.87136887115697,0.439939355392287,6.76045250075846,11.385964845502,19.0634943771858,7.48326287979675,4.44601069783328,6.04674296219783
773,"KAPALAMA 773","KAMEHAMEHA SCH","COOP","OA",188,21.33933391,-157.8567005,"USC00513268",NA,NA,NA,NA,0.5,1,4.6,0.3,0,0.451341146671087,0,0.3,0.3,0.3,0,0,0,1.78420985503599,0.5,0.3,0.3,0.3,0,0,0.764709208064909,0.3,0.3,0.8,0.3,0.892302480453976,3.02013799836499,0.564224069441325,5.86199674424441,3.3,0.5
775,"NUUANU RES 5 775","BWS","COOP","OA",125,21.339125,-157.835905,"USC00516933",NA,NA,NA,NA,0,4.8,0.5,0.3,0,0,2.5,2.8,0.8,0.3,1.5,0,1,18,5.3,2,2.3,0.3,0,2.8,1.5,0.3,1.5,1,0.3,10.9,5.6,16.3,8.6,1.8,1.8
777,"KALIHI RES SITE 777","BWS","COOP","OA",277,21.37516437,-157.8222555,"USC00512960",NA,NA,NA,NA,0,8.4,1.3,29,21.6,3,40.6,16.5,12.4,5.8,2.3,1.8,2.3,35.1,22.6,8.1,3.6,1,0,2,7.1,0,1,1,0.5,2.5,6.9,14,5.1,4.3,4.3
777.3,"Wilson Tunnel","NOAA-NWS","HydroNet-UaNet","OA",314.5536,21.3771,-157.8166,NA,"WITH1",NA,NA,NA,0,7.68305539674803,2.24528800505779,13.8552974317991,8.00796908125896,0.356249330155553,37.8932060232349,17.773391544629,10.6818690223958,2.78054370094866,3.89910989935828,2.94257173464442,1.32772084637263,39.8542885314769,20.7897781368957,9.46575239348274,3.27738964351148,1.70066883508835,0,2.52508095673349,4.92916655727563,0.959173968345871,3.50624569332664,1.76879174378802,0.17607229194268,5.74915897155058,9.60372608171365,17.8457541505524,7.31330255862312,5.00680839343055,6.38375090742488
780.5,"TANTALUS 2 780.5","NEWMAN N","COOP","OA",404,21.32711168,-157.8239234,"USC00518738",NA,NA,NA,NA,0,4.31217056150492,5.08124211412979,1.33622481422722,1.61460498385789,0.139190084815336,8.90816542818147,5.01084305335208,3.9944460930554,2.566417691079,0.0835140508892013,0.556760339261342,0.695950424076678,13.5076243784665,13.9962123759797,3.21349691489795,1.97649920437776,0.835140508892013,0,0.695950424076678,3.45810025479927,0.695950424076678,1.92082317045163,1.79375804978153,0.806483604326365,2.93974176936713,8.61247191593118,6.73912153836794,11.0447014519017,5.53487530619671,2.02978679245885
781,"KANEOHE MAUKA 781","STATE HOSPITAL","COOP","OA",61,21.40849568,-157.8105878,"USC00513113",NA,NA,NA,NA,0.106947591554558,3.46170576620255,4.84401321300957,10.1773565167718,12.8872473888458,2.78986851440152,29.9497711095287,25.4308829621049,14.6418797949189,2.07510854017867,1.77219614117477,1.1177938467196,1.24289607856107,25.0915051765589,19.1180545811647,7.56327876834366,2.91231775346174,0.819383316473223,0.3522623788568,1.28348296326528,5.99042963772506,0.335344006889893,1.20064815978246,1.04355013881683,0.654402294455174,1.67142250545958,3.7286882356832,9.81941819682443,3.97946096313054,2.18982673276909,2.30221221948274
781.11,"LulukuRaingageatalt","USGS","USGS","OA",67.056,21.39184444,-157.809475,NA,NA,NA,NA,NA,0,10.668,1.778,26.924,16.256,0.762,44.196,18.288,4.572,2.286,9.652,4.572,0.762,14.478,13.208,13.462,0.762,0.762,0,0.508,6.096,0,1.524,1.13915729403569,0.254,0.254,5.842,4.064,2.032,4.064,0.762
781.13,"KANEOHE 0.8 SW, HI US","CoCoRaHs","CoCoRaHs","OA",20,21.4039,-157.8017,"US1HIHN0027",NA,NA,NA,NA,0,6.4,7.1,1.5,15,0.5,1.3,34.8,11.2,NA,3.6,10.4,1,4.8,3,34,2.5,0.3,0,0,6.4,1.3,0.3,2.3,0.8,NA,0,5.6,0.5,2,NA
781.7,"LULUKU 781.7","NWS","COOP","OA",84,21.3873,-157.8098,"USC00515655",NA,NA,NA,NA,NA,NA,0.5,35.8,7.4,NA,NA,NA,NA,NA,NA,NA,NA,NA,NA,NA,NA,NA,0,6.6,0,0,NA,NA,0,NA,NA,NA,NA,NA,1.8
781.9,"RBKamooaliiRaingagenrKaneohe","USGS","USGS","OA",59.484768,21.38628889,-157.7928083,NA,NA,NA,NA,NA,0,5.10506375116335,1.4186621022613,12.7859209112331,7.23323409785599,0.579577531939686,23.4445061610899,11.3981980285755,3.87535235805031,1.96254412692592,3.32099716061276,1.66210499488246,0.455237792435874,13.3246922616249,10.8334955704787,6.79084762202873,1.32561596896256,0.753653167245023,0,0.618485868366906,2.54771263185344,0.373019218511436,0.711532001665648,0.746038437022872,0.160035246778879,1.47803648551929,3.5564709364104,4.32618824941619,2.07605630705543,2.06320499044681,1.32561596896256
782.3,"Nuuanu Upper","NWS","HydroNet-UaNet","OA",248.412,21.3502007,-157.8184,"USC00516938","NUUH1","156097FE",NA,NA,0,6.35,3.556,7.366,3.556,0,33.782,20.066,10.414,3.302,0.254,0.508,2.032,48.006,24.638,8.636,7.874,2.286,0,2.794,4.318,1.016,1.016,2.032,0.254,9.652,12.446,23.368,11.938,4.064,6.604
783,"NUUANU RES 4 783","BWS","COOP","OA",320,21.35266525,-157.807534,"USC00516928",NA,NA,NA,NA,0,6.1,3.3,15,7.1,1.3,34.5,21.1,9.4,4.8,0.3,0.5,0.8,34,25.7,9.1,4.3,2,0,1.8,2,1.5,0.8,1.5,0.3,5.6,6.4,11.9,5.6,2.8,4.3
784,"PAUOA FLATS 784","BWS","COOP","OA",549,21.33516641,-157.8105899,"USC00517810",NA,NA,NA,NA,0,4.1,1.3,4.8,5.8,0.5,32,18,11.7,7.1,0.3,2,2.5,41.9,32,8.1,7.1,3,0,2.5,5.8,2.5,6.9,3,0.5,11.2,20.8,31.8,9.7,7.6,8.1
785.4,"Manoa Lyon Arbo","NWS","HydroNet-UaNet","OA",151.7904,21.3330002,-157.8024,"USC00516128","MNLH1",NA,NA,NA,0,6.858,2.032,4.826,2.54,0.254,44.704,19.558,24.638,3.81,0.254,4.318,1.778,84.328,35.052,6.858,2.54,3.048,0,6.35,5.334,2.794,11.176,3.81,0,11.684,15.24,39.37,12.446,9.398,17.526
787.1,"MAUNAWILI 787.1","HSPA","COOP","OA",127,21.351,-157.7668,"USC00516222",NA,NA,NA,NA,0,6.87684959286324,2,24.3755674252679,7.04098698658613,0.216886664559446,31.0145673933891,19.4617875945123,3.98800667860643,1.99047386842568,10.2136628849589,1.68639603844387,0.742973490143038,22.5113456271223,16.5182341127561,17.6105973134618,2.72137931713756,1.33169028597962,0.0760663189292561,3.65863802201333,2.29036194307167,0.228198956787768,0.66671674234757,1.32378777829019,0.0722955548531487,2.2859592803905,6.62509661382866,6.86442893668004,3.52650019113644,3.19776467489789,1.98371858690306
787.2,"Maunawili","NWS","HydroNet-UaNet","OA",127.1016,21.3509998,-157.7668,NA,"MAUH1","19007374",NA,NA,0,7.62,5.08,37.084,8.128,0.254,46.228,45.466,3.81,4.064,8.382,1.27,2.032,33.782,35.814,43.942,0,0.254,0,0.508,4.318,2.032,2.794,1.016,0,1.016,3.302,3.81,0.508,2.032,2.032
788,"ST STEPHENS SEMINARY","ST STEPHEN SEMIN","COOP","OA",143,21.3666,-157.7785,"USC00518601",NA,NA,NA,NA,0,6.46121473588855,2.01383588698518,20.1904925755507,8.986252108342,0.725604134013072,28.5806047752129,16.5828008826024,2,2.16780653245183,3.39204176939901,0.8,0.671672347498135,16.9984350364495,14.05324947234,15.7237449915735,1.52403960688204,0.927822475691737,0.069282336723594,0.8,1,0.3,0.5,0,0,0.575180645477184,4.73822795793157,4.00282471969145,1.70161519370294,2.84968770574628,1.3
788.1,"PALI GOLF COURSE 788.1","C&C PARKS & RECR","COOP","OA",146,21.37183016,-157.7839226,"USC00517656",NA,NA,NA,NA,0,2,9.9,3,26.1390168371414,0,4.00798258169501,61,24.4,3,1.8,0.522780336742827,11.5011674083422,11.5011674083422,7.6,25.9,31.2,0.522780336742827,0.871300561238045,NA,NA,0.871300561238045,0.3,1,0,0.522780336742827,0.522780336742827,6.62188426540914,0.871300561238045,3,2.8
788.2,"St Stephens Seminary","NWS","HydroNet-UaNet","OA",142.9512,21.3666992,-157.7786,NA,"STVH1","19005598",NA,NA,0,8.128,4.318,29.718,3.556,0,36.576,32.766,1.27,2.032,1.778,0.762,0.254,25.908,24.384,39.624,2.54,2.032,0.254,0,1.016,0.762,0.254,0.508,0,0.254,7.366,1.778,1.016,3.81,1.016
790.11,"Olomana Fire Stn","NWS","HydroNet-UaNet","OA",45.1104,21.3777008,-157.7507,"USC00517052","OFSH1","19011468",NA,NA,0,8.128,4.318,10.922,5.334,1.016,2.032,2.032,0,0,6.35,1.016,1.016,13.97,8.636,37.592,0,0,0,0,0.254,0.254,0,0.254,0,0,0.762,0,0,1.524,0
793.1,"WAIMANALO EXPERIMENTAL FARM","CoCoRaHS","CoCoRaHS","OA",38,21.3727,-157.725,"US1HIHN0022",NA,NA,NA,NA,0,2.3,3.3,0,4.8,0,0.8,0,0.8,0,0,1.5,0.5,6.6,2.3,1.8,1.3,0,0,0,0,0,0.5,0.5,0,0,0.3,0.3,0,0.8,0.8
795.1,"WAIMANALO EXP F 795.1","HAES","COOP","OA",18,21.33516407,-157.7105906,"USC00519523",NA,NA,NA,NA,0,2,3.3,0,8.1,0.5,0.5,1,0,0,2.8,2.8,0,2.5,3,0,0,0,NA,NA,0,0,0,0,0,NA,NA,0,0,0,0
