"SKN","Station.Name","Observer","Network","Island","ELEV.m.","LAT","LON","NCEI.id","NWS.id","NESDIS.id","SCAN.id","SMART_NODE_RF.id","X2023.06.01","X2023.06.02","X2023.06.03","X2023.06.04","X2023.06.05","X2023.06.06","X2023.06.07","X2023.06.08","X2023.06.09","X2023.06.10","X2023.06.11","X2023.06.12","X2023.06.13","X2023.06.14","X2023.06.15","X2023.06.16","X2023.06.17","X2023.06.18","X2023.06.19","X2023.06.20","X2023.06.21","X2023.06.22","X2023.06.23","X2023.06.24","X2023.06.25","X2023.06.26","X2023.06.27","X2023.06.28","X2023.06.29","X2023.06.30"
3.9,"LOWER KAHUKU CS","LOWER KAHUKU CS","RAWS","BI",953.7192,19.10083333,-155.6697222,NA,"LKHH1","32D620C2",NA,NA,0,0,0,0,2.54000000000042,0,0,0,0,0,0,0,0,0,0,0,0,0,0,0,0,0,2.53999999999996,0,0,0,0,NA,5.07999999999993,5.07999999999993
9.2,"Nene Cabin","Nene Cabin","RAWS","BI",1991.7737,19.2564,-155.6144,NA,"NENH1","32D64524",NA,NA,1.52400000000011,4.31799999999987,2.03200000000004,3.048,1.77800000000002,1.778,0,0,0,0,0,0.253999999999905,0,1.778,6.60399999999993,0,0.254000000000133,0.254,0.762000000000057,3.048,1.524,0.507999999999925,7.62000000000012,0.253999999999905,0,0,8.89,0.762,2.7940000000001,0
21,"Pahala","KAU SUGAR","HydroNet-UaNet","BI",346.8624,19.2042999,-155.4872,"USC00517421","PPLH1","B16084B2",NA,NA,2.7940000000001,0,0,24.384,9.14400000000001,0,0.253999999999905,0.253999999999905,0,0,0,0,0,0,0,0,9.14400000000001,3.81000000000017,6.60400000000004,10.6679999999999,0,0,0,0,0,0,0,0,0,0
23,"KAHUKU","RAWS","RAWS","BI",1796.4912,19.23222222,-155.78,NA,"KRCH1","32639544",NA,NA,11.684,11.4299999999999,1.77800000000002,7.36599999999999,6.096,4.06400000000008,3.55599999999981,3.81000000000017,1.01599999999996,2.28599999999994,2.28600000000006,4.06399999999996,0,0.508000000000038,3.30199999999991,0.508000000000038,0,0.254000000000019,3.55599999999993,12.1920000000001,4.31799999999987,2.54000000000008,0.508000000000038,7.36599999999999,2.54000000000008,0.253999999999905,4.82599999999991,1.01600000000008,0.508000000000038,2.79399999999998
27.6,"Honaunau No. 2","NWS","HydroNet-UaNet","BI",398.0688,19.4629002,-155.8824,NA,"HAUH1","15D12742",NA,NA,10.414,19.558,0,2.54000000000008,0.253999999999905,0.254000000000019,4.06400000000008,2.53999999999996,0.507999999999925,17.018,2.53999999999996,6.096,0,0.761999999999944,9.65200000000004,0.253999999999905,1.01600000000008,12.954,18.1519835895277,19.9416157744106,22.606,1.77800000000002,7.36599999999999,10.16,6.85800000000006,0,2.28599999999994,1.524,1.26999999999998,4.82599999999991
29.12,"Kealakekua","NWS","HydroNet-UaNet","BI",537.972,19.5181007,-155.9159,NA,"KLEH1","81708572",NA,NA,9.39800000000002,23.3679999999999,0,5.08000000000004,0,0,11.4299999999999,0.762000000000057,0,7.11199999999997,3.81000000000006,4.82599999999991,0,0.508000000000038,6.34999999999991,4.572,3.55600000000004,0.508000000000038,18.034,19.8119999999999,28.1940000000002,0.253999999999905,0.507999999999925,14.9860000000001,1.77800000000002,0,4.572,0.507999999999925,1.2700000000001,9.14400000000001
34,"Kapapala Ranch","NWS","HydroNet-UaNet","BI",638.556,19.2754993,-155.4514,"USC00513300","KAYH1","B16097C4",NA,NA,9.14400000000001,0,0,22.3519999999999,21.5900000000001,1.77800000000002,2.53999999999996,0,0,0,0,0,0,0,0,0,18.796,3.55600000000004,12.192,7.11200000000008,0.253999999999905,0,1.77800000000002,0,0,0,0,2.03199999999993,0,0.254000000000133
36.3,"KAPAPALA RANCH","KAPAPALA RANCH","RAWS","BI",1081,19.25811,-155.441781,NA,"KPRH1","AA10E258",NA,NA,5.58799999999997,0,0,8.88999999999987,0.254000000000133,0.253999999999905,0.254000000000019,0.254000000000133,0,0,0,0,0,0,0,0,0,5.07999999999981,20.3200000000002,2.03199999999993,0,0,0,0,0,0,0,1.01599999999996,0,0
38.9,"KAELAKOMO","KAELAKOMO","RAWS","BI",29.5656,19.29277778,-155.1075,NA,"KMOH1","32807432",NA,NA,1.52399999999966,0,0,0,0,0.762000000000171,0.508000000000038,0,0,0,0,0.253999999999905,1.01600000000008,7.87400000000002,3.55600000000004,1.52399999999989,0,0,0,0,0.508000000000038,1.26999999999998,4.57199999999989,2.28600000000006,0.254000000000133,1.26999999999998,0.253999999999905,0,0,0
39,"Mauna Loa Observatory","NWS","ESRL/GMD","BI",3397,19.5362,-155.5763,"USC00516198","MOBH1",NA,NA,NA,0,0,0,0,0,0,0,0,0,0,0,0,0,3.81,0.254,NA,0,0,0,0,0,0,0,0,0,0,0,0,0,0
43.3,"PUHE CS","PUHE CS","RAWS","BI",34.126,20.025,-155.8211111,NA,"PHRH1","32D61558",NA,NA,0,7.36599999999999,0,0,0,0,0.507999999999925,0.762000000000057,0,8.88999999999999,0,0,0.507999999999925,0,0.254000000000019,0,0.762000000000057,1.26999999999998,1.26999999999998,22.352,3.55600000000004,0.507999999999925,0,1.52400000000011,3.30199999999991,0,1.01600000000008,0,0,0
47,"KEMOKU LAVA FLOW","RAWS","RAWS","BI",1706.88,19.47555556,-155.3627778,"USR0000HKEA","KKUH1","FA4447E8",NA,NA,3.55600000000004,1.26999999999998,0,0,0,0.254000000000133,0,0,0,0,0,0,0.254000000000133,0,0,0,0.253999999999678,0.254000000000133,5.33399999999983,0.508000000000266,0.507999999999811,0.508000000000038,2.28600000000006,0.254000000000133,0,0,0.253999999999678,0,0,0
48,"PALI 2","RAWS","RAWS","BI",847.344,19.3175,-155.2922222,"USR0000HPAL","PLIH1","FA900222",NA,NA,NA,0,0,NA,0,0,0,0,0,0,0,0,0,0,0,0,0,0,4.06400000000008,0,0,0,0.253999999999905,0.761999999999944,0.254000000000133,0,0,0,0,0
54.2,"Glenwood","HELBUSH XL","HydroNet-UaNet","BI",802.2336,19.5076008,-155.1707,"USC00510744","GLNH1",NA,NA,NA,11.811819100411,4.55861913476387,0,6.858,0.508,5.91236526606785,9.398,0,2.286,0.254,0,1.27,3.32372261682854,6.26091024062791,17.4679971701576,1.97818934866977,8.128,7.874,7.23028287342929,6.096,8.89,2.794,26.9909991565424,8.39193423931948,10.668,6.858,5.842,7.01990668170327,0,0
63,"KALOKO-HONOKOHAU","RAWS","RAWS","BI",7.62,19.67277778,-156.0202778,NA,"KHOH1","FA667668",NA,NA,0,1.26999999999995,0,12.192,0,0,5.84200000000001,0.762,0,0.507999999999981,2.54000000000005,0,0,0.253999999999991,14.224,0,0,0,1.524,1.01600000000002,0,0,0,0,0,0,0,0,6.096,0
68.21,"KAILUA KONA KE AHOLE AIRPORT","KAILUA KONA KE AHOLE AIRPORT","NWS","BI",27,19.73556,-156.04889,"USW00021510","PHKO",NA,NA,NA,0,0,0,4.572,1.016,0,0,0,0,1.016,0,0,0,0,13.208,NA,0,0,2.286,0,0.254,0,0,0,0,0,0,0,0,0
70.16,"Waiaha Stream","NWS","HydroNet-UaNet","BI",460.5528,19.6331997,-155.9486,NA,"WIHH1","9321011E",NA,NA,3.55600000000004,9.90599999999995,0.507999999999925,10.9220000000001,0,0,3.048,3.80999999999995,2.54000000000008,6.85799999999983,7.11200000000008,5.4374136720854,0,4.31799999999998,5.84199999999998,8.88999999999999,6.60400000000016,1.52399999999989,6.096,25.4,37.3380000000001,0.253999999999905,2.28600000000006,1.01600000000008,3.30199999999991,2.53999999999996,3.30199999999991,0,19.5580000000002,4.57199999999989
75.1,"PTA KIPUKA ALALA","RAWS","RAWS","BI",1641.348,19.66694444,-155.7077778,"USR0000HPTK","PKAH1","32666200",NA,NA,0.508000000000038,0,0,0.761999999999944,0.254000000000019,0.508000000000038,1.26999999999998,0.253999999999962,NA,0,0,0,0,0,0,0,0,0,0,0,0,0,0,0,0,0,0,1.01600000000002,0.254000000000019,0
79.6,"Kulani NWR","NWS","HydroNet-UaNet","BI",1623.3648,19.5543995,-155.3089,NA,"KNWH1",NA,NA,NA,4.318,2.15048539699573,0.762,0.254,2.286,3.048,1.016,0,0,0,0,0.254,2.794,2.64437172662885,6.72256358959871,1.61383933335228,4.318,0.254,2.794,4.064,5.08,4.826,16.256,5.842,5.334,3.81,6.35,6.35,1.27,0.254
83,"QuarryRainGageatSaddleRd","USGS","USGS","BI",1286.256,19.68586111,-155.2942222,NA,"SDQH1","DDF6B6E4",NA,NA,6.096,2.79399999999998,3.80999999999995,0,0,5.33400000000006,0.254000000000019,0,0,0,0,0,6.85799999999995,3.55600000000004,12.192,4.31799999999998,6.096,0.761999999999944,4.572,10.6680000000001,7.11199999999985,7.61999999999989,32.5120000000001,10.16,6.60400000000004,5.84199999999998,13.4620000000001,12.6999999999999,1.26999999999998,0
85.2,"Waiakea Uka","NWS","HydroNet-UaNet","BI",303.8856,19.6585999,-155.1277,"USC00519084","WKAH1",NA,NA,NA,13.208,4.064,6.604,2.794,0,7.366,0.508,0,1.778,0.254,0,0,3.302,5.842,11.938,1.81516934582755,8.89,0.762,9.144,6.604,6.096,1.016,25.146,8.89,11.176,15.494,27.94,2.97940825517128,5.842,0.254
87,"HILO INTERNATIONAL AIRPORT 87","NWS","HydroNet-UaNet","BI",11.6,19.7191,-155.053,"USW00021504","PHTO",NA,NA,NA,3.81,1.778,0,0,0.254,4.318,2.286,1.524,0.508,0,1.27,0.254,8.382,3.81,5.08,1.51154505257009,1.016,0,4.064,2.032,1.27,1.778,20.32,4.064,5.588,6.604,17.272,0.508,1.778,0
88.8,"Waiakea Exp Farm","UNIV HAWAII","STATE","BI",183,19.644743,-155.0805636,NA,"WEXH1","CD07410A",NA,NA,11.684,5.588,1.778,0,0.508,3.048,0.254,0.254,0,0.254,0.254,0,NA,NA,12.954,NA,NA,0,5.08,5.334,4.826,NA,21.59,4.572,3.556,9.144,25.146,0,0,0.254
89.11,"Piihonua","NWS","HydroNet-UaNet","BI",296.8752,19.7098007,-155.1395,"USC00518053","PIIH1",NA,NA,NA,12.7,6.35,3.81,1.016,0,4.572,0.508,0,2.032,0,0,0,2.032,5.81172832453612,16.002,1.68956876576967,14.224,1.778,6.604,7.62,6.096,2.032,25.908,6.096,12.192,12.192,23.876,0.565423517355037,8.382,0
89.15,"HONOLII STREAM NEAR PAPAIKOU NEAR HILO 3N ","USGS","USGS","BI",522.23157,19.7667,-155.1544,NA,"NLIH1","D114953C",NA,NA,9.65200000000004,7.11200000000008,0.76199999999983,1.2700000000001,0,4.06399999999996,0.762000000000057,0,11.4299999999998,1.52400000000011,0,0.253999999999905,4.06400000000008,5.33400000000006,11.9379999999999,10.6680000000001,12.954,4.06400000000008,7.61999999999989,7.87400000000014,7.87400000000002,4.06399999999985,26.9240000000002,31.2420000000002,6.34999999999991,8.38200000000006,35.8139999999999,6.34999999999991,2.28600000000006,0.253999999999905
91.15,"Mountain View","Mountain View","HydroNet-UaNet","BI",346.5576,19.5674992,-155.0841,NA,"MTVH1",NA,NA,NA,9.398,9.398,3.556,0.254,0.254,13.97,0.508,0.762,5.08,0,1.016,1.524,11.684,5.588,12.954,NA,6.604,0.254,15.494,2.032,1.27,6.604,17.78,10.922,6.858,15.24,26.162,0.762,0.508,0.254
91.9,"Pahoa Beacon","NWS","HydroNet-UaNet","BI",187.1472,19.5149994,-154.9644,NA,"PHAH1",NA,NA,NA,9.398,1.27,4.826,0.508,2.794,10.922,1.778,1.016,0.762,1.524,5.08,0.508,19.304,6.35,14.478,0.92594369073226,1.524,0.508,5.588,1.524,1.016,10.414,19.7006900059717,6.604,0.762,5.588,25.4,0,3.556,1.27
92.5,"KiholoRainGage","USGS","USGS","BI",283.96692,19.82580556,-155.8925833,NA,"KIRH1","DD60236E",NA,NA,19.812,0,0,10.922,0.762,0,0.253999999999991,0,0,0,0,0,0,0.507999999999981,0,0,0,0,0,0,9.39800000000002,0,0,0,0,0,1.26999999999998,16.51,2.79400000000001,0
93.12,"PUUANAHULU","RAWS","RAWS","BI",830.58,19.83277778,-155.7697222,NA,"PULH1","48703040",NA,NA,0,0,0,1.26999999999998,0,0.254000000000019,2.79399999999998,0,0,0,0,1.26999999999998,2.03200000000004,0,0.507999999999925,0,0,3.048,0.762000000000057,1.01599999999996,0,0,0,0,0,0,0,7.62,0,0
94,"KAUPULEHU LAVA FLOW","RAWS","RAWS","BI",372.1608,19.80333333,-155.9180556,NA,"KPLH1","4870E628",NA,NA,10.16,0,0,1.27000000000004,1.77799999999996,0,0.762,0.254000000000019,0,0,0,1.524,0,0,0,0,0,0,0,0,0.253999999999962,0,0,0,0,0,0,4.572,18.288,0
94.5,"PUU WAAWAA","RAWS","RAWS","BI",708.9648,19.795,-155.8452778,"USR0000HPUW","PWWH1","487046D0",NA,NA,0.508000000000038,1.01600000000002,0,5.33399999999995,0,0,1.77800000000002,0.254000000000019,0,0,0.253999999999962,2.03200000000004,2.286,0,3.30199999999996,0,0,0,0,0,1.01600000000002,0,2.03200000000004,0,0,6.34999999999997,1.26999999999992,8.12800000000004,0,0
95.6,"WAIKOLOA","RAWS","RAWS","BI",297.7896,19.92416667,-155.7936111,NA,"WKVH1","4870C0C4",NA,NA,0,0,0,0.508000000000003,0,0,0.253999999999991,0,0,0,0,0,0,0,0,0,0,0.508000000000003,0,0,0,0,0,0,0,0,0.508000000000003,2.794,0,0
98.2,"PUHO CS","PUHO CS","RAWS","BI",29.5656,19.42194444,-155.9075,NA,"PERH1","32D6803A",NA,NA,0,NA,0,13.208,0,0,0,0,0,0,0,0,0,0,0,0,0,0,0,0,NA,0,0,0,0,0,0,0.253999999999962,0,0
99,"PTA WEST","RAWS","RAWS","BI",1307.592,19.77166667,-155.7022222,"USR0000HPTW","PKWH1","32667176",NA,NA,1.52399999999994,0,0,0.508000000000038,2.03199999999998,NA,5.334,0,0,0,0,NA,0,NA,0,0.254000000000019,0,0,0,0,0,0,0,0,0,0,0,1.524,0,NA
101.1,"PTA KEAMUKU","RAWS","RAWS","BI",1025.9568,19.90222222,-155.6786111,NA,"PKMH1","328FB7BE",NA,NA,0,0,0,0,0,0.762,6.858,0,0,0,0,0,3.048,0,0,0,0,0,0,0,0,0,0.761999999999993,0,0,4.318,0.254000000000005,2.286,0.254000000000005,0
102.8,"AUHMOA","RAWS","RAWS","BI",2001.9264,19.83638889,-155.6130556,NA,"AHMH1","4870D3B2",NA,NA,0,0,0,0,0.253999999999962,1.27000000000004,3.048,2.286,3.81,0.254000000000019,0.253999999999962,3.81000000000006,4.06399999999996,0.253999999999962,0,0,0,0,0,3.30200000000008,0,0,1.77799999999991,0.254000000000019,0,0.762000000000057,2.286,6.85799999999995,0.762000000000057,0
107.4,"PTA EAST","RAWS","RAWS","BI",1959.864,19.68277778,-155.5452778,"USR0000HPTA","PTAH1","3266D18E",NA,NA,0.254000000000019,0,0,0,0,0,0,0,0,0,0,0,0,0,0,0,0,0,0,3.55599999999998,0,0.254000000000019,0,0.253999999999962,0,0,0,0,0,0
109,"PTA RANGE 17","RAWS","RAWS","BI",1734.312,19.74583333,-155.6261111,NA,"PTRH1","3279630C",NA,NA,3.80999999999997,0,0,0,0,0.762,0.507999999999981,0,0,0,0,0,0,0,0.254000000000019,0,0,0,0,0,0,0,0,0,0,0,0,0.253999999999962,0,0
113.2,"PUU MALI","RAWS","RAWS","BI",2165,19.92666,-155.44,NA,"PMLH1","3181742E",NA,NA,0,0,0,0,0,0.254000000000133,1.77800000000002,0,0,0,0,0,0.507999999999925,0,0,0,0,0,2.28600000000006,0,0,0,0,0,0,0,0,0,0,0
129,"HAKALAU","RAWS","RAWS","BI",1950.72,19.82111111,-155.3305556,"USR0000HHAK","HKUH1","8374D370",NA,NA,7.62000000000012,1.01600000000008,2.28599999999983,0.254000000000133,0.593107721056243,1.26999999999998,0,0,0,0,0,0,1.26999999999998,0.761999999999944,2.03200000000015,0.253999999999905,0.253999999999905,0.253999999999905,1.77800000000002,1.52400000000011,2.28600000000006,3.80999999999995,7.87400000000002,3.80999999999995,1.52399999999989,0.508000000000266,5.33399999999983,1.77800000000002,1.26999999999998,0
133.3,"Laupahoehoe","NWS","HydroNet-UaNet","BI",499.872,19.9792,-155.2372,NA,"LPHH1","B159741A",NA,NA,0,2.79399999999987,0,0,0,0.253999999999905,0.253999999999905,0,0.25400000000036,0,0,0,0.253999999999905,0,0,0.761999999999716,1.77800000000025,1.52400000000034,2.53999999999951,0,0,3.30200000000013,18.0340000000001,17.7800000000002,2.0319999999997,4.82600000000002,16.2559999999999,0.762000000000171,4.57199999999966,0
140.6,"Papaikou Well","NWS","HydroNet-UaNet","BI",345.6432,19.7884998,-155.1313,NA,"PPWH1",NA,NA,NA,1.27,9.144,1.524,1.016,0,5.08,0,0.254,2.54,1.524,0,0,5.842,4.064,7.62,NA,1.778,8.128,3.81,7.874,6.604,2.794,22.606,26.162,4.826,16.002,20.32,1.27,0,0
147.2,"KOHALA RANCH","KOHALA RANCH","RAWS","BI",328.8792,20.08305556,-155.8325,NA,"KHRH1","4870B654",NA,NA,0.253999999999962,0.254000000000076,6.858,10.922,0,0,0,0,0,0,0,0,0.762,0,0.508000000000038,0,0,7.36599999999993,5.58800000000002,0,6.60400000000004,0.253999999999962,0,0,0,0,0,2.286,0,0
160.3,"Upolu Airport","NWS","HydroNet-UaNet","BI",34,20.265,-155.8582,NA,"UPLH1","B15017A0",NA,NA,0.253999999999991,0,0,0,0,1.27000000000001,0,0,0,0,0.507999999999996,0,0.50800000000001,0,1.27,0,0,0,0,0,0,1.524,1.77800000000001,7.11199999999999,1.524,1.77800000000001,7.11199999999999,0,0,0
176.3,"Kahua Ranch HQ","KAHUA RANCH","HydroNet-UaNet","BI",987.552,20.1249008,-155.7884,NA,"KASH1","15D293C2",NA,NA,0.253999999999905,0,0,0,0,0.507999999999811,0.508000000000266,0,0.253999999999451,0.762000000000171,0,0.25400000000036,0.253999999999905,0.253999999999905,0,0,0,0,0,0,0,1.26999999999998,3.04799999999977,5.08000000000038,1.52399999999989,3.04799999999977,6.34999999999991,1.52400000000034,1.77800000000025,0
185.7,"KawainuiRainGagenearKamuela","USGS","USGS","BI",1237.488,20.08533333,-155.6811667,NA,"KWSH1","DDF6A592",NA,NA,9.90600000000001,3.30199999999996,0.508000000000038,2.03200000000004,1.77800000000002,26.9239999999999,2.286,0,1.01599999999996,4.06400000000002,0.253999999999905,0.507999999999981,6.60400000000004,2.03199999999998,0.254000000000019,1.524,7.11200000000002,4.31799999999998,2.03200000000004,1.52399999999994,1.77800000000002,2.03200000000004,6.60400000000004,10.9219999999999,4.06400000000008,10.16,41.91,19.558,7.62000000000002,0.254
192.7,"Kamuela Upper","NWS","HydroNet-UaNet","BI",948.5376,20.0319996,-155.6667,"USC00513080","KUUH1","817075F6",NA,NA,1.52400000000006,0.761999999999887,0,0,0,6.35000000000002,0,0,0,0,0,0,1.27000000000004,0,0,0,0,0,0,0,0,0,0,1.01599999999996,1.01600000000008,2.53999999999991,8.38200000000006,8.88999999999993,0.254000000000076,0
215.5,"Honokaa","NWS","HydroNet-UaNet","BI",591.9216,20.0656,-155.49,NA,"HNKH1","B15047DC",NA,NA,0,2.79399999999896,0,0,0,0.254000000000815,0,0,0,0,0,0,0,0,0,0,0,0.507999999999811,0,0,0.761999999999716,0,0,1.52399999999943,0.50800000000072,0.761999999999716,7.8739999999998,0.762000000000626,0,0
250.2,"Ulupalakua Ranch","NWS","HydroNet-UaNet","MA",581.5584,20.6487999,-156.3981,NA,"ULUH1","8170531A",NA,NA,2.79399999999998,0,6.858,1.77800000000002,2.53999999999996,5.33400000000006,0.253999999999905,0.762000000000057,0,0,0,0,2.79399999999998,0,3.80999999999995,0,0,2.28600000000006,0,0,1.524,0,0,0,0,0,0,0.508000000000038,0,NA
255,"KepuniGulchRainGage","USGS","USGS","MA",225.552,20.6195,-156.2518889,NA,"KPNH1","F000D4EA",NA,NA,0,0,0,0,0,0,0,0,NA,0,0,0,0.254,0,1.778,0,0,0,0,0,0,0,0.254,0.508,0,0,0,0,0,0
266,"KAUPO GAP","RAWS","RAWS","MA",1228.344,20.68416667,-156.1519444,"USR0000HKAU","KPGH1","FA45A6E0",NA,NA,0,0,0,0,0,0,0,0,0,0,0,0,1.01600000000002,0.254000000000019,0.761999999999944,0,0,0.254000000000019,0,0,0,0,3.04800000000006,5.58799999999997,0,0,0,0,0,0
267.8,"KULA 1","KULA 1","RAWS","MA",1998.5736,20.68305556,-156.3216667,NA,"KLFH1","AA10F12E",NA,NA,0,0,0,0,0,0,0,0,0,0,0,0,0,0,0,0,0,0,0,0,0,0,0,0,0,0,0,0,0,0
302,"MAALAEA BAY","NWS","STATE","MA",302,20.7903,-156.514,NA,"P36","15DF05C6",NA,NA,0,0,0,0,0,0,0,0,0,0,0,0,0,0,0,0,0,0,0,0,0,0,0,0,0,0,0,0,0,0
311.2,"Kealia Pond NWR","Kealia Pond NWR","RAWS","MA",3.6576,20.7975,-156.4772222,NA,"KPDH1","32B2C438",NA,NA,0,0,0,0,0,0,0,0,0,0,0,0,0,0,0,0,0,0,0,0,0,0,0,0,0,0,0,0,0,0
311.5,"Kihei 2","NWS","HydroNet-UaNet","MA",54.5592,20.7061005,-156.437,NA,"KHIH1","93202508",NA,NA,0.254,0.762,0,0,0,1.27,0.254,1.016,1.016,0.508,1.27,0.762,0.254,0,1.778,0.507999999999997,0.254000000000001,1.27,1.27,1.524,0,1.27,0.762,1.016,1.524,1.524,1.524,0,1.27,1.27
324.7,"Kula Branch Stn","NWS","HydroNet-UaNet","MA",944.88,20.7577991,-156.3217,"USC00515000","KBSH1","93220610",NA,NA,0.762000000000171,0,0,0.253999999999905,0,0,0.507999999999811,0,0,0,0,0,0.762000000000171,0,0,0,0,1.01600000000008,0,0,0,0,0,0,0,0,0,0.253999999999905,0,0.762000000000171
348.5,"WestWailuaikiRainGagenrKeanae","USGS","USGS","MA",472.44,20.81436111,-156.1429722,NA,"WWKH1","DD5E710A",NA,NA,6.60399999999981,2.03200000000015,0,1.77800000000025,2.2859999999996,0.762000000000171,0,0.253999999999905,0.25400000000036,0.761999999999716,0,1.77800000000025,20.0659999999998,8.88999999999987,3.80999999999995,1.77800000000025,0.253999999999905,5.07999999999993,20.5740000000001,0,10.922,9.39799999999968,13.5294816502296,10.1599999999999,9.39800000000014,21.3360000000002,21.5899999999997,21.2098791216696,2.79399999999987,21.5900000000001
353,"Hana AP","NWS","HydroNet-UaNet","MA",19,20.7946,-156.0157,"USC00511125","HNAH1","B150314C",NA,NA,3.3020000000015,0.253999999999905,0.761999999998807,8.38199999999961,2.03200000000106,2.79399999999896,0.254000000001724,0.761999999998807,1.01600000000053,0,0,0,14.732,7.36600000000089,6.09600000000046,1.77799999999934,2.79400000000078,0,1.27000000000044,NA,4.318,0.762,1.27,3.81,1.016,7.874,NA,0.254000000000001,2.286,1.524
361.1,"Lahainaluna","NWS","HydroNet-UaNet","MA",238.0488,20.8909,-156.6556,NA,"LAHH1","81700366",NA,NA,0.762000000000171,0.253999999999678,0,0,0,0,0,0,0,0,0,0,1.27000000000021,0,0,0,0,0,0,0,0,0,0,0,0,0,0,1.77800000000002,0,0.254000000000133
380,"PuuKukuiRainGageatalt","BALDWIN PKRS","USGS","MA",1759,20.89083333,-156.6008333,"USC00514887","PKKH1","DD73556E",NA,NA,13.7160000000003,2.79399999999987,1.01600000000008,0.253999999999905,0,4.31799999999976,0.25400000000036,0,0,0.507999999999811,0,0.25400000000036,39.3699999999999,3.55600000000004,19.8119999999999,1.77799999999979,0.253999999999905,8.63600000000042,15.4939999999997,0,3.80999999999995,9.90599999999995,5.07999999999993,12.9540000000002,12.6999999999998,26.924,9.90599999999995,28.4480000000003,11.6839999999997,27.9399999999996
386.6,"Wailuku","NWS","HydroNet-UaNet","MA",146.9136,20.8831005,-156.5124,NA,"WUKH1","9321D776",NA,NA,0,0.253999999999451,0,0,0,0,0,0,0,0,0,0,0,0,0,0,0,0,0,0,0,0,0,0,1.27000000000044,0,0,0.253999999999905,0,0.25400000000036
390.4,"Waikapu Country Club","NWS","HydroNet-UaNet","MA",145.9992,20.8346996,-156.5135,NA,"WCCH1","9320E016",NA,NA,0,0,0,0,0,0,0,0,0,0,0,0,0,0,0,0,0,1.52399999999989,0,0,0,0,0,0,0,0,0,0,0,0
398,"KAHULUI AIRPORT","NOAA-NWS","NWS","MA",12,20.8887,-156.436,"USW00022516","PHOG",NA,NA,NA,0,0,0,0,0,0,0,0,0,0,0,0,0,0,0,NA,0,0,0,0,0,0,0,0,0.508,0.762,1.524,0.254,0,0
426.6,"Pukalani","NWS","HydroNet-UaNet","MA",495.9096,20.8355007,-156.3307,NA,"PUKH1","15D2B52E",NA,NA,0,0,0,0,0,0,0,0,0,0,0,0,0.253999999999905,0,0,0,0,0,0,0,0,0,0,0.25400000000036,0.507999999999811,0.253999999999451,1.77800000000025,0,0,0
465.1,"Mahinahina","NWS","HydroNet-UaNet","MA",223.1136,20.9552002,-156.6562,NA,"MABH1","190524C8",NA,NA,2.286,0,0,0,0,0,0,0,0,0,0,0,0.254,NA,1.016,NA,0,0,0.254,0,1.016,NA,3.048,1.016,0.254,4.572,0,5.588,0,4.826
482.5,"Kahakuloa","Kahakuloa","HydroNet-UaNet","MA",335.28,20.9540997,-156.5342,NA,"KHKH1","781001B6",NA,NA,0,4.06400000000008,1.26999999999998,0,0,0,0,0,0,0,0,0,0,0.253999999999905,0,0,0,0,2.54000000000008,0,0.507999999999925,2.79399999999998,5.33400000000006,0,1.01599999999996,1.01599999999996,0,1.01600000000008,0,1.26999999999998
499.6,"KAHOOLAWE 499.6","COOP","COOP","KO",366,20.55694,-156.575,"USC00512558","KRTH1","15DEF7B8",NA,NA,0,1.52399999999989,0,0,0,0.762000000000171,NA,0.507999999999811,0,0,0,NA,NA,4.06400000000031,3.80999999999995,1.52399999999989,16.002,3.04800000000023,16.5100000000002,NA,6.09600000000046,0,0,0,0,0,0,0,0,0
524,"MOLOKAI KAUNAKAKAI MOLOKAI AIRPORT","ALOHA AIRLINES","NWS","MO",141,21.15514996,-157.0924625,"USW00022534","PHMK",NA,NA,NA,0,0,0,1.27,0,0,0,0,0,0,0,0,0,0,0,NA,0,0,0,0,0,0,1.778,0,0,0,0,0.254,0,1.016
536.5,"Kaunakakai Mauka","MOLOKAI GEN HOSP","HydroNet-UaNet","MO",28.3464,21.0946007,-157.0174,NA,"KACH1","50A0F2E2",NA,NA,0.254000000000019,0,0,0,0,0,0,0,0,0,0,0,0,0,0,0,0,0,0,0,0,0,0,0,0,0,0,0,0,0
538,"MOLOKAI 1","RAWS","RAWS","MO",833.0184,21.115,-156.9475,"USR0000HMLK","MLKH1","487016AC",NA,NA,1.01599999999996,0,0,1.524,0.254000000000019,0,0,0,0,0,0,0,1.77800000000002,0,0,0,0,0,0,0,0,0.254000000000133,2.28599999999983,0.508000000000152,0.253999999999905,0.253999999999905,0.254000000000133,0,0,1.01599999999996
541.2,"Puu ALII WEST","Puu ALII WEST","RAWS","MO",1159.764,21.14083333,-156.9022222,NA,"PAFH1","32D6062E",NA,NA,8.88999999999987,2.54000000000019,0,0.65466302142822,2.53999999999974,0,0,0,2.53999999999996,0,0,0,7.62000000000035,2.53999999999996,5.07999999999993,0,0,2.53999999999996,2.53999999999996,0,0,7.61999999999989,17.7800000000002,7.61999999999989,2.53999999999996,5.07999999999993,2.53999999999996,7.62000000000035,2.53999999999996,12.6999999999998
542.11,"Kamalo","NWS","HydroNet-UaNet","MO",8.8392,21.052,-156.871,"USC00513045","KMLH1","50A0D40E",NA,NA,2.03200000000015,1.26999999999998,7.61999999999989,1.52400000000011,2.03199999999993,4.31799999999998,0,0,0,0,0,0,15.494,1.524,4.572,1.524,0.761999999999944,1.77800000000002,7.3660000000001,2.53999999999996,1.01599999999996,1.77800000000002,13.97,2.28599999999994,3.81000000000006,0.508000000000038,0.76199999999983,4.82600000000014,4.57199999999989,3.04800000000012
553,"MAKAPULAPAI","RAWS","RAWS","MO",22.86,21.20333333,-156.9661111,"USR0000HMAK","MKPH1","FA9024CE",NA,NA,1.01600000000002,1.52399999999994,0,0,0,0,0,0,0,0,0,0,1.52399999999994,0,4.31800000000004,0,0,0,1.01600000000002,0,0,0,1.77799999999996,0.508000000000038,0,0.254000000000019,0,1.52399999999994,0,1.01600000000002
656,"LANAI AIRPORT 656","HAWN AIRLINES","NWS","LA",396.2,20.7882389,-156.946639,"USC00515275","PHNY",NA,NA,NA,0,0,0,3.302,0,0.254,0,0,0,0,0,0,0.508,0,1.524,NA,0.254,0,NA,0,0,0,0.254,0,0,0,0,0.254,0,0
672.1,"Lanai City","NWS","HydroNet-UaNet","LA",498.0432,20.8262997,-156.9182,"USC00515286","LANH1","50A2F716",NA,NA,NA,0,0,1.77800000000002,0,0,0.254000000000019,0,0,0,0,0.761999999999944,16.5100000000001,0.761999999999944,NA,0,0,0,0.254000000000019,0,0,0,2.03199999999993,0,0,0,0,0.762000000000057,0,6.85799999999995
679,"LANAI 1","RAWS","RAWS","LA",387.096,20.87333333,-157.0063889,"USR0000HLAN","LNIH1","48702336",NA,NA,0,0,0,0,0,0,0,0,0,0,0,0,6.096,0,0,0,0,0,0,0,0,0,0,0,0,0,0,0,0,1.01600000000002
702.7,"Kapolei-Kalaeloa AP","NWS","NWS","OA",15,21.31667,-158.06667,"USW00022551","PHJR",NA,NA,NA,0.508,0,0,0,0,0,0,0,0,0,0,0,0.508,0,1.524,0,0,0,0,0,0,0.254,0,0,0,0.254,0,0,0,0.508
702.8,"PTWC","NWS","HydroNet-UaNet","OA",1.524,21.3150005,-157.9992,NA,"PTWH1",NA,NA,NA,1.524,0,0,0.508,0,0,0,0,0,0,0,0,1.27,0,4.826,0,0,0,0,0,0,1.524,0.254,0,0.254,0,0,0,0.254,1.524
703,"HONOLULU INTERNATIONAL AIRPORT","USWB","NWS","OA",2.1,21.324,-157.9294,"USW00022521","PHNL",NA,NA,NA,0,0,0,0,0,0,0,0,0,0,0.254,0,3.302,0,3.048,NA,0,0,0,0,0,0.762,0,0,0,0,0,0,1.016,2.286
721.4,"Palolo Fire Stn","NWS","HydroNet-UaNet","OA",59.436,21.2996006,-157.7944,"USC00517662","PFSH1","19014414",NA,NA,2.28600000000006,1.01599999999962,0,0,1.01599999999962,1.77800000000025,0,0,0,0,0,0,2.79399999999987,2.03200000000015,2.53999999999996,0.253999999999905,0,2.03200000000015,1.77800000000025,0,0,10.1599999999999,0.507999999999811,0,1.27000000000044,2.79399999999896,0.254000000000815,0.761999999999716,3.8100000000004,7.36599999999999
723.8,"Niu Valley","NWS","HydroNet-UaNet","OA",19.812,21.2896996,-157.7332,"USC00516865","NIUH1","1900D38C",NA,NA,3.048,1.26999999999987,0,0,0,1.52400000000011,0.253999999999905,0,0.508000000000038,0.254000000000019,0.508000000000038,0,0.761999999999944,0,0.508000000000038,0,0,0.762000000000057,0.253999999999905,0,0.254000000000019,0.761999999999944,0.762000000000057,0,0,1.26999999999998,0,2.54000000000008,1.77799999999991,7.62
724.21,"Kamehame","NWS","HydroNet-UaNet","OA",242.316,21.3085995,-157.6791,NA,"KMHH1","190046EE",NA,NA,0,0,0,0,0,0,0,0,0,0,0,0,0,0,0,0,0,0,0,0,0,0,0,1.27000000000004,0,0.762,0,1.524,0,1.01599999999996
724.22,"Hawaii Kai Golf Course","NWS","HydroNet-UaNet","OA",8.8392,21.2991009,-157.6644,NA,"HAJH1","183024DA",NA,NA,0,0,0,0,0,0,0,0,0,0,0.508000000000038,0,0,0,0,0,0,0,0,0,0,0,0,0.254000000000019,0.253999999999962,0.254000000000019,0,1.27000000000004,0.507999999999981,5.84199999999998
728.2,"PALEHUA","RAWS","RAWS","OA",722.376,21.385,-158.1041667,NA,"PLHH1","4870F55E",NA,NA,0.508000000000038,0,0,0,0,0.761999999999944,0,0,1.01600000000008,1.26999999999998,0,0,3.80999999999995,0.508000000000038,1.524,0,0,0,0,0.508000000000038,0.253999999999905,1.01600000000008,0.507999999999925,0.254000000000019,0.254000000000133,6.09599999999989,0.254000000000019,0.508000000000038,2.03199999999993,1.01599999999996
740.5,"Kunia","NWS","HydroNet-UaNet","OA",85.0392,21.3869991,-158.0358,NA,"KUNH1",NA,NA,NA,0,0,0,0.508,0,0,0,0,0.254,0,0,0,3.556,0.0964841493573429,3.302,0,0,0,0,0,0,0.508,0,0,0,2.286,0,0,0.254,0.254
742.4,"HONOULIULI PHB","FWS","RAWS","OA",1.524,21.35666667,-158.0205556,NA,"HOFH1","327BF39A",NA,NA,0,0,0,0,0,0,0,0,0,0,0,0,3.04800000000006,0,0.507999999999981,0,0,0,0,0,0,0,0,0,0,1.01599999999996,0,0,0.762000000000057,0.507999999999981
752.6,"WAIAWA PHB","FWS","RAWS","OA",1.524,21.38694444,-157.9811111,NA,"WWFH1","3274C092",NA,NA,0,0,0,0,0,0,0,0,0,0,0,0,1.52399999999989,0,2.53999999999996,0,0,0,0,0,0,1.01599999999985,0.762000000000171,0,0.761999999999944,1.77800000000002,0,1.01600000000008,0,0.761999999999944
772.3,"MoanaluaRGNo.1atalt1000","USGS","USGS","OA",304.8,21.39338889,-157.8401111,NA,"MOGH1","1689664A",NA,NA,9.398,7.112,1.778,7.874,1.778,4.064,1.27,0.508,0.762,2.794,1.016,0.508,42.164,5.08,19.304,2.09069686725331,0,0.254,5.08,3.556,6.096,16.8429181459388,7.80152618268915,3.302,2.794,6.096,1.778,8.89,2.794,19.7575786553422
772.5,"Moanalua Stream","USGS","HydroNet-UaNet","OA",72.2376,21.3736,-157.8801,"USC00516400","MOAH1","1900B66A",NA,NA,2.03199999999993,3.30200000000002,0.254000000000019,1.2700000000001,0.253999999999905,3.55600000000004,0.507999999999925,0.254000000000133,0.507999999999925,1.2700000000001,0.253999999999905,0.762000000000057,17.526,2.53999999999996,3.55600000000004,0,0,0.762000000000057,5.07999999999993,0,0.761999999999944,16.0020000000001,5.58799999999997,5.33400000000006,1.77800000000002,3.55600000000004,0.76199999999983,6.096,3.55600000000004,3.04799999999989
781.12,"Luluku","NWS","HydroNet-UaNet","OA",84.1248,21.3875008,-157.8099,NA,"LULH1","93215162",NA,NA,13.7159999999999,5.33400000000006,2.03199999999993,4.06399999999985,0,4.57200000000012,0.508000000000038,0.253999999999905,1.01600000000008,2.79399999999987,1.27000000000021,1.01599999999985,18.288,6.85800000000017,6.85799999999972,0.762000000000171,0,0.253999999999905,8.12799999999993,0.254000000000133,0.253999999999905,5.07999999999993,2.79400000000032,3.55599999999981,4.06400000000008,4.57199999999989,0,3.30200000000013,3.55600000000004,8.38199999999983
782.3,"Nuuanu Upper","NWS","HydroNet-UaNet","OA",248.412,21.3502007,-157.8184,"USC00516938","NUUH1","156097FE",NA,NA,21.0820000000003,5.0799999999997,0,3.81000000000017,0.761999999999944,1.26999999999998,0.254000000000133,1.52399999999989,1.26999999999998,3.55600000000004,0.761999999999944,0,26.924,9.39800000000014,13.2728158638453,0.508000000000038,0,4.31799999999998,7.11200000000008,3.048,8.88999999999987,17.5260000000001,8.63599999999997,5.8420000000001,4.82600000000002,1.77799999999979,0,4.06400000000031,13.7159999999997,15.4940000000001
785.4,"Manoa Lyon Arbo","NWS","HydroNet-UaNet","OA",151.7904,21.3330002,-157.8024,"USC00516128","MNLH1",NA,NA,NA,27.4477090414962,6.61390579313114,0,4.96042934484887,0.992085868969657,1.65347644828286,0.33069528965675,1.98417173793932,1.65347644828286,4.62973405519212,0.992085868969657,0,35.0537007035971,12.2357257172935,NA,0.661390579313202,3.048,12.954,9.25946811038425,0.508,11.176,27.432,9.652,5.334,8.636,5.08,2.794,7.112,25.908,33.274
787.2,"Maunawili","NWS","HydroNet-UaNet","OA",127.1016,21.3509998,-157.7668,NA,"MAUH1","19007374",NA,NA,13.2080000000001,1.52399999999989,0,2.54000000000019,0.253999999999905,2.03199999999993,0.254000000000133,4.06399999999985,0.762000000000171,1.77800000000002,1.26999999999975,0,17.7800000000002,3.30199999999991,9.39800000000014,0,0,1.01599999999985,5.84199999999987,0.254000000000133,1.01600000000008,5.84199999999987,6.096,0.254000000000133,1.26999999999998,1.52399999999989,2.03200000000015,2.79399999999987,12.7,18.288
788.2,"St Stephens Seminary","NWS","HydroNet-UaNet","OA",142.9512,21.3666992,-157.7786,NA,"STVH1","19005598",NA,NA,16.002,2.03199999999993,0.253999999999905,4.06400000000008,0,3.048,0,1.52400000000011,0.507999999999811,1.01600000000008,1.01599999999985,0,10.4140000000002,4.57199999999989,12.4460000000001,0.253999999999905,0,0,2.7940000000001,3.30199999999991,0,7.11200000000008,1.77800000000002,1.26999999999998,2.28599999999983,1.52400000000011,0.253999999999905,2.28600000000006,10.1600000000001,5.8420000000001
790.11,"Olomana Fire Stn","NWS","HydroNet-UaNet","OA",45.1104,21.3777008,-157.7507,"USC00517052","OFSH1","19011468",NA,NA,2.7940000000001,1.26999999999998,0,2.28600000000006,0,0.507999999999811,0,0.254000000000133,0,0.253999999999905,0.762000000000171,0,6.85799999999972,1.01600000000008,6.34999999999991,0.254000000000133,0,0,0,0,0,3.048,0.761999999999944,0.254000000000133,1.77800000000002,0.253999999999905,0.761999999999944,0.761999999999944,1.26999999999998,2.03200000000015
793.2,"BELLOWS AFS AT WAIMANALO","NWS","STATE","OA",6.66,21.3667,-157.717,NA,"BELH1","B14036D2",NA,NA,0.762,0,0,0,0,0,0,0,0,0,0,0,0.253999999999962,0,0.254000000000019,0,0,0,0,0,0,1.01600000000002,0,0,0,0,0,0.253999999999962,3.048,2.28600000000006
795.3,"Waimanalo Nonokio","NWS","HydroNet-UaNet","OA",20.1168,21.3356991,-157.7116,NA,"WMLH1","224185AC",NA,NA,2.03199999999993,0.254000000000133,0,0.761999999999716,0,0,0,0,0.254000000000133,0,0,0,0.762000000000171,0,0,0,0,0,0,0,0,0.507999999999811,3.55600000000004,0.253999999999905,0,0.254000000000133,0.507999999999811,0.508000000000266,2.28599999999983,4.31799999999998
801.1,"Waianae Kawiwi","MT VIEW DAIRY","HydroNet-UaNet","OA",19.812,21.4566994,-158.18,NA,"WAIH1","1562920A",NA,NA,1.01600000000002,0,0,1.01599999999996,0,0,0,0,0,0,0,0,0.508000000000038,0,4.572,2.286,0,0,0,0,0,0,0,0,0,0,0,0,0,0
801.2,"WAIANAE BOAT HARBOR","NWS","STATE","OA",4.25,21.4503,-158.184,NA,"WBHH1","15D13434",NA,NA,1.27,0,0,0.761999999999999,0,0,0,0,0,0,0,0,0.762,0,7.62,NA,NA,NA,NA,0,0,0,0,0,0,0,0,0,0,0
803.2,"WAIANAE VALLEY","RAWS","RAWS","OA",291.6936,21.48055556,-158.1552778,"USR0000HWVA","WNVH1","487005DA",NA,NA,2.03200000000004,0.253999999999905,0,0.254000000000019,0,0,0,0,0,0,0,0,1.524,0,9.90599999999995,0,0,0,0.762000000000057,0,0.254000000000019,3.30199999999991,2.03200000000004,1.2700000000001,1.52399999999989,1.2700000000001,0,1.77799999999991,0.761999999999944,1.52400000000011
804,"Lualualei","US VY","HydroNet-UaNet","OA",35.9664,21.4211006,-158.1352,"USC00515647","LUAH1","8170406C",NA,NA,2.28599999999983,0,0,0,0,0,0,0,0,0,0,0,0.761999999999944,0.254000000000133,1.26999999999998,0,0,0,0.254000000000133,0,1.01599999999985,2.54000000000019,3.30199999999991,1.01600000000008,0.762000000000171,4.82599999999979,0,5.58799999999997,0,6.60399999999981
810.1,"WHEELER ARMY AIR FIELD 810.1","COOP","NWS","OA",255,21.48722,-158.02806,"USW00022508","WAFH1","B14101B2",NA,NA,1.52400000000034,0,0,1.01599999999962,0,1.26999999999953,0.254000000000815,1.01599999999962,0.253999999999905,0,0,1.77800000000025,5.33399999999983,0.761999999999716,0.254000000000815,0,0,1.77799999999934,0,0,4.57200000000012,15.4939999999997,5.58800000000065,1.77799999999934,0.50800000000072,4.31800000000021,0.507999999999811,5.07999999999993,2.53999999999996,0.253999999999905
820.6,"Mililani","NWS","HydroNet-UaNet","OA",226.7712,21.4638004,-157.9991,"USC00516261","MITH1",NA,NA,NA,0.119636928389074,0.923083747709438,0,2.286,0,0.508,0.254,0.254,1.524,0.508,0,7.366,8.128,1.12470298031076,0,0,0,0.254,0,0,1.524,19.304,8.636,2.032,0.508,1.016,0.77588688151501,4.572,1.524,0.254
824.2,"Waipio","NWS","HydroNet-UaNet","OA",124.968,21.4199009,-158.0058,NA,"PECH1",NA,NA,NA,0,0,0,1.27,0,0,0,0.254,0.762,0.508,0,0,13.462,0,0.254,0,0,0,0.254,0,0.254,2.286,1.524,0,0.762,1.778,0,0.762,0.508,0
828,"SCHOFIELD EAST","RAWS","RAWS","OA",381,21.49944444,-157.9933333,"USR0000HSCH","SCEH1","325AB384",NA,NA,1.26999999999953,0,0,5.58799999999974,0.50800000000072,2.28600000000006,0.253999999999905,1.77799999999934,2.03200000000015,2.28600000000006,0,16.0020000000004,21.8439999999991,1.27000000000044,2.03200000000015,0,1.01600000000053,3.55599999999959,0.507999999999811,0,8.63600000000042,29.3513366589152,9.96006719125039,11.1759999999995,1.27000000000044,6.09600000000046,0.761999999999716,10.7607974990014,11.1760000000004,0.761999999999716
834.13,"Waiawa CF","NWS","HydroNet-UaNet","OA",235.6104,21.4440994,-157.9669,"USC00519257","WAWH1",NA,NA,NA,0.254,1.31941652781654,0,12.7,0.762,1.524,0.762,2.286,1.27,2.286,0,6.35,14.986,1.778,0,0.138529220300604,0,2.286,1.524,0,5.08,28.194,8.41959617527538,6.858,1.778,6.604,2.032,11.43,8.89,3.302
835.2,"Palisades","NWS","HydroNet-UaNet","OA",261.8232,21.4298,-157.9452,NA,"PACH1",NA,NA,NA,0.254,0,0,10.668,0.348614933935678,2.032,0.566821914761763,1.27,1.778,1.778,0,5.334,25.654,3.29298372984655,1.39341611835643,0.0927831176392051,0.762,1.1645220598935,1.524,0,1.524,18.288,6.096,3.302,0.508,2.794,1.27,9.144,5.08,2.286
837.12,"WAIAHOLE STREAM NEAR KAHALUU 2N","USGS","USGS","OA",4,21.48194,-157.8458,NA,"WHSH1","162B784C",NA,NA,3.81,4.31800000000004,0.507999999999981,2.286,0.507999999999981,2.286,2.03199999999993,0,1.01600000000008,0.761999999999944,0.254000000000019,0,12.7,2.54000000000002,1.52399999999994,1.01599999999996,0,0.508000000000038,0,0,2.03200000000004,2.53999999999991,0,0.508000000000038,0,1.26999999999998,0.254000000000076,3.55599999999998,3.04799999999994,1.01600000000008
839.15,"Ahuimanu Loop ","NWS","HydroNet-UaNet","OA",74.0664,21.4319992,-157.8373,NA,"AHUH1","15CE7632",NA,NA,7.87400000000002,1.77800000000002,0,5.84199999999987,0,3.81000000000017,2.03199999999993,0.254000000000133,1.77799999999979,2.28600000000029,0,0.253999999999905,16.2559999999999,3.81000000000017,7.36599999999999,NA,NA,NA,NA,NA,NA,NA,NA,NA,NA,NA,NA,NA,NA,NA
839.8,"Waihee Pump","USGS","HydroNet-UaNet","OA",64.3128,21.4463997,-157.8584,"USC00519286","WPPH1","195042AC",NA,NA,9.65199999999993,9.90600000000006,0,7.87400000000002,0,1.524,3.80999999999995,2.28599999999994,2.03200000000015,1.77800000000002,1.01599999999996,0.253999999999905,10.6680000000001,4.572,10.16,0.508000000000038,0,3.30199999999991,0.253999999999905,0,1.2700000000001,1.26999999999998,2.03199999999993,1.01600000000019,3.04799999999989,4.82600000000002,0.761999999999944,4.82600000000002,2.28600000000006,4.82600000000002
841.2,"KUAOKALA","S&PF","RAWS","OA",267.0048,21.57027778,-158.26,NA,"KKRH1","48710720",NA,NA,0,0,0,0,0,0,0.762,0,0,0,0,0,0.762,0.254000000000019,4.82599999999996,0,0,0,0,0,0,0.254000000000019,0.508000000000038,0,0,0,0,0.761999999999944,0,0
842.1,"MakahaRainGage","USGS","USGS","OA",286.097472,21.50158333,-158.1801667,NA,"MKHH1","DD1423F8",NA,NA,6.35000000000002,0.254000000000019,0,1.52399999999994,0,0.254000000000076,0,0,0.253999999999962,0,0,0,2.28599999999994,1.77800000000002,11.176,0.253999999999962,0,0,0,0,1.26999999999998,3.04800000000006,1.01599999999996,1.01599999999996,0.508000000000038,1.26999999999998,0,0,1.01600000000008,1.77799999999991
842.8,"MAKUA RANGE","RAWS","RAWS","OA",6.096,21.52861111,-158.2261111,"USR0000HMAR","MKRH1","3266B468",NA,NA,0,0,0,0,0,0,0,0,0,0,0,0,0,0,18.542,0,0,0,2.28599999999994,0.254000000000019,0,0,0,0,0,0,0,0,0,0
843.7,"DILLIINGHAM","RAWS","RAWS","OA",31.0896,21.57194444,-158.1986111,NA,"DLGH1","3278D278",NA,NA,0.254000000000076,0,0,4.82600000000002,0,0,0,0,0,0.253999999999905,0,0,0.508000000000038,0.762000000000057,3.30199999999991,0,0,0,0,0,0,0.254000000000019,1.524,0,0.254000000000019,0,0,0,0.254000000000019,0
855.3,"Poamoho Exp Farm","NWS","HydroNet-UaNet","OA",220.0656,21.5382004,-158.0893,NA,"POAH1",NA,NA,NA,0,0,0,10.668,0.508,0,0.762,0,0,0.762,0,0,3.81,0.762,0.762,0,0,0.254,0,0,0.762,8.382,3.47548942471469,0,0.254,0.762,0,1.76204815413863,1.016,0
858,"SCHOFIELD BARRACKS","RAWS","RAWS","OA",298.704,21.495,-158.0819444,"USR0000HSCO","SCBH1","3266A71E",NA,NA,0.508000000000038,0,0,2.28599999999994,0,0.254000000000019,0.254000000000019,0,0.762000000000057,0.253999999999905,0,0,3.81000000000006,0,1.77799999999991,0,0,1.01600000000008,0,0,0.253999999999905,5.8420000000001,1.77800000000002,1.26999999999998,1.26999999999998,0.508000000000038,0,0.761999999999944,1.77800000000002,0.254000000000019
884.4,"PunaluuRainGageatalt","USGS","USGS","OA",73.152,21.55644444,-157.899,NA,"PNSH1","DD989652",NA,NA,9.39800000000014,0.507999999999811,0,3.80999999999949,1.01600000000053,5.33399999999983,6.60400000000118,3.04799999999977,2.79399999999896,4.06400000000031,2.53999999999905,0.254000000001724,22.098,10.9219999999987,6.60400000000118,4.3179999999993,0.762000000000626,1.77799999999934,0.507999999999811,6.09600000000046,3.55599999999959,6.35000000000036,5.58800000000065,1.26999999999953,0.507999999999811,9.14400000000023,0.507999999999811,9.39800000000014,5.33399999999983,9.65199999999913
885.7,"OAHU FOREST NWR","RAWS","RAWS","OA",698.9,21.47747,-157.9369,NA,"OFRH1","8379F6FA",NA,NA,2.54000000000008,0.762000000000057,0,5.84199999999987,1.77800000000002,0.508000000000038,2.79399999999998,1.01600000000008,2.53999999999996,2.28599999999994,0.253999999999905,2.28600000000006,27.9400000000001,6.09599999999989,3.55600000000004,0,4.31799999999998,4.31799999999998,1.01600000000008,0.507999999999811,2.79400000000032,8.12799999999993,6.34999999999991,4.57200000000012,1.01599999999985,4.31799999999998,0.254000000000133,8.38199999999983,6.35000000000014,4.06399999999985
886.4,"KahanaRainGageatalt","USGS","USGS","OA",28.956,21.54041667,-157.8825556,NA,"KNRH1","17B972EE",NA,NA,11.938,1.2700000000001,0,2.28600000000006,2.03199999999993,1.52400000000011,3.30200000000002,6.09599999999989,4.31799999999998,4.572,1.01600000000008,0.508000000000038,24.1300000000001,12.954,8.12800000000004,3.30200000000002,1.01599999999996,1.77800000000002,0,2.03199999999993,4.572,9.90600000000006,5.84199999999987,3.04800000000012,1.26999999999998,2.79399999999998,0.253999999999905,9.14400000000001,6.85800000000006,6.35000000000002
886.8,"Hakipuu Mauka","RILEY W","HydroNet-UaNet","OA",8.5344,21.5067005,-157.8547,"USC00510920","HAKH1","16C69380",NA,NA,8.63599999999997,4.31799999999998,0.507999999999811,3.30200000000013,1.52400000000011,1.01599999999985,2.7940000000001,1.01600000000008,4.82599999999979,0.762000000000171,0.508000000000038,0.507999999999811,8.8900000000001,2.03199999999993,0.761999999999944,2.03200000000015,0.253999999999905,0,0,0,1.01600000000008,1.26999999999998,0,1.26999999999998,1.52399999999989,1.0160000000003,0.761999999999716,6.096,2.54000000000019,2.79399999999987
897.11,"KamananuiRainGageatalt","USGS","USGS","OA",219.456,21.62238889,-158.0143056,NA,"KMRH1","DD34C1E4",NA,NA,2.032,0.254,0,1.016,0.254,4.572,5.588,0.508,0.762,2.032,0.508,1.016,18.034,4.318,12.7,1.08715012222602,0,0.762,1.778,0,5.588,7.0873569766555,4.41200209761201,4.826,1.016,0.762,0.762,5.08,8.382,6.66709841913088
897.9,"PupukeaRdRainGageatalt","USGS","USGS","OA",353.568,21.59902778,-158.0169167,NA,"PPRH1","1713D512",NA,NA,1.016,0.254,0,7.874,2.794,3.048,3.556,1.524,0.254,2.032,0.254,4.064,14.986,2.032,8.382,1.05919453882962,0,3.048,1.27,0,1.016,17.872157019734,6.84216371566496,3.302,1.27,4.826,2.794,5.08,3.81,4.70069356334093
905.22,"Punaluu Pump","NWS","HydroNet-UaNet","OA",3.9624,21.5842991,-157.8916,NA,"PUNH1","19051152",NA,NA,1.01599999999996,0.508000000000152,0,7.11199999999985,0,0,0.761999999999944,2.28600000000017,1.524,1.01599999999996,0,0,19.0500000000001,3.55599999999993,3.81000000000006,3.80999999999995,1.01599999999996,0.253999999999905,4.572,0,0,4.06400000000008,1.52400000000011,0.76199999999983,0.762000000000057,0,0.254000000000133,2.28599999999983,2.79399999999998,5.8420000000001
909,"KAHUKU TRAINING AREA","RAWS","RAWS","OA",181.6608,21.67916667,-157.9894444,"USR0000HKAH","KTAH1","325A861E",NA,NA,0.762000000000057,1.26999999999992,0,0,0,0.762,1.524,0.508000000000038,0.761999999999944,1.01600000000002,0,2.03200000000004,7.87399999999997,4.06399999999996,1.77800000000002,0.254000000000019,0.253999999999962,0,0,0,1.52400000000006,4.06400000000002,3.55599999999993,0,0,0.508000000000095,0.253999999999905,1.27000000000004,0,1.77800000000002
911.1,"KII","RAWS","RAWS","OA",1.524,21.68833333,-157.9525,"USR0000HKII","KFWH1","8375210E",NA,NA,0.253999999999962,0.507999999999981,0,0,0,0,1.27000000000004,2.79399999999998,0.762,1.26999999999998,0.762,1.27000000000004,2.03199999999998,1.26999999999998,1.524,0.254000000000019,0,0,0,0,1.524,3.048,1.524,0,0,1.26999999999998,0,0,0,0.254000000000019
912,"KAUHUKU 912","KUILIMA  GOLF","COOP","OA",4,21.695,-157.9811,"USC00512570","KAHH1","B1404042",NA,NA,0.508000000000266,1.26999999999998,0,0,0,0.508000000000266,1.26999999999953,1.26999999999998,0.762000000000171,1.52399999999989,1.01600000000008,2.03200000000015,2.2859999999996,1.26999999999998,2.53999999999996,0,0,0,0,0,0.762000000000171,1.77799999999979,2.54000000000042,0,0.253999999999905,0,0,1.27000000000044,0,0.253999999999451
926,"PORT ALLEN CAA AIRPORT","FAA","COOP","KA",9,21.89381249,-159.6010997,"USW0022526","PAKH1","B159A272",NA,NA,0,0,0,0,0,1.27000000000001,0.253999999999991,0,0,0,0,0,0.762,0,0,1.27000000000001,0,0,0,0,0,1.77799999999996,0.254000000000019,0,0.254000000000019,0,0,0,1.52399999999997,0
940.3,"POIPU","NWS","STATE","KA",14.8,21.8828,-159.429,NA,"POIH1","B15997E8",NA,NA,1.26999999999998,7.36599999999999,0,0,0,0,0.508000000000038,1.77800000000002,0,0.253999999999905,0,0.761999999999944,2.28600000000006,0,9.39800000000014,2.28599999999983,0,0,0,0,0,1.52400000000011,0,0,0.253999999999905,0.253999999999905,0.508000000000038,5.58799999999997,6.60400000000004,1.01600000000008
946,"WAIMEA HTS","RAWS","RAWS","KA",159.7152,21.96638889,-159.6638889,NA,"WHGH1","487090B8",NA,NA,1.524,0,0,0,0,0,0,0,0,0,0,0,0,0.508000000000038,0,0.507999999999925,0.508000000000038,2.53999999999996,1.01600000000008,4.31799999999998,0,0,0,0,0,0,0,0,0,2.03199999999993
946.1,"WAIMEA TANK AT WAIMEA","NWS","unknown","KA",70,21.964722,-159.666944,NA,"WMTH1","1900E616",NA,NA,0.507999999999811,0,0,0,0.508000000000266,0,0,0,0,0,0,0,0,0.253999999999905,0,0.507999999999811,0.507999999999811,1.52400000000034,0.508000000000266,4.06399999999985,0,0,0,0,0,0,0,0,0,1.26999999999998
966.4,"Hanapepe","NWS","HydroNet-UaNet","KA",110.6424,21.9365005,-159.5866,NA,"HNPH1","156011EA",NA,NA,0,0,0,0.508000000000038,0,0,0,0,0,0,0,0.507999999999925,0.762000000000057,1.01599999999996,0,1.01599999999996,0,0,0,0,0,2.54000000000008,0.508000000000038,0.762000000000057,0,0,0,0.253999999999905,1.01600000000008,0
986.2,"Kalaheo","KUKUILONO GOLF COU","HydroNet-UaNet","KA",263.0424,21.9183006,-159.5265,NA,"KHEH1","1560740C",NA,NA,0.761999999999716,0.507999999999811,0,0,0,0,0,0.253999999999905,1.01599999999962,0,2.28600000000006,1.27000000000044,12.6999999999998,7.36599999999999,16.5100000000002,11.9380000000001,0.253999999999905,0,0.761999999999716,0,1.77800000000025,12.192,5.84199999999964,5.08000000000084,2.03199999999924,3.04800000000068,0.253999999999905,4.0639999999994,5.33400000000074,1.01599999999962
992.1,"Omao","NWS","HydroNet-UaNet","KA",99.9744,21.9071007,-159.4768,"USC00517116","OMAH1","195001A6",NA,NA,4.0639999999994,4.06400000000031,0,0,0,0,0,1.77799999999934,3.55600000000049,0.507999999999811,1.01600000000053,0.253999999999905,10.9219999999996,2.28600000000006,14.2240000000002,5.33399999999983,0.253999999999905,0,1.77800000000025,0,0,4.82600000000002,3.8100000000004,1.52399999999943,2.28600000000006,0.507999999999811,0.254000000000815,3.55599999999959,6.85800000000017,1.77799999999934
1020.1,"LIHUE WEATHER SERVICE OFFICE AIRPORT 1020.1","LIHUE WEATHER SERVICE OFFICE AIRPORT 1020.1","NWS","KA",45,21.98156999,-159.3422063,"USW00022536","PHLI",NA,NA,NA,4.064,1.27,0,0,0,0,0,0,1.016,0,1.016,0.254,1.27,0.254,0.762,10.772905762511,0,0,2.032,0,0,2.286,0,0.254,0.508,0,0,2.286,1.27,0.508
1029,"MANA","RAWS","RAWS","KA",26.2128,22.02944444,-159.7622222,NA,"MNRH1","4870603C",NA,NA,1.524,0,0,0,0,0,0,0,0,0,0,0,0.254000000000019,4.572,4.82600000000002,1.01599999999996,0,0,0,0.254000000000019,0.508000000000038,0,0,0,0,0,0,0.761999999999944,0,0
1036,"PUU OPAE","RAWS","RAWS","KA",652.8816,22.04083333,-159.6958333,NA,"POPH1","4870734A",NA,NA,26.4160000000001,3.55599999999993,0,0,0,0.254000000000019,0,0,0,0,0,0,1.01600000000008,4.572,10.9219999999999,6.85800000000006,0,0,13.1700100163781,0,0,0,0.507999999999925,0,0,0,0,1.2700000000001,1.77800000000002,0.254000000000019
1042,"WaialaeRainGagenrWaimea","USGS","USGS","KA",1219.2,22.08972222,-159.5925,NA,"WLGH1","DDF7C28E",NA,NA,0.253999999999962,5.07999999999998,0.254000000000019,0.253999999999962,0.254000000000019,0,0,0.508000000000038,1.26999999999998,0.253999999999962,0.508000000000095,2.03199999999993,16.764,3.04799999999994,8.89000000000004,5.334,0,0,4.06400000000002,0,2.286,6.60399999999993,18.034,7.36599999999999,0.507999999999981,3.55599999999998,3.048,3.81000000000006,27.432,0.508
1047,"Mt.WaialealeRainGagenrLihue","USGS","USGS","KA",1569.72,22.07088889,-159.4979722,"USC00516565","WLLH1","DD5E818E",NA,NA,123.19,37.3379999999997,0,0.525333725943974,0,1.26999999999953,2.54000000000087,9.65200000000004,19.3040000000001,6.60399999999936,6.09600000000046,12.6999999999998,75.4380000000001,79.2479999999996,108.966,144.780000000001,7.8739999999998,2.79399999999987,30.9879999999994,8.63600000000042,18.5419999999995,29.21,59.4360000000006,18.7960000000003,14.9859999999999,19.3040000000001,6.60399999999936,30.4800000000005,23.3679999999995,24.6379999999999
1051,"NWailuaDitchRainGagenrLihue","LIHUE PLANTATION","USGS","KA",338.328,22.0625,-159.4677222,"USC00516888","WLDH1","1732B3E0",NA,NA,68.0720000000001,48.26,0,0.253999999999905,0,0,1.01600000000008,4.31799999999998,7.36599999999999,3.55599999999981,2.54000000000019,6.34999999999991,26.9240000000002,40.1319999999998,49.53,72.136,3.81000000000017,2.28599999999983,25.3999999999999,5.33400000000029,11.6839999999997,12.7,27.6860000000001,13.2079999999999,6.85800000000017,7.8739999999998,1.52400000000011,29.972,11.43,7.874
1052.3,"Waiahi Rain Gage","USGS","USGS","KA",248,22.0227,-159.4651,NA,"WIRH1",NA,NA,NA,28.702,33.528,0,1.524,0,0.508,1.27,6.35,6.604,1.27,0.254,3.302,34.798,13.97,53.848,NA,1.016,1.016,12.7,0.254,4.826,NA,NA,8.89,4.572,2.032,2.54,15.748,3.81,NA
1059,"Lihue Variety Stn","NWS","HydroNet-UaNet","KA",117.0432,22.0240002,-159.3868,NA,"LIHH1","1561501A",NA,NA,16.002,10.1600000000001,0,0,0,2.03200000000015,0.253999999999905,2.28600000000006,5.58799999999997,1.26999999999998,0,1.77800000000002,1.01599999999985,14.4780000000001,16.002,24.6380000000001,0.253999999999905,0.761999999999944,4.06400000000008,0.761999999999944,0,6.34999999999991,2.03200000000015,0,2.53999999999996,0.761999999999944,0.254000000000133,7.8739999999998,2.28600000000006,2.54000000000019
1060,"Wailua UH Exp Stn","NWS","HydroNet-UaNet","KA",158.1912,22.0660992,-159.396,"USC00519475","WUHH1",NA,NA,NA,22.7533239778911,29.4881544306894,0.226815861305186,0.338116140761469,0,0,0.221316633821307,1.40852077572477,3.24228338214923,1.35951457085479,0.787254125545414,1.50021023187912,12.7667857555321,14.8250331017363,9.144,26.8267016984378,1.88276881129443,1.524,7.1706536324771,1.86379995053823,2.032,6.04193349665593,8.13654114055934,0.254,4.318,3.9378480515402,2.7885816311493,12.0269604110432,3.77660610594622,4.05482932203627
1061.5,"Wailua UH Exp Stn","NWS","HydroNet-UaNet","KA",158,22.066,-159.3962,NA,"WUHH1","15C163D6",NA,NA,24.7020068506554,32.0136342921966,0.254000000000133,0.253999999999905,0,0,0,1.01600000000008,3.55599999999993,1.26999999999998,0.508000000000038,0.254000000000019,14.986,13.208,13.97,24.13,2.28599999999994,1.52400000000011,3.55599999999993,1.524,2.03200000000004,7.11199999999997,4.572,0.254000000000019,4.31799999999998,4.82600000000002,5.33399999999995,11.9380000000001,2.79399999999998,5.07999999999993
1069,"PUU LUA","RAWS","RAWS","KA",1021.08,22.08916667,-159.6791667,NA,"PLRH1","487083CE",NA,NA,12.4459999999999,1.01600000000008,0.254000000000133,0.253999999999905,0.761999999999944,0,0,0,0,0,0,0,2.03199999999993,2.28600000000029,0.253999999999905,10.1599999999999,0,2.03199999999993,21.0820000000001,0.508000000000038,0,1.01599999999985,1.77800000000002,0,0,0,0,0.254000000000133,0.254000000000133,0
1074,"MAKAHA RIDGE","RAWS","RAWS","KA",544.9824,22.13055556,-159.7152778,"USR0000HMAH","MKAH1","3286026C",NA,NA,0.761999999999944,0.254000000000133,0,0,0,0,0,0,0,0,0,0,0.507999999999925,1.524,1.524,14.986,0,0,2.28600000000006,0.508000000000038,0,0.254000000000019,0.507999999999811,0,0,0,0,0.762000000000057,0.254000000000019,0
1076,"Kokee","NWS","HydroNet-UaNet","KA",1279.2456,22.1485996,-159.6448,NA,"KOKH1","1900E616",NA,NA,0.507999999999811,0,0,0,0.508000000000266,0,0,0,0,0,0,0,15.9299205518573,0.253999999999905,6.09778392072816,0.507999999999811,0.507999999999811,1.52400000000034,0.508000000000266,4.06399999999985,0,9.10656326936726,15.8757141537764,0,0,5.91944481707463,0,4.77992571717959,10.9712356340104,1.26999999999998
1082,"WaiakoaliRainGagenrWaimea","USGS","USGS","KA",1042.416,22.1245,-159.6220833,"519130","WKRH1","17B79574",NA,NA,0.508,1.016,0,0,0,0,0,0,0.508,0,0.508,0.762,13.716,0.254,2.794,3.31208933148482,0,0,1.016,0,0.254,6.83370167736342,11.9178570969561,2.286,1.016,4.572,2.54,3.302,8.128,0.920075474270043
1083,"MoCrsgRainGagenrWaimea","USGS","USGS","KA",1042.416,22.11708333,-159.6009722,"USC00516433","MCRH1","D109224A",NA,NA,0.508,2.286,0,0,0,0,0.254,0.254,1.016,0.508,0.508,1.778,16.0059277422465,0.762,3.048,3.27881190267769,0,0,2.794,0,0.762,7.87009272965115,14.4930904938732,3.556,1.016,5.08,2.286,4.064,8.128,0.910831235051869
1084,"KilohanaRainGafenrHanalei","USGS","USGS","KA",1219.2,22.15408333,-159.5946111,"USC00514610","KLOH1","DDCC972A",NA,NA,12.7000000000003,3.04799999999977,0.25400000000036,2.2859999999996,0.25400000000036,0,0,0.253999999999905,3.04799999999977,3.55600000000004,1.27000000000044,3.80999999999949,42.6720000000005,9.39799999999968,30.2260000000001,9.65200000000004,0.253999999999905,0,6.60399999999981,0.25400000000036,4.57199999999966,28.194,33.5280000000002,6.096,7.61999999999989,19.8119999999999,14.4780000000001,17.018,40.6399999999999,2.28600000000006
1094.2,"Kapahi","NWS","HydroNet-UaNet","KA",158.496,22.1021004,-159.3856,"USC00513171","KPIH1","15608488",NA,NA,18.0340000000033,43.1799999999967,0.50800000000163,0.761999999998807,0,0,3.0480000000025,4.82599999999729,5.08000000000175,3.80999999999767,1.52400000000489,0,8.12799999999697,22.0979999999981,21.0820000000022,26.9239999999991,0,8.38200000000143,12.7000000000007,1.01599999999962,3.04799999999886,10.4140000000007,6.85800000000017,0.761999999998807,3.30199999999968,4.82600000000093,1.27000000000044,13.4619999999995,6.60399999999936,4.82600000000093
1111.4,"Anahola","HAWN FRUIT PACKERS","HydroNet-UaNet","KA",75.2856,22.1373997,-159.312,NA,"ANHH1","1560029C",NA,NA,5.33400000000006,4.31799999999987,0,0,0,0,3.55600000000004,0,0,0.761999999999944,0.508000000000152,0,0.253999999999905,1.77800000000002,1.26999999999987,5.33400000000006,0,1.2700000000001,5.58799999999997,0,0.762000000000057,1.52399999999989,0.253999999999905,0,4.06400000000008,1.26999999999998,0.254000000000133,4.06399999999985,2.03200000000004,0
1115.1,"PH Wainiha","NWS","HydroNet-UaNet","KA",35.052,22.1959991,-159.5563,NA,"WNHH1","15C03150",NA,NA,20.066,11.176,0,0,0,0,0,0,0.761999999999972,1.01600000000002,0.50800000000001,3.81,8.12800000000001,2.79399999999998,10.16,22.352,0,1.01599999999996,10.922,0,4.57199999999995,20.574,8.63600000000002,2.286,2.53999999999996,5.08000000000004,5.84199999999998,19.05,11.176,10.414
1117.8,"Hanalei","NWS","HydroNet-UaNet","KA",4.8768,22.1982002,-159.4951,"USC00513386","HNIH1","B159849E",NA,NA,24.13,10.16,0,0,0,0.507999999999981,0,0.507999999999981,1.77800000000002,3.55600000000001,3.04799999999997,5.33400000000003,9.65199999999999,6.096,12.954,18.542,0.762000000000057,0.253999999999962,9.39799999999997,0,9.90600000000006,11.176,13.4619999999999,1.77800000000002,3.30200000000002,5.58799999999997,2.54000000000008,11.176,5.07999999999993,8.12800000000004
1117.9,"PRINCEVILLE AIRPORT NEAR KILAUEA 4W","NWS","STATE","KA",88.497,22.2114,-159.443,NA,"PRIH1","15D696F8",NA,NA,21.8440000000001,6.60400000000004,0,0,0,0,0.508000000000038,0,3.80999999999995,4.57199999999989,2.54000000000019,0.761999999999944,6.60400000000004,5.8420000000001,15.4939999999999,13.7159999999999,0.508000000000038,4.31799999999998,8.38199999999983,1.01600000000008,5.8420000000001,4.06399999999985,5.08000000000015,0.761999999999944,2.28600000000006,0.761999999999944,2.03199999999993,9.90599999999995,3.30200000000013,4.31799999999998
1146,"Moloaa Dairy","RAWS","RAWS","KA",85.344,22.18333333,-159.3375,"USR0000HMOL","MLDH1","AAB6D15A",NA,NA,5.84199999999987,2.7940000000001,0,0,0,0,0,0.508000000000038,0,2.53999999999996,5.33400000000006,1.52399999999989,1.52400000000011,1.52400000000011,6.34999999999991,7.36599999999999,0,5.33400000000006,3.04799999999977,0,2.28600000000006,6.85799999999995,1.01600000000008,0,1.01600000000008,2.79399999999987,0,4.06400000000008,2.53999999999996,1.52399999999989
54.8,"Nahuku 0201","HiMesonet","HavoNet","BI",1202,19.415215,-155.238394,NA,"004HI",NA,NA,NA,5.24656926332798,2.89062862605965,0.933807551325692,1.43953074483745,0.752635739264035,3.47215374287612,2.21078582375018,0,0.45571895717202,0.05063543968578,0,0.325551071750286,2.8035262646575,2.26043414595698,8.62196594745311,1.37952523787135,3.99738740658699,1.78540968985286,3.64272367341321,4.37995313341324,4.55753159397154,3.36546529237298,16.2107647006086,5.50716652067666,4.88879542091188,3.55168339942455,5.5062522366184,4.9503759921715,0.600764677060774,0.0723738733213861
87.9,"IPIF","HiMesonet","HIPPNET","BI",112,19.69748,-155.0954,NA,"005HI",NA,NA,NA,9.90142008677668,4.10241645533729,3.37023473547474,1.22416187309603,0.0960989287114246,5.50190976345093,1.19688585165747,0.576593572268548,1.44015541807191,0.0800244123695333,0.480494643557123,0.0960989287114246,4.89936868234328,5.90142120308054,11.0994460138374,1.71564401871307,7.99975686621569,0.841886576913141,6.65376839538857,5.42862617903301,4.46444056261292,1.68057682452044,24.3796112157925,6.40179731450346,9.7619706202848,11.5067813454126,23.4189059332579,3.65657227080077,5.35037401598636,0.0800244123695333
93.13,"Mamalahoa","HiMesonet","HIPPNET","BI",603,19.80258,-155.850629,NA,"009HI",NA,NA,NA,0.554752086220427,1.10950417244079,0,5.82489690531399,0,0,1.94163230177137,0.277376043110213,0,0,0.277376043110151,2.21900834488158,2.49638438799173,0,3.60588856043246,0,0,0,0,0,1.10950417244079,0,2.21900834488158,0,0,6.93440107775478,1.38688021555088,8.87603337952621,0,0
127.5,"Laupahoehoe","HiMesonet","HIPPNET","BI",1152,19.93217,-155.29129,NA,"007HI",NA,NA,NA,10.2489521502119,3.83270814228693,4.04008805016661,1.20183003519524,0.510217114062485,3.74333037439391,0.333340519849813,0,0.797476291534298,0.092827154336844,0.0728881591517555,0,2.25809590500441,2.67721856221697,5.8087269537507,1.06111892592887,4.46348521751274,1.34533006755761,6.08375903031697,3.49789403769721,3.85443374149309,5.00219942498573,25.2782807350422,16.2979552464702,6.35027250516952,8.82995710187484,23.4582625796154,7.32056625064498,5.69703303836777,0.092827154336844
132.2,"Spencer","HiMesonet","HIPPNET","BI",469,19.96358,-155.25014,NA,"006HI",NA,NA,NA,7.77020089323929,4.11052126065889,2.59283503839146,1.62523540839737,0.516906163291283,10.7043385684612,1.00230431978625,0,1.10330631694541,1.27554393885346,0.073843737613012,0.147687475226074,3.29213336670097,2.75376505293521,4.49391817871968,1.31497693679135,6.40652629998914,2.43521039363214,5.47256290631064,2.88820998884359,2.77396545236701,2.91201774241461,21.8534976551069,16.9403940164807,6.51642108921506,11.5332676006625,32.1049058405572,10.2061439153545,7.07153060964932,0.167887874657861
201.3,"Kamuela 1","NWS","HydroNet-UaNet","BI",877.824,20.0394993,-155.6084,NA,"KMUH1","81706680",NA,NA,0.619665322094063,1.26900806309385,0,0,0,2.66913660588126,0,0,0,0,0,0,0.516387768411715,0,0,0,0,0.174395527644887,0,0,0.26159329146733,0,0,0.936296797664002,0.58750574237459,1.29436882829069,6.11128995001392,3.8763076703495,0.103277553682371,0
279,"POHAKAU PALAHA HN-161","HiMesonet","HaleNet","MA",2460,20.730574,-156.141316,NA,"043HI",NA,NA,NA,4.32388513655035,0.744209499989504,1.00863755025061,0.371006215199004,0.332916912362727,0.671326498704658,0,0.0369907680402956,0.0369907680403619,0.110972304120887,0,0.258935376282202,4.02778734702838,1.76718001747609,1.8603000898838,0.371006215198903,0.149061606956996,0.988176819037951,3.78074808368229,0.672425033500505,2.59924057598402,3.04972100124252,5.83611508483516,6.15908693029482,2.04108345099188,3.33136619321962,5.49770290067778,4.85251309357533,0.96725264302709,3.14421528342632
324.6,"KULA AG HN-119","HiMesonet","HaleNet","MA",964,20.757889,-156.320028,NA,"001HI",NA,NA,NA,0.80761860834374,0,0,0.269206202781085,0,0,0.538412405562172,0,0,0,0,0,0.80761860834374,0,0,0,0,1.07682481112483,0,0,0,0,0,0,0,0,0,0.269206202781085,0,0.80761860834374
339.5,"NENE NEST HN-152","HiMesonet","HaleNet","MA",2593,20.738194,-156.245833,NA,"013HI",NA,NA,NA,0,0,0,0,0,0,0,0,0,0,0,0,0.562477258126723,0.140619314531688,0.421857943595003,0,0,0.140619314531688,0,0,0,0,1.68743177438017,3.0936249196969,0,0,0,0,0,0
339.6,"SUMMIT HN-153","HiMesonet","HaleNet","MA",2984,20.710361,-156.25675,NA,"003HI",NA,NA,NA,0,0,0,0,0,0,0,0,0,0,0,0,0.620214791602241,0.155053697900569,0.465161093701638,0,0,0.155053697900569,0,0,0,0,1.86064437480672,3.41118135381224,0,0,0,0,0,0
489,"Haiku","NWS","HydroNet-UaNet","MA",99.3648,20.9288998,-156.3225,"USC00510822","AIKH1","50A30568",NA,NA,2.68241897204315,0.766405420583826,0,NA,0.766405420583691,0,0,0,0.766405420583757,0,0,0,2.29921626175141,0.766405420583757,1.53281084116752,0,0,0.766405420583757,0.766405420583757,0,0,2.29921626175127,5.36483794408644,2.29921626175127,0.766405420583757,1.53281084116752,0.766405420583757,2.29921626175141,0.766405420583757,3.83202710291879
705.12,"Aloha Tower","NWS","HydroNet-UaNet","OA",38.1,21.3034,-157.8627,NA,"ALOH1",NA,NA,NA,0.620547412834036,0.27579885014835,0,0,0.27579885014835,0.482647987759861,0,0,0,0,0.145049991096404,0,2.64409672216146,0.551597700296947,2.43009701852797,0.137899425074175,0,0.551597700296947,0.482647987759861,0,0,3.19313847477372,0.137899425074175,0,0.344748562685686,0.758446837907964,0.0689497125373346,0.206849137611263,1.61444565244242,3.30499158344392
842.9,"MAKUA RIDGE","RAWS","RAWS","OA",533.4,21.54277778,-158.1988889,"USR0000HMRG","MKGH1","3266C2F8",NA,NA,0,0,0,14.4461266662871,0.68791079363272,0,1.03186619044908,0,0,1.03186619044908,0,0,5.1593309522454,1.03186619044908,1.03186619044908,NA,0,0.34395539681636,0,0,1.03186619044908,11.3505280949399,NA,0,0.34395539681636,1.03186619044908,0,NA,1.37582158726544,0
