"SKN","Station.Name","Observer","Network","Island","ELEV.m.","LAT","LON","NCEI.id","NWS.id","NESDIS.id","SCAN.id","SMART_NODE_RF.id","X2019.02.01","X2019.02.02","X2019.02.03","X2019.02.04","X2019.02.05","X2019.02.06","X2019.02.07","X2019.02.08","X2019.02.09","X2019.02.10","X2019.02.11","X2019.02.12","X2019.02.13","X2019.02.14","X2019.02.15","X2019.02.16","X2019.02.17","X2019.02.18","X2019.02.19","X2019.02.20","X2019.02.21","X2019.02.22","X2019.02.23","X2019.02.24","X2019.02.25","X2019.02.26","X2019.02.27","X2019.02.28"
2.1,"KAHUKU MAUKA","COOP","COOP","BI",957,19.1089,-155.7467,"USC00512566",NA,NA,NA,NA,4.45035085489774,7.16397942495734,2.17090285604768,20.9492125608601,7.16397942495734,0,0,0,1.62817714203576,3.90762514088582,0,0,0,42.2240605501274,1.41108685643099,0,0,0,56.7691096856468,27.2448308433984,0,5.53580228292158,0,3.25635428407152,4.45035085489774,22.034663988884,10.5288788518312,6.62125371094542
2.32,"SOUTH KONA 2 2.32","COOP","COOP","BI",647,19.10778,-155.78944,"USC00518652",NA,NA,NA,NA,4.1,6.6,2,19.3,6.6,0,0,0,1.5,3.6,0,0,0,38.9,1.3,0,0,0,52.3,25.1,0,5.1,0,3,4.1,20.3,9.7,6.1
2.34,"MILOLII 2.34","COOP","COOP","BI",280,19.186302,-155.886763,"USC00516304",NA,NA,NA,NA,29.7,2.5,10.2,0,0.3,0,1,0,0,0,7.1,0,0,0,0,22.1,0.8,0,12.4,54.6,0.5,0,0,5.8,1,0,0,0
2.36,"KAPUA 2.36","COOP","COOP","BI",533,19.14472,-155.84944,"USC00513376",NA,NA,NA,NA,31,1.5,7.6,10.7,6.9,0,1.8,0,0,0,5.3,0,0,0,13.7,3.3,0.5,0,13,45.5,1.3,4.6,0,3,13.2,0,2.8,4.6
3.22,"HAWAIIAN OCEAN VIEW 4.7 NNE","HAWAIIAN OCEAN VIEW 4.7 NNE","CoCoRaHS","BI",1273,19.135,-155.747,"US1HIHI0035",NA,NA,NA,NA,13,2.5,13.2,4.1,9.9,0,5.3,0,0,0,9.7,0,0,1.8,8.6,6.4,0,0.5,44.5,42.4,0.5,6.1,2.3,6.6,15.5,6.4,17.3,1.5
3.9,"LOWER KAHUKU CS","LOWER KAHUKU CS","RAWS","BI",953.7192,19.10083333,-155.6697222,NA,"LKHH1","32D620C2",NA,NA,2,5.40000000000003,2.5,9.19999999999999,0.699999999999989,6.39999999999998,0.200000000000045,0,0,1.59999999999997,0,0,0.699999999999989,20.6,1.5,0.299999999999955,0,5.80000000000007,65,NA,5.80000000000007,NA,NA,NA,4.29999999999995,NA,NA,NA
4.12,"NAALEHU 4.6 WSW","NAALEHU 4.6 WSW","CoCoRaHS","BI",391,19.0424,-155.6354,"US1HIHI0001",NA,NA,NA,NA,38.4,0,2.8,1.5,10.4,2.8,2.44167716846195,0.404020543042488,0.404020543042488,0,1.40581412729627,0,0.699981411946967,9.49448276149847,12.9918184798103,0.554926629195897,0.110985325839179,0,8.60411124909849,69.0962319469649,1.10340033750193,12.4170963419302,3.11412448012334,4.20986866176036,9.37920367751017,1.10340033750193,4.78062678443715,1.36236609779335
4.13,"NAALEHU 5.0 WSW","NAALEHU 5.0 WSW","CoCoRaHS","BI",436,19.0424,-155.643,"US1HIHI0010",NA,NA,NA,NA,27.2852719315794,0,2.66178880889938,3.39411498475533,8.42048693379266,3.66578777035064,0,0.892443521290016,0.892443521290016,0,0,0,0.892443521290016,20.9724227503154,6.47021552935262,0,0,0,9.03599065306141,94.9336795772254,0.55777720080626,20.9724227503154,6.47021552935262,5.13155024741759,5.3546611277401,0.55777720080626,3.12355232451506,0.55777720080626
4.14,"NAALEHU 4.7 WSW, HI US","CoCoRaHs","CoCoRaHs","BI",393.18,19.0421,-155.6371,"US1HIHI0057",NA,NA,NA,NA,38.6,0,3,1.3,9.9,3,3,0,0,0,0.5,NA,0.8,2.5,25.4,0,0,0,8.6,67.6,0,24.4,0.8,2.8,14,NA,2.5,NA
4.15,"SOUTH POINT NEAR NAALEHU 12SSW","NWS","STATE","BI",295.78,18.9928,-155.668,NA,"SOPH1","B1507246",NA,NA,0,0.762,4.318,2.286,NA,0.761999999999999,0.508000000000001,0,0,0.254,0,0,0,1.778,0,0.254,0,2.032,58.928,2.79400000000001,1.52399999999999,2.54000000000001,0,10.414,0,0.50800000000001,0,0
5.1,"Kamaoa Puueo 5.1","COOP","COOP","BI",317,19.01361,-155.66194,"USC00513054",NA,NA,NA,NA,8.63146078343019,0,1.58375427218903,3.64263482603476,3.80101025325366,3.00913311715915,0,0.633501708875611,0.633501708875611,0,0,0,0.633501708875611,14.8872901585768,4.59288738934818,0,0,0,6.41420480236556,67.3887442816431,0.395938568047257,14.8872901585768,4.59288738934818,3.64263482603476,3.80101025325366,0.395938568047257,2.21725598106464,0.395938568047257
6,"KIOLAKAA A&F 6","STATE DIV FTRY","COOP","BI",587,19.07032619,-155.6355484,"USC00514625",NA,NA,NA,NA,12.4968479025297,0,2.29299961514306,5.27389911482904,5.50319907634334,4.35669926877181,0,0.917199846057224,0.917199846057224,0,0,0,0.917199846057224,21.5541963823448,6.64969888391487,0,0,0,9.28664844132939,97.5671336243372,0.573249903785765,21.5541963823448,6.64969888391487,5.27389911482904,5.50319907634334,0.573249903785765,3.21019946120028,0.573249903785765
6.2,"NAALEHU 5.7 W","NAALEHU 5.7 W","CoCoRaHS","BI",679,19.0732,-155.6632,"US1HIHI0012",NA,NA,NA,NA,25.4,1.8,4.3,2,17.3,10.2,6.6,0,0,0,3.8,0,0.8,0,27.2,1.5,0.3,0,12.2,70.6,2.3,7.9,0.5,5.1,18.8,2.3,9.1,3
9.2,"Nene Cabin","Nene Cabin","RAWS","BI",710.4888,19.34805556,-155.1258333,NA,"AHMH1","32D64524",NA,NA,0.199999999999989,4.90000000000001,5.30000000000001,1,0,2.59999999999999,1,0,0,1.69999999999999,0,0,0,0,1.09999999999999,0,0,12.7,77.4,0.300000000000011,1.778,0.508,4.572,1.016,2.286,2.29,0,0.25
12.15,"SEA MOUNTAIN 12.15","SEA MOUNTAIN","COOP","BI",21,19.13310292,-155.5152744,"USC00518600",NA,NA,NA,NA,0,0,0,0,1.8,3.8,0.8,0,0,0,0,0,0,2.3,7.1,0,0,0,10.4,82.6,0,5.6,0.5,4.8,4.14561480037715,0.777303336838279,3.86636424021821,0.702451883595794
14,"NAALEHU 14","KAU SUGAR","COOP","BI",206,19.06032754,-155.5855501,"USC00516588",NA,NA,NA,NA,10.9,0,2,4.6,4.8,3.8,0,0.8,0.8,0,0,0,0.8,18.8,5.8,0,0,0,8.1,85.1,0.5,18.8,5.8,4.6,4.8,0.5,2.8,0.5
21,"Pahala","KAU SUGAR","HydroNet-UaNet","BI",346.8624,19.2042999,-155.4872,"USC00517421","PPLH1","B16084B2",NA,NA,0.508,1.016,7.112,1.778,0,0.254,0,13.208,2.032,0,0,0,42.926,0.254,1.016,2.794,0,3.302,94.742,0.762,2.286,5.842,3.556,4.826,2.032,8.636,0.762,6.35
21.3,"PAHALA MAUKA 21.3","COOP","COOP","BI",332,19.20667,-155.48861,"USC00517437",NA,NA,NA,NA,4.42970353733867,0.474800080377759,4.09283056212134,2.60012913945824,1.5,0,0.3,0,1.25729216054633,0,0,0,0.3,42.9,0.3,1.30570022103884,0,1.54310026122772,14,87.6,1,12.4546906807637,4.11523051404728,6.1620964293123,4.19362823925057,1.5,7.1,1.3
21.4,"HAWAIIAN OCEAN VIEW 1.7 NNE, HI US","CoCoRaHs","CoCoRaHs","BI",733.03,19.0908,-155.7552,"US1HIHI0059",NA,NA,NA,NA,87.6,2.3,6.1,2.3,24.1,0.5,0.3,0,0,0,5.8,0,0,5.6,28.7,5.3,0,0,33,45.7,2.8,4.6,0,5.8,2.8,1.8,18.8,NA
23,"KAHUKU","RAWS","RAWS","BI",1796.4912,19.23222222,-155.78,NA,"KRCH1","32639544",NA,NA,2.54,9.39,12.96,3.05,0,1.27,1.52,0,0,12.95,0,0,0,3.31,16.51,3.3,0,22.63,58.9,0,0.5,0.800000000000011,7.59999999999999,2.80000000000001,1.79999999999998,0.700000000000017,0.5,0
24.1,"OPIHIHALE 2 24.1","TRUMAN LORNA","COOP","BI",396,19.27032215,-155.8738768,"USC00517166",NA,NA,NA,NA,0.8,1.3,37.1,15.5,5.6,0.8,1.5,0,0,0,13.7,0,0,0,1.3,11.7,0.5,0,8.9,54.1,1.5,1,0,12.4,3,2.5,0,0
26.2,"KEALAKEKUA 26.2","GREENWELL ESTATE","COOP","BI",442,19.48975723,-155.9122125,"USC00513977",NA,NA,NA,NA,1.8,0,0,5.23318743952284,0,5.35591811313096,1.3,0,0,12.4277861706503,7.84724763006186,0.146482075439661,0,0,0,0,0,4.68973063043407,32.169474246594,13.501350089885,0,0,0.5,0,5.92551117997992,8.97440511245829,10.0389394303024,0
27,"HONAUNAU 27","TANAKA S","COOP","BI",332,19.4403158,-155.8788789,"USC00511665",NA,NA,NA,NA,2,0,NA,13.2,0,13.7,1,0,0.5,NA,11.2,0,0,0,0.5,1,NA,NA,52.1,0.5,9.4,0.5,0,NA,10.9,23.9,27.7,0
27.6,"Honaunau No. 2","NWS","HydroNet-UaNet","BI",398.0688,19.4629002,-155.8824,NA,"HAUH1","15D12742",NA,NA,0.254,25.146,0,0,0,1.27,0.508,0,0,8.636,0,0,0,1.778,11.684,2.032,0,4.826,51.308,0,0,1.524,9.652,0,0,0.762,0,0
28,"NAPOOPOO 28","KONA EXP STATION","COOP","BI",122,19.46864784,-155.9055458,"USC00516697",NA,NA,NA,NA,1.0920573836922,0,NA,0.567592650439168,0,0,0.419772887658909,0,0,NA,NA,0.283796325219584,0,0,0,0,NA,NA,0,25.6551877998504,0,0,1.52367347169205,NA,NA,0,0,0
29.12,"Kealakekua","NWS","HydroNet-UaNet","BI",537.972,19.5181007,-155.9159,NA,"KLEH1","81708572",NA,NA,0.762,23.622,0,0.508,0,1.27,0.254,0,0,13.462,3.81,0,0,0,0,1.524,0,5.08,43.18,0.254,0,1.016,6.35,0,0,1.016,0,0
34,"Kapapala Ranch","NWS","HydroNet-UaNet","BI",638.556,19.2754993,-155.4514,"USC00513300","KAYH1","B16097C4",NA,NA,0.254,1.524,19.304,0,6.604,0.508,12.192,4.826,1.778,0.508,3.81,1.778,2.794,0,17.272,0,0,7.62,101.854,4.826,3.81,4.064,7.112,6.604,2.032,18.034,1.778,6.35
36.3,"KAPAPALA RANCH","KAPAPALA RANCH","RAWS","BI",1081,19.25811,-155.441781,NA,"KPRH1","AA10E258",NA,NA,0,0.769999999999996,15.24,0.25,1.27,0.510000000000005,15.24,18.03,0.5,1,0,6.10000000000001,8.2,0,19.5,0.299999999999983,0,6.30000000000001,93,0.699999999999989,4.40000000000003,11.6,5.60000000000002,16.5,0.300000000000011,9.89999999999998,2,6.10000000000002
38.9,"KAELAKOMO","KAELAKOMO","RAWS","BI",29.5656,19.29277778,-155.1075,NA,"KMOH1","32807432",NA,NA,0,0,5.84,0,0,0.760000000000002,0,9.144,0,0.25,0,1.78,0,0,0,0,0,11.684,136.652,0,0.5,0,26.6,6.39999999999998,0,0,0,0
39,"Mauna Loa Observatory","NWS","ESRL/GMD","BI",3397,19.5362,-155.5763,"USC00516198","MOBH1",NA,NA,NA,0,NA,NA,NA,0,0,1.3,0,NA,NA,NA,0,0,0,3.6,NA,NA,NA,NA,55.4,0,0,NA,NA,NA,0,5.6,0
39.1,"Mauna Loa Upper","NWS","STATE","BI",3341,19.53863295,-155.5722206,NA,NA,NA,NA,NA,0,NA,NA,NA,0,0,1.01780190386675,0,NA,NA,NA,0,0,0,2.81852834916947,NA,NA,NA,NA,43.3740195955524,0,0,NA,NA,NA,0,4.3843774320414,0
39.2,"MAUNA LOA 5 NNE","MAUNA LOA 5 NNE","USCRN","BI",3398,19.5354,-155.576,"USW00021514","MLBH1","CD07379A",NA,NA,0,0,0,0,0,0.9,0.4,0,0,0.7,0,0,0,3.4,0,0,0,12.8,62.7,4.4,0,0,0.7,0,0,5,0,0
43.3,"PUHE CS","PUHE CS","RAWS","BI",34.126,20.025,-155.8211111,NA,"PHRH1","32D61558",NA,NA,0,0,0,0,0,0.599999999999994,0,0,0,0,0,0,0,0,0,0,0,0,0,0,0,0,0,0,0,0,0,0
47,"KEMOKU LAVA FLOW","RAWS","RAWS","BI",1706.88,19.47555556,-155.3627778,"USR0000HKEA","KKUH1","FA4447E8",NA,NA,0,0,0,0.254,0,0,0.254,0,0,0,0,0.254,0.254,0.254,0,0,0,0.762,6.35,0,0,0,0.508000000000001,1.016,0,0.762000000000002,0,0.254
48,"PALI 2","RAWS","RAWS","BI",847.344,19.3175,-155.2922222,"USR0000HPAL","PLIH1","FA900222",NA,NA,0,1.02,10.16,4.57,0,0.759999999999998,9.4,29.21,3.05,0,0,10.41,19.81,3.09999999999999,8.3,0.300000000000011,0,13.5,156.7,1.19999999999999,0,0,0.50332041048958,1.00267766814066,0,0.762906921411373,0.599999999999966,0.5
49,"KEAUMO","RAWS","RAWS","BI",1682.496,19.47361111,-155.3588889,"USR0000HKMO","HKMO",NA,NA,NA,0,0,0,0.254,0,0,0.254,0,0,0,0,0.254,0.254,0.254,0,0,0,1.016,6.096,0,0,0,0.507999999999999,1.012,0,0.77,0,0.25
54,"HAWAII VOLCNS NP HQ 54","HAW VOL NATL PARK","COOP","BI",1210,19.429741,-155.257146,"USC00511303",NA,NA,NA,NA,0.238447717673505,1.74898315856514,12.4216868864418,4.14330830408094,0.447094639266036,0.325897051770562,0.855643723924638,0.748944048724719,1.76188739174605,0.43639682659371,0.0874493340970569,5.08245742816119,1.31243897427721,4.41406147710843,0.895590727550793,7.10364577491133,0.284846837890116,18.9800653943396,116.436236713773,0.375246427718827,3.50675594805845,9.28444929749372,14.0678627540757,7.82362965433357,1.26058493905594,18.7765063596994,2.34202551383589,1.44628742859088
54.2,"Glenwood","HELBUSH XL","HydroNet-UaNet","BI",802.2336,19.5076008,-155.1707,"USC00510744","GLNH1",NA,NA,NA,0.254,3.81,28.194,6.604,0.254,0.254,2.032,0,6.858,1.27,0,5.08,1.778,8.89,0.254,30.48,0,24.384,157.734,0.254,0.254,12.954,20.32,7.62,0,30.226,2.54,1.524
54.8,"Thurston","Thurston","HavoNet","BI",1202,19.41528,-155.23833,NA,NA,NA,NA,NA,0.254,0.508,6.604,1.778,0,0.508,1.27,2.032,1.016,0.508,0.254,9.144,2.032,4.064,1.016,0.254,0.254,15.748,153.414,0.508,0,1.016,23.118,11.43,0.508,27.43,1.27,2.286
54.9,"Ola a","Ola a","HavoNet","BI",1040,19.47833,-155.215,NA,NA,NA,NA,NA,0.287419372339194,2.10818390954332,14.9728145151871,4.99424814708148,0.538917553281075,0.392828780166163,1.03137318518237,0.902759860743899,2.12373837421827,0.526022656933641,0.10540940782697,6.12627681319627,1.58198363104805,5.32060776926483,1.07952438084524,8.56257057046195,0.343347800339537,22.8781325140109,140.349550837949,0.452313378294305,4.22696263722587,11.1912607746349,16.9570768904014,9.43042251191451,1.51947997447306,22.6327671545053,2.82302346928222,1.74332146687536
55.3,"VOLCANO 4.4 S","VOLCANO 4.4 S","CoCoRaHS","BI",1158,19.4338,-155.2417,"US1HIHI0040",NA,NA,NA,NA,NA,NA,NA,NA,NA,NA,NA,NA,NA,NA,0,NA,NA,NA,NA,NA,NA,0,NA,NA,NA,NA,NA,NA,NA,NA,NA,NA
55.4,"GLENWOOD NO 2 55.4","COOP","COOP","BI",671,19.52194,-155.14389,"USC00510746",NA,NA,NA,NA,0.74027469232319,3.41462257813914,41.5200313153563,9.27172753401247,59.9180392166639,0.115152233056078,2.86421438345841,0,3.36476772922593,0.575761165280391,0,2.30304466112157,0.806065631392548,19.4668143018627,34.7467808784012,25.5504947485648,0,24.858957950128,163.715335921239,44.0759435557149,0.370809669767892,13.0897882078461,12.8663119527686,30.4352221816993,0.153394462027088,20.7243434824159,10.5703525073897,2.59354580347045
55.6,"VOLCANO 4.0","COOP","COOP","BI",1194.8,19.441359,-155.2487445,"US1HIHI0071",NA,NA,NA,NA,6.1,0,2.3,6.1,2.3,0.3,0.5,3.6,NA,NA,0,0,20.3,3,2,3,0.8,0,NA,NA,NA,NA,NA,12.2,16,1,89.4,1.5
63,"KALOKO-HONOKOHAU","RAWS","RAWS","BI",7.62,19.67277778,-156.0202778,NA,"KHOH1","FA667668",NA,NA,0,0,0,0,0.254,0,0,0,0,3.048,5.08,0,0,0,0,0,0,5.078,31.75,0,0,1.53,0,0,0.25,2.29,0,0
65.4,"PAHOA 2.1 E","PAHOA 2.1 E","CoCoRaHS","BI",137,19.5043,-154.9165,"US1HIHI0003",NA,NA,NA,NA,4.8,1.5,10.4,13.2,3.3,0.5,1.5,1.3,0.3,5.3,0.3,0.5,1.8,2.8,130.8,8.1,0.3,0.3,45.7,148.8,0.5,3.6,8.6,21.6,3,0.3,12.4,2.5
65.6,"KURTISTOWN 6.6 SSE, HI US","CoCoRaHs","CoCoRaHs","BI",339.63,19.5021,-155.029,"US1HIHI0055",NA,NA,NA,NA,3,4.6,3,16.3,2,0.3,1.3,16.5,0.3,6.1,0.3,0,0.3,0.8,65.8,2.5,0.8,0,57.9,190,0.3,2.8,46,75.2,9.7,0.5,12.4,3.3
67.7,"PAHOA 2.7 SSE","PAHOA 2.7 SSE","CoCoRaHS","BI",259,19.4654,-154.927,"US1HIHI0051",NA,NA,NA,NA,3,2.8,5.8,19.1,1,0,3.6,4.1,0.3,1,0.3,0.3,0.5,0.5,70.9,1.5,0,0,47.2,157.2,0.3,5.1,11.9,11.2,3,0.3,7.6,1.5
68.14,"HONOKOHAU HARBOR 68.14","COOP","COOP","BI",9,19.67944,-156.02333,"USC00511880",NA,NA,NA,NA,NA,NA,NA,NA,NA,NA,NA,NA,NA,NA,NA,NA,NA,NA,NA,NA,NA,NA,NA,NA,0,NA,NA,NA,NA,NA,NA,NA
68.21,"KAILUA KONA KE AHOLE AIRPORT","KAILUA KONA KE AHOLE AIRPORT","NWS","BI",27,19.73556,-156.04889,"USW00021510","HKO",NA,NA,NA,0,0,0,0,0,0,0,NA,0,1.3,3.8,0,0,0,0,0,0,0.8,NA,0,0,4.3,0.5,0,NA,NA,0,0
68.22,"HOLUALOA 4.0 NW","HOLUALOA 4.0 NW","CoCoRaHS","BI",416,19.6799,-155.9699,"US1HIHI0049",NA,NA,NA,NA,0,NA,NA,NA,1.3,NA,0,NA,NA,NA,NA,0,0,0,0,NA,NA,NA,6.9,26.9,0.3,0,NA,NA,NA,NA,NA,0
69.25,"Palamanui","Hilo Forest Service","HIPPNET","BI",297,19.73756,-155.99582,NA,NA,NA,NA,NA,0,15.494,0,2.794,0.508,0.508,0,0,0,7.62,4.826,0,0,0,0,0,0,5.334,33.274,0.762,0.254,3.81,18.542,0,0,4.318,0.254,0
69.26,"KALAOA 2.2 ESE","KALAOA 2.2 ESE","CoCoRaHS","BI",398,19.7189,-155.9859,"US1HIHI0038",NA,NA,NA,NA,NA,NA,12.7,NA,NA,NA,NA,NA,NA,NA,18.5,NA,NA,NA,NA,NA,1,NA,NA,NA,NA,NA,NA,NA,NA,0.5,4.6,NA
69.27,"KALAOA 1.7","KALAOA 1.7","CoCoRaHS","BI",304.5,19.7238,-155.9926,"US1HIHI0006","","",NA,NA,0,0,11.2,0,0,0,0.5,0,0,0,17.8,0,0,0,0,0,0,5.6,7.1,0,1.5,0,5.3,9.4,0,0,4.3,0
70.16,"Waiaha Stream","NWS","HydroNet-UaNet","BI",460.5528,19.6331997,-155.9486,NA,"WIHH1","9321011E",NA,NA,0,17.018,0.254,0.508,0,0,0.254,0,0,8.382,5.334,0,0,0,0,0,0,5.08,39.624,0,0,3.556,17.78,0.254,5.08,2.286,0,0
70.7,"Puuwaawaa","Hilo Forest Service","HIPPNET","BI",1659,19.72544,-155.87389,NA,NA,NA,NA,NA,15.24,9.906,7.62,2.794,0.254,0,1.016,0.254,0.254,29.21,4.572,5.334,5.588,7.62,1.27,2.794,3.302,19.05,48.514,0,1.27,8.128,36.83,1.524,0,21.59,0,0
73.29,"Kainaliu Upper","NWS","HydroNet-UaNet","BI",713.232,19.5310993,-155.9066,NA,"KNUH1",NA,NA,NA,1.32080152610401,7.0501249115808,0,5.07555461782316,0,5.19458842740463,0.496088364950198,0,0.17574998006072,12.0534393649607,7.61087471187426,0.142069777361897,0,0,0,0.806346728610524,0,4.54846768489084,31.2004730295177,13.0946656483244,0,0.303231178992723,3.42071110453335,0,5.74702434798554,8.70408022589514,9.73654889536389,0
73.34,"Kainaliu","SCAN","SCAN","BI",416,19.53333333,-155.9333333,NA,NA,NA,2096,NA,13.462,0,15.494,0.254,1.27,0,0.508,1.016,0,0,13.208,2.794,0,0,0,0,0,0,3.302,41.148,0,0,0,5.842,0,0,0.762,0
74.8,"KEALAKEKUA 4 74.8","COOP","COOP","BI",433,19.5106,-155.9217,"USC00513987",NA,NA,NA,NA,1.8,8.27073034403119,0,1,0,0,0,0,0.206178005536237,14.140280910763,8.92856413376703,0.5,0,0,0,0.945951517139002,0,5.33595506066528,0,45.2,0,0,4.8,0,6.74202078103494,0,0,0
75.1,"PTA KIPUKA ALALA","RAWS","RAWS","BI",1641.348,19.66694444,-155.7077778,"USR0000HPTK","PKAH1","32666200",NA,NA,0,0.762,0.254,2.794,0.254,0,0,0,0,7.622,0,0,0.25,1.53,0.25,0.509999999999998,0,6.86,40.38,0.259999999999991,0,3.04000000000001,20.07,0.25,0,11.69,0.25,0
79,"KULANI CAMP 79","DEPT SOCIAL SVC","COOP","BI",1576,19.54863532,-155.3005575,"USC00515011",NA,NA,NA,NA,0.402838704185734,0.837943347536435,13.7963090116823,4.09427000675915,29.5941127921775,0.104742918442054,0,0.0523714592210272,0,0.12054811041887,0,0.942686265978489,0.566204126406201,4.56737842826681,16.6664154193396,8.30283001330462,0.682405346988901,21.4257166947424,65.9948637157032,61.7630961301763,3.75730619456222,7.57205713236664,10.3630195905757,16.6407461617899,1.38399539212965,3.63190490087126,8.74085948191748,1.22316559982826
79.6,"Kulani NWR","NWS","HydroNet-UaNet","BI",1623.3648,19.5543995,-155.3089,NA,"KNWH1",NA,NA,NA,0.254,0.508,10.414,4.572,1.778,3.048,9.398,0.254,0.254,0,0,8.89,17.78,13.716,1.27,1.27,0,23.114,135.636,0.254,4.572,2.794,5.588,29.972,1.27,21.082,4.572,0.508
83,"QuarryRainGageatSaddleRd","USGS","USGS","BI",1286.256,19.68586111,-155.2942222,NA,"SDQH1","DDF6B6E4",NA,NA,0.508,4.064,22.352,11.176,2.032,0.508,0,0.254,0,0,0,4.572,1.27,6.096,2.54,3.81,1.016,43.942,160.274,0.762,17.78,32.258,9.906,11.938,5.588,16.002,7.112,1.778
85.2,"Waiakea Uka","NWS","HydroNet-UaNet","BI",303.8856,19.6585999,-155.1277,"USC00519084","WKAH1",NA,NA,NA,0.508,0.508,58.166,8.636,0,0,0.762,0,0,0,0,0,0,26.416,2.794,0,0,27.94,141.224,0.254,1.016,0.254,7.112,8.89,0,3.556,0,0.254
87,"HILO INTERNATIONAL AIRPORT 87","NWS","HydroNet-UaNet","BI",11.6,19.7191,-155.053,"USW00021504","HTO",NA,NA,NA,0,3.048,7.62,17.78,0,0,0,0,0,0,0,0,0,38.862,5.334,0,0,19.304,152.4,0.508,0.254,1.524,9.144,18.542,0,1.778,8.382,0
87.5,"HILO 5 S","HILO 5 S","USCRN","BI",189,19.645,-155.0827,"USW00021515",NA,NA,NA,NA,0.6,0,14.3,20.3,0,0,1.6,0,0.3,0.2,0,0,0,38.8,6.9,0,0,25.7,164.3,0,0,0.3,36.2,6.3,0,2.8,1.8,0.8
87.8,"HILO 0.4 SW","HILO 0.4 SW","CoCoRaHS","BI",107,19.692,-155.0925,"US1HIHI0039",NA,NA,NA,NA,2.8,0,7.6,42.9,1.5,0.3,0,0,0,0.5,0,0,0,0,51.6,8.4,0.3,0.5,59.4,112.5,0.3,1,0.3,53.8446245666276,1,0.8,3.3,0.3
87.9,"IPIF","Hilo Forest Service","HIPPNET","BI",111,19.69748,-155.0954,NA,NA,NA,NA,NA,2.54,0,44.45,8.636,0.254,0,0,0,0,0,0,0,0,50.288,7.874,0,0.254,26.162,132.842,0.254,0.508,0.254,12.954,1.524,0.508,1.524,0.762,0
88.1,"KAUMANA 88.1","HILO SUGAR","COOP","BI",343,19.68362898,-155.1405634,"USC00513510",NA,NA,NA,NA,0.546056113079495,0.219242750262474,45.1242800516133,8.78132260374284,51.8816213472021,0,0.32886412539371,0,0,0,0,0,0,19.6081242464373,30.2513727468064,9.47280301149935,0,32.1971069118582,153.591092658874,38.7457325078555,1.26287900655977,0.871449581238867,13.0846755871489,24.62803941743,0.117770500862118,3.15698812413763,7.67532951600574,1.66198484851209
88.2,"WAIAKEA SCD 88.2","SHINICHI KANESHIRO","COOP","BI",287,19.65529741,-155.1205634,"USC00519025",NA,NA,NA,NA,0.547542784913042,0.219839652327514,45.2471337191303,8.805230302354,52.0228722979526,0,0.329759478491271,0,0,0,0,0,0,19.6615085879503,30.3337339963401,9.49859330865856,0,32.284765544041,154.009253990412,38.8512201817589,1.26631727343979,0.873822157089136,13.1202994327219,24.6950907911632,0.118091138397823,3.16558322125418,7.69622607943816,1.66650970594501
89.11,"Piihonua","NWS","HydroNet-UaNet","BI",296.8752,19.7098007,-155.1395,"USC00518053","PIIH1",NA,NA,NA,0,0,43.18,7.112,0,0,0,0,0,0,0,0,0,13.208,0,0.254,0,43.434,137.16,0.508,1.778,0.762,21.336,2.286,0.254,2.794,0.254,0
89.13,"KAIWIKI HOMESTEAD 89.11, HI US","COOP","COOP","BI",379.67,19.7509,-155.1362,"USC00512802",NA,NA,NA,NA,1.8,0,9.1,48.3,0.8,0,0,0,0,0,0,0,0,4.3,31,3,2,0,100.1,89.2,0,5.6,0.8,47.8,0.8,0.5,5.8,1.8
89.2,"AMAUULU 89.2","HILO SUGAR","COOP","BI",390,19.73529295,-155.1455638,"USC00510150",NA,NA,NA,NA,0,4.48538210862354,11.2134552715589,26.1647289669707,0,0,0,0,0,0,0,0,0,57.1886218849501,7.8494186900912,0,0,28.4074200212824,224.269105431177,0.74756368477059,0.373781842385295,2.24269105431177,13.4561463258706,27.2860744941265,0,2.61647289669707,12.3348007987147,0
91,"MOUNTAIN VIEW 91","PU SUGAR","COOP","BI",463,19.5487,-155.1101,"USC00516552",NA,NA,NA,NA,0.238691992689501,3.3,42.0093135709115,7.19439423547297,0.8,0,3.8,0,0.5,0,0,0,0.525485484117546,15.7062446093569,0.974993862859547,2,0,31.2356193751294,115.3,0,0.5,13.2,15.6792838169909,5.90651450416811,0.3,13,1.5,0.532227448151394
91.11,"PUNA MACADAMIA O 91.11","COOP","COOP","BI",244,19.61861,-155.08667,"USC00518315",NA,NA,NA,NA,0,1.08772076015039,28.988680929381,5.64128577357238,0,1.8,0,0,0.143465927194681,0,0,0,0,0,59.7,6.58371144983211,0,20.6840232808026,71.4439279073963,109.606418351722,0,1.3,8.40584016468445,15.8215128478836,0.0860795563168086,0,8.9,0
91.12,"HAWAIIAN BEACHES 91.12","COOP","COOP","BI",88,19.533,-154.917,"USC00511300",NA,NA,NA,NA,2.00351169322606,1.41304151033837,8.14659646397817,10.6821051844373,0.745528167732846,0.376652464337327,2.73073036644562,0,0.753304928674655,0.0941631160843318,0,0.0941631160843318,0.456032589222395,46.3862463232013,22.3762005254122,6.13755745822993,0.0941631160843318,15.5092933193514,131.827136836163,48.323160656486,0.194926595774839,5.21187658849381,17.1257130013431,21.7922581044007,0,3.04540979942693,9.08354263678806,1.11262243229716
91.14,"KURTISTOWN 91.14","COOP","COOP","BI",223,19.59,-155.083,"USC00515102",NA,NA,NA,NA,0.301568788719637,2.81773927879016,26.8083747054313,13.5632318275102,48.7901829389844,0,0,0,0.206071146369507,0,0,0,0.508965405412187,24.1214442440948,57.9367487668007,9.45669116257764,0,20.3588166811555,127.983888275946,103.267883465421,0.274162097686274,1.72822584015861,4.62485123832475,30.6150863489181,0.123642687821704,1.40635882386406,16.1738170844123,1.43245174641828
91.15,"Mountain View","Mountain View","HydroNet-UaNet","BI",346.5576,19.5674992,-155.0841,NA,"MTVH1",NA,NA,NA,1.016,0.254,18.288,13.208,0.762,0,3.81,0,0.508,0,0,0,2.286,34.798,3.302,2.032,0,25.146,161.29,0.508,0,16.256,91.948,5.334,0.254,12.192,1.778,1.27
91.17,"PAHOA BEACON 91.9, HI US","COOP","COOP","BI",148.5,19.5407,-154.9728,"USC00517460",NA,NA,NA,NA,NA,6.9,16.3,1.8,NA,NA,7.4,0,2,0,0.3,0.3,NA,NA,NA,0.3,NA,NA,NA,0,3.6,NA,NA,6.9,0,12.2,1.3,0
91.8,"S GLEWNWOOD 91.8","COOP","COOP","BI",694,19.488,-155.149,"USC00518638",NA,NA,NA,NA,0.312949060339166,3.13308699517827,55.0784090382619,9.43256994225856,0.448050081697946,0.0984234276288682,2.76990247692451,0,2.87594920477262,0.492117138144341,0,1.96846855257736,0.688963993402078,20.5924565653499,1.27831440753551,12.6848779506369,0,40.9530190871316,171.149015968696,0.205686243984017,0.745991351842638,10.8956974175672,20.5571082717524,7.74403088738541,0.131109995275904,18.8955004454299,1.6397842526682,0.697803382128358
91.9,"Pahoa Beacon","NWS","HydroNet-UaNet","BI",187.1472,19.5149994,-154.9644,NA,"PHAH1",NA,NA,NA,4.826,1.016,14.986,9.398,0.254,1.016,7.366,0,2.032,0.254,0,0.254,0.254,82.55,4.064,0,0.254,24.13,161.544,0.254,0,11.938,37.592,6.858,0,6.096,6.858,0.254
92,"KEAAU 92","PU SUGAR","COOP","BI",87,19.62918887,-155.0333418,"USC00513872",NA,NA,NA,NA,0.478096254949408,1.84540327549911,17.5574308327959,8.8828773581877,1.8,0,0,0,4.52548076332473,0.0908731076972837,0,0,1,7.1,64.2625048634886,13.032461063633,0.236270080012938,13.3334646223272,55.6,132.8,0.3,2.26792741197902,3.02892311156807,20.0505352121292,0.0809764845226046,0.5,10.2,2.44632709265408
92.5,"KiholoRainGage","USGS","USGS","BI",283.96692,19.82580556,-155.8925833,NA,"KIRH1","DD60236E",NA,NA,0,0.508,0,0,0,1.778,1.27,0.254,0,9.652,4.826,0,0,5.08,0,0.254,0,3.302,40.386,0,0,0.508,0.762,0,0,3.556,0,0
93.11,"KAPOHO BEACH 93.11","ARRUDA GENVIEVE","COOP","BI",4,19.48892483,-154.8200037,"USC00513368",NA,NA,NA,NA,2.08090752402985,0.441538316986407,4.87443422879057,14.1200202698328,1.32923335612368,0.218749250746185,0.441538316986407,0.382666541388219,0.0883076633972814,1.6793850729365,0.0883076633972814,0.147179438995469,0.529845980383688,0.824204858374626,50.8121488623379,4.38826164074665,0.159877475147998,0.207590682981808,27.6230234508277,70.6392804515702,0.218749250746185,1.29825799993643,2.60305616247278,12.7163035292085,1.12164267314187,0.279160494732525,4.43731801634551,0.807467006728061
93.12,"PUUANAHULU","RAWS","RAWS","BI",830.58,19.83277778,-155.7697222,NA,"PULH1","48703040",NA,NA,7.87,2.29,0,0,0,6.85,6.61,0.253999999999991,0,2.29000000000001,3.04800000000001,0,0,0,0,17.01,0,3.81000000000001,32.004,0,0,7.88,17.018,2.60000000000001,0,2.2,0.253999999999991,0
93.13,"Mamalahoa","Hilo Forest Service","HIPPNET","BI",636,19.80256,-155.85062,NA,NA,NA,NA,NA,0.254,7.112,0.254,0,0,12.446,2.286,0,0.254,2.794,3.556,0,0,12.954,0,5.842,6.096,3.302,39.37,0.254,0.254,13.462,2.032,1.016,0,3.81,0,0
93.61,"PAHOA 4.7 NE, HI US","CoCoRaHs","CoCoRaHs","BI",53.95,19.5473,-154.8988,"US1HIHI0065",NA,NA,NA,NA,6.9,0.5,5.3,6.9,5.3,0.3,0.5,3.6,0.3,0,0,0.3,3.3,3.3,61.5,3.3,0,0,38.4,136.7,0,3.3,4.3,41.7,5.6,0.3,15.7,3.6
93.62,"PAHOA 5.7 NE","COOP","COOP","BI",27.4,19.5565,-154.8865,"US1HIHI0070",NA,NA,NA,NA,8.4,2,7.9,4.1,3,0.3,0.3,3.3,0,0,0,0,2.5,1.3,53.3,NA,NA,NA,NA,NA,NA,NA,NA,38.1,1.5,0,16,5.1
93.63,"HAWAIIAN PARADISE PARK 2.4 E","COOP","COOP","BI",10.1,19.594568,-154.936038,"US1HIHI0072",NA,NA,NA,NA,12.4,1.8,10.2,7.9,2.8,0.5,0.3,0.5,0,0.3,0,0,0,0,65.5,10.2,0.5,0.8,52.3,116.6,0,8.4,15.7,19.8,5.6,0.5,15.2,3.6
93.64,"KEAAU 5.5","COOP","COOP","BI",18,19.613803,-154.955684,"US1HIHI0068",NA,NA,NA,NA,9.4,1.3,8.4,0.8,2.8,0,0,1,0,0.5,0,0.5,0.5,2,84.3,9.9,0.5,6.4,47.2,127.8,0.5,7.6,11.2,9.9,2.8,0.3,16,4.1
93.8,"KONA VILLAGE 93.8","KO VILLAGE RES","COOP","BI",12,19.8314012,-155.9858256,"USC00514765",NA,NA,NA,NA,0,0,0,0,0,0,0.3,0,0,0,8.9,0,0,0,0,0,0.5,5.1,5.1,22.9,1.3,0,0,2.5,0,0,3,0
94,"KAUPULEHU LAVA FLOW","RAWS","RAWS","BI",372.1608,19.80333333,-155.9180556,NA,"KPLH1","4870E628",NA,NA,0,0,0,0,0,5.08,0.254,1.778,0,10.41,4.32,0,0,0.509999999999998,0,0,0.25,4.58,41.91,1.01000000000001,0,16.77,2.78999999999999,5.84,0,3.05,0,0
94.5,"PUU WAAWAA","RAWS","RAWS","BI",708.9648,19.795,-155.8452778,"USR0000HPUW","PWWH1","487046D0",NA,NA,1.27,4.064,0.254,0,0,6.092,1.53,0,0.25,3.3,2.8,0,0,4.06,0,6.86,11.18,3.3,42.67,0,0,20.83,2.8,0.5,0,4.60000000000001,0,0
95.11,"WAIKOLOA VILLAGE 2.7 ENE","WAIKOLOA VILLAGE 2.7 ENE","CoCoRaHS","BI",265,19.9465,-155.7883,"US1HIHI0047",NA,NA,NA,NA,0.3,0,0,0,0,0,8.4,3.8,0,0,17,0.3,0,0,1.5,0,0,0,4.8,30.2,0,0,0,1,0,0,0,0
95.6,"WAIKOLOA","RAWS","RAWS","BI",297.7896,19.92416667,-155.7936111,NA,"WKVH1","4870C0C4",NA,NA,0,0,0,0,0,1.27,7.616,0,0,4.58,9.14,0,0,0.25,0,0,0,4.07,27.68,0,0,0,0.769999999999996,0,0,0,0,0
95.8,"WAIKOLOA 95.8","BOISE CASCADE","COOP","BI",268,19.93389178,-155.7877744,"USC00519142",NA,NA,NA,NA,0,0,0,0,0,0,10.2,0,0,0,12.2761398788461,0,0,0,0.3,0,0,0,3.46620420108597,0,0,25.9,0,0.722125875226244,0,0,0,0
95.9,"WAIKOLOA BEACH RT 95.9","COOP","COOP","BI",24,19.91278,-155.87778,"USC00519144",NA,NA,NA,NA,0,0,0,0,0,0,9.4,0,0,0,11.7,0,0,0,2.5,0,0,0,5.6,19.3,0,0,0,0,0,0,0,0
98.1,"PUUKOHOLA HEIAU 98.1","ROSE FUJIMORI","COOP","BI",43,20.02666416,-155.81944,"USC00518422",NA,NA,NA,NA,0,0,0,0,0,0,13.2,3,0,0,7.6,0.3,0,0,1.8,0,0,0,4.6,25.7,0,0,0,0,0,0,0,0
98.2,"PUHO CS","PUHO CS","RAWS","BI",29.5656,19.42194444,-155.9075,NA,"PERH1","32D6803A",NA,NA,0,6.10000000000002,1.5,1,0,0.5,0,0,0,7.89999999999998,0.299999999999955,0,0,0,0,0,0,2.20000000000005,32.3,0,0,5.10000000000002,2.5,0.299999999999955,0,0.200000000000045,0,0
98.91,"HOLUALOA 0.95","COOP","COOP","BI",527.3,19.6225861,-155.927558,"US1HIHI0067",NA,NA,NA,NA,NA,NA,15.7,NA,NA,NA,NA,NA,NA,NA,NA,NA,NA,NA,6.4,NA,NA,4.3,6.4,NA,0,0,6.4,10.2,NA,NA,NA,3
99,"PTA WEST","RAWS","RAWS","BI",1307.592,19.77166667,-155.7022222,"USR0000HPTW","PKWH1","32667176",NA,NA,0.508,0.762,0,0.253999999999999,0,0.254,0,0,0,0.254,0.254,0,0,0.507999999999999,0,0.508000000000001,NA,NA,34.54,0.25,0,4.58000000000001,35.306,0.509999999999991,0,5.08,0,0
100,"Waikii","PARKER RANCH","STATE","BI",1417,19.82,-155.6508,NA,NA,NA,NA,NA,0.254,0,0,0,0,0,10.958896713951,0,0,0,0,0,0,0,0,0,0,0,0,0,0,13.462,8.89,0,0.254,5.842,0,0.151365976712022
101.1,"PTA KEAMUKU","RAWS","RAWS","BI",1025.9568,19.90222222,-155.6786111,NA,"PKMH1","328FB7BE",NA,NA,0,0,0,0,0,9.65,14.48,0.25,1.02,7.11,3.3,0,0,0.510000000000005,0.759999999999998,1.02,0.25,8.13,40.9,0,0,7.1,4.59999999999999,1.2,0,2.60000000000001,0,0.199999999999989
102.8,"AUHMOA","RAWS","RAWS","BI",2001.9264,19.83638889,-155.6130556,NA,"AHMH1","4870D3B2",NA,NA,1.016,8.38,0.260000000000002,0,0,0,3.04,0,0,4.58,1.77,0,0,3.81,1.27,3.05,1.78,10.41,35.82,2.03,0,6.09999999999999,16.74,0.299999999999997,0,6.1,0.200000000000003,0
103.3,"Mana House","Mana House","SCAN","BI",1288,19.96,-155.54,NA,NA,NA,2097,NA,14.986,0.254,28.956,56.388,17.526,0,0,0,6.096,13.716,8.382,6.604,4.572,49.276,98.044,34.544,0,0,5.842,42.926,0,1.524,3.302,142.748,4.064,0.254,96.52,47.244
104.1,"Silversword","Silversword","SCAN","BI",2835,19.77,-155.42,NA,NA,NA,2101,NA,0.508,0.508,0.508,3.81,0,0,0,3.556,0,4.826,162.306,97.79,0,0,2.794,7.112,0,0,11.43,52.832,0.254,0,0,5.08,0.254,0,5.08,0.254
107.4,"PTA EAST","RAWS","RAWS","BI",1959.864,19.68277778,-155.5452778,"USR0000HPTA","PTAH1","3266D18E",NA,NA,0,0,0,0.254,0.254,0,0.254,0,0,0,0,0,0,1.53,2.03,0.25,0,1.53,21.59,1.27,0.5,1.02,3.81,1.02,0.25,4.57000000000001,0,0
109,"PTA RANGE 17","RAWS","RAWS","BI",1734.312,19.74583333,-155.6261111,NA,NA,"3279630C",NA,NA,0,0,0,0.254,0.254,0,0.254,0,0,0.254,0,0,0,2.794,0.254,0.254,0,5.844,28.702,1.27,0,1.52,26.16,0.259999999999991,0,6.35000000000001,0.25,0.259999999999991
113.2,"PUU MALI","RAWS","RAWS","BI",2165,19.92666,-155.44,NA,"PMLH1","3181742E",NA,NA,0,0,7.62,6.09,3.56000000000001,0.759999999999991,1.27,4.32000000000001,3.81,0,0,9.64999999999999,3.81,34.34,16.2,2.80000000000001,1.30000000000001,6.79999999999998,31.8,0.199999999999989,2.59999999999999,13.2,17.5,12.5,0.5,8.09999999999999,13.2,1.5
125.12,"Pua Akala","SCAN","SCAN","BI",1949,19.8,-155.3333333,NA,NA,NA,2098,NA,0.993861226340577,0.334582576372469,2.63533726905227,15.1244178482205,0.333253578103887,0.0472392525733764,0,2.34207803460728,0,3.25726656316075,106.899133151004,64.4071459517003,0,0.521683069398904,13.7263265781033,6.37082007340788,0.28988254066589,0.078732087622294,29.0257765469394,63.333198306679,0.214530540759611,0.836865381903625,0.144296567810382,13.7175005237036,0.421812778667828,0.186632162218799,4.56912307750012,0.432909500042873
127.5,"Laupahoehoe","Hilo Forest Service","HIPPNET","BI",1145,19.93217,-155.29129,NA,NA,NA,NA,NA,0.254,1.016,67.564,39.878,1.016,0.762,7.62,2.286,3.81,0,0,7.112,12.7,53.34,27.178,1.778,5.588,15.24,69.596,0,0,3.048,125.984,7.366,0.508,17.526,27.432,13.208
128.1,"Hakalau","Hilo Forest Service","HIPPNET","BI",1665,19.83873,-155.30797,NA,NA,NA,NA,NA,0.230905286474259,0.880302717042904,23.6755665366589,9.80123262192171,0.632146959976939,0.714375073849841,1.47268431467842,0.45643897977539,0.6881486742175,0.100242444893155,0,2.36145652366067,3.88027271093931,13.9140226320514,5.44067859477715,2.93296583070776,1.57674264543837,20.5692673730837,78.2386066542072,0.246313685226775,3.31836777262385,6.65966219293551,31.3159760585407,6.11465004797671,1.24262214443674,9.53326967258106,6.40539288020711,2.6904304973349
129,"HAKALAU","RAWS","RAWS","BI",1950.72,19.82111111,-155.3305556,"USR0000HHAK","HKUH1","8374D370",NA,NA,0.254,0,19.816,1.77,0.259999999999998,1.27,0.25,0,0,0.260000000000002,0,0.759999999999998,3.55,8.39,0.25,5.08,1.02,26.67,99.05,0.300000000000011,0.699999999999989,1.5,17.8,7.09999999999999,0.5,9.40000000000001,0.599999999999994,0
132.2,"Spencer","Hilo Forest Service","HIPPNET","BI",454,19.96358,-155.25014,NA,NA,NA,NA,NA,0,3.556,101.6,27.432,0.508,0,4.572,9.144,19.812,0,0,8.128,14.732,113.284,41.656,0,2.54,11.43,75.692,0,3.048,11.176,153.668,13.208,1.524,25.908,64.01,12.954
132.3,"POHAKUPUKA","COOP","COOP","BI",82,19.9522,-155.185,"USC00518067",NA,NA,NA,NA,2.01627447736573,4.50809998118895,12.3527110809654,34.3555743002347,33.2675929889001,0,0.59977069894028,6.84854865952585,12.2770110670207,0.093725151735671,0,10.2184694284989,0.652242729478653,44.9615206399871,51.7381859451465,13.9850192506415,0.461099637672296,5.39545529985975,52.2185700633322,39.4185096627931,1.36072054999871,4.55044171133414,60.9373947784346,92.9657241532802,4.49260067831781,13.7396212698788,36.1690887793762,10.1817752827575
132.4,"KAPEHU MAUKA 132.4","COOP","COOP","BI",335,19.95,-155.217,"USC00513329",NA,NA,NA,NA,3.14919976309578,6.5415694465206,5.81982932484613,54.9900899510826,55.1101758505768,0,0.0878330492069866,0,15.8490946959874,13.182330101021,0.526704714572768,0,6.517970842838,40.471324437089,71.4090131897545,20.9941243509094,0.90731459446971,11.7150155141501,81.7022123722746,61.5673920813807,3.1163851580004,16.5500292465103,3.95263213820454,152.010847704854,6.84716128944598,0.405994971474139,92.1773905583938,24.4689691991392
132.5,"KIHALANI 132.5","COOP","COOP","BI",302,19.97278,-155.23944,"USC00514459",NA,NA,NA,NA,2.21263541282267,6.55438674025871,45.1156023680833,48.7116826033234,3.74691385310682,0,1.42028719181071,2.70328019963787,18.2441786105087,10.3028260464721,0.411653100060032,2.40291573301144,9.44949187932612,63.5363107793882,46.0256244657357,9.29023978288768,1.46003499859049,9.96542045367616,64.0212260652541,18.900832661737,3.33674581721625,15.9280757767135,48.4255178290189,102.376441713333,5.93473755542805,7.72794099096573,85.2156746326043,21.7725438743015
133.1,"LAUPAHOEHOE 133.1","BARNARD EW","COOP","BI",140,19.98027372,-155.2305601,"USC00515427",NA,NA,NA,NA,1.69009971493573,3.51070287326846,3.1233623214895,29.5118577232625,2.98848894129791,0,12.1686409695817,0,8.50582765233838,7.07463928043189,0.282669743084083,0,3.78621697966522,59.2622828703678,30.670538687966,11.2670412326962,0.486933904746278,6.28716685837325,43.8476108940948,51.2487896946186,1.75894257889389,8.8820023548485,2.12128253288647,81.5805632223714,3.67470666009307,0.191227337960353,48.4602215864036,13.1319068268895
133.3,"Laupahoehoe","NWS","HydroNet-UaNet","BI",499.872,19.9792,-155.2372,NA,"LPHH1","B159741A",NA,NA,0,3.048,25.908,11.43,0.508,0,1.27,16.002,17.78,0,0,23.876,1.524,99.568,36.322,1.27,0.508,9.652,44.45,0,3.048,9.906,141.986,3.81,0.254,31.496,57.912,15.748
137.4,"WAILEA 137.4","WAILEA 137.4","COOP","BI",61,19.8875,-155.12528,"USC00519432",NA,NA,NA,NA,0.947778712839601,0,3.93662874746409,22.8593747332161,38.6471242505991,0,0.0654757662388872,0,5.43448859782764,0.109126277064812,0,0,0,3.62681984775053,48.5754754651945,16.2729680479161,0.69889493779335,0.13471188409086,57.8618824537081,64.4122779539716,0.0654757662388872,1.52441235721691,0.364133942691291,31.2160382058801,0.435490415151656,0.406443470345879,14.4584702680335,4.38116990650961
138.2,"KAHUNA FALLS 138.2","COOP","COOP","BI",424,19.86139,-155.16361,"USC00512595",NA,NA,NA,NA,2.0850654139136,0,6.01234467894789,34.9127258011981,3.8,0,0.3,0,24.9,0.5,0,0,0,5.6,96.5,40.6,1.3,0.205743119674792,88.3714476018502,82.6,0.3,0.3,0.5,38.1991791665643,0.66511694351583,0.3,35.6,13.2
138.3,"HONOMU 2.8 SW","HONOMU 2.8 SW","CoCoRaHS","BI",385,19.8494,-155.15,"US1HIHI0014",NA,NA,NA,NA,2.061672307721,0,5.94489000025886,34.5210272498286,58.3628574688815,0,0.0988780636791299,0,8.20687928536778,0.16479677279855,0,0,0,5.47703286969129,73.3561320804962,24.5745817623537,1.05543443221455,0.203434812887468,87.3799762339262,97.2720395209056,0.0988780636791299,2.30208748653978,0.549895957563886,47.4526755505969,0.657654754950264,0.6137895843204,21.8344225044951,6.61621271333298
140.1,"PAPAIKOU MAUKA NO 2 140","MAU KEA SUGAR","COOP","BI",427,19.78695738,-155.1388973,"USC00517724",NA,NA,NA,NA,0.8,0,0,4.3,127,0,0,0,0,0,0,0,0,5.1,71.1,22.9,0,0,71.1,94,0,1,0.3,48.3,0,0.8,18.5,3.8
140.5,"KAUKU 140.5","COOP","COOP","BI",457,19.835,-155.149,"USC00513473",NA,NA,NA,NA,0.603044088444408,0.242123549784032,49.8335787818088,9.69776650799889,58.5582062485507,0,0.0996371633854743,0,8.26988456099437,0.16606193897579,0,0,0,10.923953216606,64.1267670957685,23.9456412306436,0.431761041337055,35.557288936315,169.620297707696,70.101718344707,1.01006672997818,0.940971936679246,11.2265619400859,27.1982919427457,0.1300613666561,1.89123273526296,20.2999588782536,6.09840774759765
144.1,"PAPAIKOU 144.1","MAU KEA SUGAR","COOP","BI",61,19.78362447,-155.0922318,"USC00517711",NA,NA,NA,NA,0.8,1.3019190865884,5.00434567525625,9.77418037313811,30.3680333969177,0.536418675987881,0,0,4.30089127514428,0.086363278617355,0,0,0,8.6,79.8,12.3856891706369,0.224544524405123,5.82506029714144,79.659856948924,101.6,0,4.6,2.87860443230685,22.5346074693481,0.789269755842967,0.3,16.3,4.3
144.11,"PEPEEKEO 0.2 SSE","PEPEEKEO 0.2 SSE","CoCoRaHS","BI",178,19.8313,-155.1077,"US1HIHI0002",NA,NA,NA,NA,0.398786054173147,1.3137665812972,21.2171275962412,10.7344374085976,38.7238619145664,0,0.306059137853016,0,5.46877864444962,0.109814832217864,0,0,0,11.0773653045804,43.2869107581551,15.7489664583297,0.285518563766446,16.1127116424946,123.406229252441,46.2654930429967,0.386115884027115,0.444286347786004,2.440905935777,24.2298983273812,0,1.42535590759306,13.3381190461138,4.11286298539421
144.12,"PAPAIKOU 1.1 N","PAPAIKOU 1.1 N","CoCoRaHS","BI",108,19.8095,-155.0988,"US1HIHI0011",NA,NA,NA,NA,1.2830203550236,1.27206236909595,20.9252627218183,12.8721852765017,45.8626071302106,0,0.0778652051749774,0,6.46281202952312,0.129775341958296,0,0,0,23.0691232824463,53.2172645575813,18.6115797505812,0.437512432948278,18.9444751360397,121.863211366453,54.680435719007,0.278058292888396,0.530530394602323,5.34046967232165,25.9233392083113,0.315835121267595,0.960499384771742,16.0628139220576,4.76582988086743
147.1,"MIDDLE PEN 147.1","KAHUA RANCH","COOP","BI",421,20.10027112,-155.8322151,"USC00516270",NA,NA,NA,NA,0,0,0,14,0,0,16.5,0,0,0,7.6,0,0,0,0,0,0,0,0,25.4,0,0,0,0,49.5,0,0,0
147.2,"KOHALA RANCH","KOHALA RANCH","RAWS","BI",328.8792,20.08305556,-155.8325,NA,"KHRH1","4870B654",NA,NA,0,0,0,0,0,5.59,11.68,6.6,0,3.81,3.81,0,2.8,2.79,0.259999999999998,0,0,2.54000000000001,30.48,0,0,0,9.43000000000001,0,0,0,0,0
160.3,"Upolu Airport","NWS","HydroNet-UaNet","BI",34,20.265,-155.8582,NA,"UPLH1","B15017A0",NA,NA,NA,NA,NA,NA,NA,NA,7.80470056911513,NA,NA,NA,NA,NA,NA,24.0290175097605,4.82472398818026,NA,NA,NA,NA,NA,NA,NA,NA,NA,NA,NA,NA,NA
168,"HAWI 168","KOHALA SUGAR","COOP","BI",183,20.23692665,-155.8272119,"USC00511339",NA,NA,NA,NA,NA,NA,NA,NA,NA,NA,16.5,NA,NA,NA,NA,NA,NA,50.8,10.2,NA,NA,NA,NA,NA,NA,NA,NA,NA,NA,NA,NA,NA
175.1,"KOHALA MISSION 175.1","BOND ESTATE","COOP","BI",163,20.2252605,-155.7922137,"USC00514680",NA,NA,NA,NA,NA,NA,NA,NA,NA,NA,19.2854690652842,NA,NA,NA,NA,NA,NA,59.3758683949355,11.9219263312666,NA,NA,NA,NA,NA,NA,NA,NA,NA,NA,NA,NA,NA
176.3,"Kahua Ranch HQ","KAHUA RANCH","HydroNet-UaNet","BI",987.552,20.1249008,-155.7884,NA,"KASH1","15D293C2",NA,NA,3.302,8.636,3.302,3.048,0,4.826,10.922,0.762,12.192,8.89,5.842,1.27,21.082,22.606,25.146,0.254,0,8.382,35.814,0,0.254,6.35,11.176,0,0,8.382,14.732,3.302
178.12,"PONOHOLO RCH 178.11","PONOHOLO RCH 178.11","COOP","BI",762,20.12554592,-155.7774941,"USC00518101",NA,NA,NA,NA,0,49.5,0,11.2,0,0,19.8,2.3,4.8,0,7.9,0,22.9,11.4,35.3,10.7,0,0,6.4,33.8,0,0,0,10.2,0,0,17,4.1
179.3,"POLOLU LOOKOUT 179.3","POLOLU LOOKOUT 179.3","COOP","BI",149,20.20694,-155.73778,"USC00518086",NA,NA,NA,NA,NA,NA,NA,NA,NA,NA,23.3514393842058,NA,NA,NA,NA,NA,NA,71.8941285283428,14.4354352556909,NA,NA,NA,NA,NA,NA,NA,NA,NA,NA,NA,NA,NA
185.7,"KawainuiRainGagenearKamuela","USGS","USGS","BI",1237.488,20.08533333,-155.6811667,NA,"KWSH1","DDF6A592",NA,NA,12.7,33.274,34.036,13.462,1.27,NA,NA,1.778,12.446,65.532,27.178,7.112,21.082,49.276,53.594,2.54,0.254,10.414,41.656,0,1.27,2.794,47.752,4.572,0,16.51,20.828,7.112
189,"Waimea Plain","SCAN","SCAN","BI",927,20.01666667,-155.6,NA,NA,NA,2099,NA,9.906,0.254,3.048,6.604,2.286,0,1.016,1.524,1.27,3.81,26.416,6.096,0.762,6.096,12.954,31.496,0.254,0,7.62,33.274,0,0,0.254,11.684,0.254,0.254,19.304,9.652
191.1,"LALAMILO FLD OF 191.1","DOWALD","COOP","BI",799,20.01083015,-155.6763867,"USC00515260",NA,NA,NA,NA,0.5,NA,NA,NA,0,0,0,15.2,NA,NA,NA,NA,NA,0.3,8.9,NA,NA,NA,NA,22.9,0,0,NA,NA,NA,0,0.5,0
192.7,"Kamuela Upper","NWS","HydroNet-UaNet","BI",948.5376,20.0319996,-155.6667,"USC00513080","KUUH1","817075F6",NA,NA,2.032,14.732,9.144,3.556,0.254,4.318,5.334,0.254,1.778,36.068,19.304,0,0.508,16.764,24.638,0,0,7.62,36.322,0,0,0.508,13.208,0,0,2.54,2.794,0.508
192.9,"PUUKAPU HMSTD 192.9","COOP","COOP","BI",916,20.0375,-155.6347,"USC00518386",NA,NA,NA,NA,8.9,5.3,9.7,21.8,4.1,0,3.3,2.8,7.6,1,30,0,2.3,6.6,46.7,5.1,0,0,7.9,35.1,0,1,2,14.2,0.5,0,18.8,6.9
199,"KUKUIHAELE HIC 199","HONOKAA SUGAR","COOP","BI",299,20.11526922,-155.5822202,"USC00514928",NA,NA,NA,NA,5.51980102952995,9.75592740102967,3.85102397409066,86.3913044854338,6.80347568756017,0,0,0,16.6877705543929,25.4167582289984,1.02693972642418,0,12.7083791144992,71.7574133838893,29.011047271483,0,1.02693972642418,3.85102397409066,45.9555527574819,0,5.90490342693901,31.3216616559374,7.18857808496923,240.688998380666,13.3502164435143,0,145.055236357415,37.2265650828764
201.3,"Kamuela 1","NWS","HydroNet-UaNet","BI",877.824,20.0394993,-155.6084,NA,"KMUH1","81706680",NA,NA,0.254,7.366,14.224,10.668,0,0.762,1.778,2.54,9.144,28.194,9.652,2.286,6.35,22.86,39.624,0.762,0,7.874,35.814,0,0.762,0.762,19.812,1.27,0.254,28.448,14.732,4.064
206.1,"KUKUIHAELE 206.1","COOP","COOP","BI",226,20.12167,-155.57417,"USC00514927",NA,NA,NA,NA,2.82485422365111,6.42999245788597,5.31259658526784,19.6147390674007,1.57255135563006,0,9.12295822539618,0.23600942871865,5.09577383110126,13.943665155716,3.81949317797844,0.944037714874601,5.42091347484971,21.3487764080781,13.1007521065104,0.337156326740929,0.245636114524598,2.1770427465772,15.0128053213613,0,1.38712093401087,6.83444665585542,7.821982315683,50.2757443218458,2.75496626405657,2.19151612381604,32.6984499406595,8.62615518195541
214,"HAINA 214","HONOKAA SUGAR","COOP","BI",140,20.09193527,-155.4738903,"USC00510840",NA,NA,NA,NA,4.02865097688974,7.12040637775861,2.81068672806261,63.0530722662046,4.96554655291061,0,0,0,12.1796424882713,18.5505324052132,0.749516460816696,0,9.27526620260661,52.3724626995666,21.1738400180717,0,0.749516460816696,2.81068672806261,33.5408616215471,0,4.309719649696,22.8602520549092,5.24661522571687,175.667920503913,9.74371399061705,0,105.869200090358,27.1699717046052
215,"HONOKAA TOWN 215","HONOKAA SUGAR","COOP","BI",326,20.08026947,-155.4672231,"USC00511856",NA,NA,NA,NA,5.11681233495289,2.26421598846331,7.18840802928211,59.5909023754722,4.88479778793544,0.123777085127856,0.123777085127856,1.8427855495106,17.4408091526791,7.31087251432653,3.38415102627883,1.93256607539485,4.90596624497603,44.2064905053693,69.9632976641348,17.8109792370106,0.0742662510767138,2.63858971219898,3.40319813901783,36.2927967873262,0.406505427271002,5.77557804425501,38.4565743878143,105.940674168334,9.81266107931737,0.608694385747942,82.4698361273439,18.4701629250312
215.5,"Honokaa","NWS","HydroNet-UaNet","BI",591.9216,20.0656,-155.49,NA,"HNKH1","B15047DC",NA,NA,0,0,0,0,0,0,0,0,0,0,0,0,0,0,0,0,0,0,0,0,0,0,0,0,0,0,0,0
216.6,"HONOKAA 2.5 SSW","HONOKAA 2.5 SSW","CoCoRaHS","BI",757,20.0417,-155.4777,"US1HIHI0033",NA,NA,NA,NA,9.7,2,9.1,52.6,10.4,0.5,0.5,0.3,29.7,16.8,7.6,0.5,8.1,30.2,65.5,39.4,0.3,2.5,3.6,39.9,0.5,4.6,13.5,100.1,10.4,0.5,72.9,20.8
216.8,"KALOPA 216.8","COOP","COOP","BI",396,20.06111,-155.43528,"USC00512982",NA,NA,NA,NA,0,3,8.6,81.8,4.3,0,0,5.1,21.1,0,1.8,5.6,2.3,65.3,102.9,1.3,0,2.8,5.3,45,0.5,7.9,91.9,110,11.9,0,108.7,21.8
216.9,"HONOKAA 2.7 ESE","HONOKAA 2.7 ESE","CoCoRaHS","BI",333,20.0606,-155.43,"US1HIHI0034",NA,NA,NA,NA,11.2,3.3,8.9,83.1,3.8,0,0,0.5,13.5,13,3.8,0,8.9,64.5,84.6,31.5,0,4.6,3.3,49,0.5,8.6,22.4,188.2,14,2,120.9,25.9
217,"PAAUHAU 217","PAAUHAU SUGAR","COOP","BI",122,20.08360173,-155.4372236,"USC00517204",NA,NA,NA,NA,3.75826506578949,6.64251500000003,2.62204539473685,58.8212183552634,4.63228019736844,0,0,0,11.3621967105264,17.3054996052632,0.699212105263161,0,8.65274980263162,48.8574458552634,19.7527419736843,0,0.699212105263161,2.62204539473685,31.2897417105264,0,4.02046960526317,21.3259692105264,4.89448473684213,163.877837171053,9.08975736842109,0,98.7637098684215,25.3464388157896
217.2,"PAAUHAU MAUKA 217.2","COOP","COOP","BI",341,20.07306,-155.44722,"USC00517209",NA,NA,NA,NA,4.4162420543119,1.14980364302985,3.87261788244121,44.3974234943206,4.48584670751625,0.190746166104771,0.0952837952114195,0.398694967018476,14.6710068466668,9.06456653605603,6.09061456234337,0.15256121774743,4.99943101034662,26.0416958743448,41.7134503207396,16.2515533003018,0.152632648020203,1.86957548829385,1.77928384874379,22.6106439364763,0.284068691673682,3.2072723745198,9.0255160434573,84.5212634211927,7.17241767044752,0.564036268380415,48.0468958508405,13.7046785691829
221,"PAAUILO 221","HAMAKUA MILL","COOP","BI",244,20.03860487,-155.3688913,"USC00517312",NA,NA,NA,NA,4.3,7.6,3,67.3,5.3,0,0,0,13,19.8,0.8,0,9.9,55.9,22.6,0,0.8,3,35.8,0,4.6,24.4,5.6,187.5,10.4,0,113,29
221.7,"PAAUILO 2.4 SW","PAAUILO 2.4 SW","CoCoRaHS","BI",613,20.019,-155.3988,"US1HIHI0050",NA,NA,NA,NA,2.5,0.8,2.5,98.8,9.4,0.5,0,1.3,34,18,20.6,0.3,9.4,43.2,70.4,15,0.5,2.8,2.5,30.7,0.5,3.8,11.9,158.8,13.5,0.5,60.7,25.7
222,"KUKAIAU 222","HAMAKUA MILL","COOP","BI",256,20.02693892,-155.3422253,"USC00514815",NA,NA,NA,NA,6.14156561756863,10.8548601612841,4.28481322155951,96.1226432703183,7.5698366914218,0,0,0,18.5675239600912,28.2797672622928,1.14261685908254,0,14.1398836311464,79.8403530283922,32.2789262690816,0,1.14261685908254,4.28481322155951,51.1321044439435,0,6.57004693972458,34.8498142020173,7.99831801357775,267.800826347469,14.854019168073,0,161.394631345408,41.4198611417419
223,"OOKALA 223","LAUPAHOEHOE SUG","COOP","BI",131,20.01527222,-155.2838932,"USC00517131",NA,NA,NA,NA,3.11645571826714,7.20107347702695,6.4065693920385,58.6515176848747,3.84121286205019,0,0,0,9.42184286917971,14.3501914469045,0.579805715026444,0,7.17509572345224,62.0986439369884,19.3421200219796,0,0.579805715026444,12.8960929317621,110.59226496122,0.282153197379289,3.4749594600917,18.5305339004444,9.13739755801231,146.190556163667,7.53747429534377,0.987536190827511,86.5530850042435,21.0179571697086
249.1,"MAKENA GOLF CRS 249.1","MAKE GC","COOP","MA",30,20.6420893,-156.4388486,"USC00515842",NA,NA,NA,NA,1.3,NA,NA,NA,0,9.4,0,NA,NA,6.4,1.5,0,0,0.8,0,NA,NA,NA,51.6,0,0,0,NA,NA,NA,0,0,0
250,"ULUPALAKUA RANCH 250","ULUPALAKUA RANCH","COOP","MA",579,20.648174,-156.398497,"USC00518760",NA,NA,NA,NA,0,NA,NA,NA,0,0,5.1,0,NA,NA,NA,1.3,0,0,3.6,NA,NA,NA,17.3,70.4,0,0,NA,NA,NA,0,0,0
250.2,"Ulupalakua Ranch","NWS","HydroNet-UaNet","MA",581.5584,20.6487999,-156.3981,NA,"ULUH1","8170531A",NA,NA,6.604,41.402,0,0,0,4.826,0,0,0.762,13.97,4.318,0,0,2.54,2.286,0.254,0,7.112,83.566,0,0,0,0,0,0,0,0,0
255,"KepuniGulchRainGage","USGS","USGS","MA",225.552,20.6195,-156.2518889,NA,"KPNH1","F000D4EA",NA,NA,0,12.446,0,0,0.762,6.35,2.54,0,0,22.606,3.81,3.048,0,0,0.762,0,0,8.89,101.346,0,0.254,0,0,0,0,0,0,0
258.6,"OHE'O 258.6","HALEAKALA TL PK","COOP","MA",24,20.662925,-156.04248,"USC00517000",NA,NA,NA,NA,15.7,24.4,18,0,3,0.8,8.1,0.5,0,0,7.9,0,0,5.1,37.1,14,0,0,27.9,50.8,1.3,0,0,1,0,7.6,0,2.5
266,"KAUPO GAP","RAWS","RAWS","MA",1228.344,20.68416667,-156.1519444,"USR0000HKAU","KPGH1","FA45A6E0",NA,NA,4.22345024879976,56.6264722210381,3.05861201832004,0.612938860106685,1.92504351464426,15.0171876724944,2.24150700133762,0,1.9106704869884,53.5439653462705,15.2071193864854,1.97941957596992,4.60066265212946,52.014739508447,28.9196504096465,5.33420299105112,3.99438722043076,24.9788680773,142.066604400755,0,2.8452587615441,2.62583662610964,0.210387023860336,0,0,3.13580384107013,0.981116151862272,0
267,"KULA HOSPITAL 267","KULA SATORIUM","COOP","MA",916,20.70013977,-156.3555187,"USC00515004",NA,NA,NA,NA,0,0.8,21.6,0,0,5.3,5.6,0,5.3,5.1,33.8,5.6,0,0,5.6,0,2.5,NA,NA,73.7,0.5,0,0,0,0,0,0.8,0
267.8,"KULA 1","KULA 1","RAWS","MA",1998.5736,20.68305556,-156.3216667,NA,"KLFH1","AA10F12E",NA,NA,3.3,51.56,0.25,0,0,8.64,1.78,0,3.3,43.94,27.9,1.59999999999999,0,5.30000000000001,5.09999999999999,1,22.6,14,92.2,0,0.5,0.5,0,0,0,0.199999999999989,0,0
276,"BIG BOG HN-164","HaleNet","HaleNet","MA",1650,20.72655556,-156.09225,NA,NA,NA,NA,NA,27.686,89.664,3.048,10.16,28.702,3.302,19.814,0.254,9.144,14.986,10.668,9.652,21.844,186.186,75.944,16.256,12.954,13.97,113.29,0,0.254,2.286,3.81,0.762,0,17.018,9.652,0.762
277,"HORSHOE PU'U HN-163","HaleNet","HaleNet","MA",1930,20.73630556,-156.1071389,NA,NA,NA,NA,NA,14.0938946036068,74.2113707250529,15.062356927041,16.2978374142776,12.4046526623616,5.11405526481182,8.07711295938631,0.0621403987736104,9.55764549313328,6.25002157609595,11.2223569100014,7.95943425837855,12.2340424237383,180.743490446731,54.9983508330888,12.3741341789831,13.0734895231904,27.5430558639392,208.755421632468,0.351572598144827,1.96041873014798,4.41303093588765,8.12165876436203,13.018821028607,0,17.2360435334147,11.1766440793153,0.186421196320831
278,"TREE LINE HN-162","HaleNet","HaleNet","MA",2195,20.73422222,-156.1228889,NA,NA,NA,NA,NA,15.1860398759985,104.229082038358,14.1942288629057,12.1931473726359,18.1004665952834,3.74113710145685,5.86958177296149,1.53123347469777,14.0957798938158,4.48955993829908,10.6290805276575,14.9749182653171,30.8842717832069,145.718627646402,64.4246979587743,15.7810772679066,10.269485243981,13.7695925776904,102.77463353422,3.71649085402887,2.02524802803346,6.06128566755238,5.61285726123397,3.6476845703405,0.202717682947029,29.5390866775348,13.5919571059813,0.336629082205684
278.1,"Lakes - Subalpine","Lakes - Subalpine","Little HaleNet","MA",2228,20.73492113,-156.1234398,NA,NA,NA,NA,NA,9.57752318735368,96.648321705459,13.1618581942241,11.3063188011087,16.7839885405118,3.46903776810358,5.44267699931301,1.41986423150397,13.0705695879149,4.16302652529344,9.85600922679353,13.8857667141949,28.6380055985115,135.12026133037,59.7389789138235,14.6332923865341,9.52256792633438,12.7681064360901,95.2996577415935,3.44618408462419,1.87794825703914,5.62043794006265,5.20462450269804,3.38238220024394,0.187973677343138,27.3906581182896,12.6033906976389,0.312145470306024
278.11,"Puu Alaea - Cloud forest","Puu Alaea - Cloud forest","Little HaleNet","MA",1993,20.745673,-156.1425145,NA,NA,NA,NA,NA,10.0536499941542,69.0030263704109,9.39703899698816,8.07225827224175,11.9830948269451,2.47675386771751,3.88585314138995,1.01372612871081,9.33186259250108,2.97223401334363,7.03679538953683,9.91388065354106,20.4463876934393,96.4704486454594,42.6512355785599,10.4475840099033,6.7987316710722,9.11591603002426,68.0401343778624,2.460437254082,1.34077975505518,4.01276732536883,3.71589320404593,2.41488526691155,0.134205668404473,19.5558316077049,8.99831559741035,0.222859349638497
278.12,"Puu Alaea - Forest line","Puu Alaea - Forest line","Little HaleNet","MA",2033,20.74567736,-156.1424321,NA,NA,NA,NA,NA,11.4295101356349,78.4462150312245,10.6830407387847,9.17696138155752,13.6230029750866,2.81570210331672,4.41763915502624,1.15245637848891,10.6089448257459,3.37898960086561,7.99979353507084,11.2706131085732,23.244512740663,109.672603604029,48.4881341230252,11.8773547322136,7.72915036719644,10.3634455865622,77.3515495321517,2.79715253166515,1.52426788370072,4.56192177407364,4.2244198935983,2.74536667286107,0.152571956272645,22.2320824477673,10.2297513225588,0.253358053741206
278.2,"Lakes - Forest line","Lakes - Forest line","Little HaleNet","MA",2182,20.735063,-156.1222481,NA,NA,NA,NA,NA,14.6378617300886,64.6668167553881,8.80652097198517,7.56499060912296,11.2300668260078,2.32111252124105,3.64166278278436,0.950022705578042,8.74544030889778,2.78545626771877,6.59459710589544,9.29088385364262,19.1615190786506,90.4081625547528,39.9709951958329,9.79104883136908,6.37149351656273,8.54306401441931,63.7644337250684,2.30582125766121,1.2565240003251,3.76060157012052,3.48238327430332,2.26313179660218,0.125772068599703,18.326926304452,8.43285369428964,0.208854676140371
278.3,"Lakes - Cloud forest","Lakes - Cloud forest","Little HaleNet","MA",2143,20.73575551,-156.1214124,NA,NA,NA,NA,NA,11.0993928006255,112.00575191993,15.2532790812475,13.1028942501863,19.450966385372,4.02026829642432,6.30751904438841,1.64548083264681,15.14748470416,4.82453195254777,11.4221303060084,16.0922167541403,33.18858821288,156.590887486364,69.2315100159021,16.9585243478197,11.0357051418664,14.796960120283,110.442785086212,3.99378315982723,2.17635446622049,6.51352622050198,6.03163997676182,3.91984314816622,0.217842717808758,31.7430370645274,14.6060710307187,0.361745423956508
278.4,"Lakes - Alpine","Lakes - Alpine","Little HaleNet","MA",2304,20.73450891,-156.1273482,NA,NA,NA,NA,NA,9.40980394663158,94.9558399629028,12.9313709565903,11.1083253149443,16.4900714432376,3.40828882820324,5.34736617249865,1.39499991677689,12.8416809740001,4.0901246242205,9.68341320674416,13.6426025678293,28.1365038573181,132.754068402075,58.6928445439094,14.377037753648,9.35581104868586,12.5445144828231,93.630793472113,3.38583535283256,1.84506208703207,5.52201420718381,5.11348239291033,3.32315075142783,0.184681928336321,26.9109996207206,12.3826832060482,0.306679255267913
278.5,"Frisbee - Alpine","Frisbee - Alpine","Little HaleNet","MA",2320,20.73857613,-156.1365744,NA,NA,NA,NA,NA,9.36176486582913,47.8931751727074,6.50211644808176,2.65218542118909,8.23969844627554,3.39697324597358,5.3651623236323,0.0412762985923366,6.34859506858856,4.15153043551178,7.45436726942454,5.28699512006395,8.12637186177807,102.192515931313,34.0801866373598,8.21942677024229,8.68396836603753,9.42114983326152,68.6053926082707,0,1.18542884430162,2.23073457410861,1.19122075173969,0.12382889577701,0,10.6315607574379,3.57076630150003,0.12382889577701
278.6,"Frisbee - Subalpine","Frisbee - Subalpine","Little HaleNet","MA",2191,20.74071537,-156.1350318,NA,NA,NA,NA,NA,10.965644749207,75.2624841960933,10.2494707290718,8.80451543357082,13.0701149278863,2.70142714938421,4.23834976559245,1.10568406567716,10.1783819903499,3.2418536870477,7.67512281205189,10.8131965401599,22.3011367991903,105.221553292369,46.5202486401627,11.3953136230831,7.41546366677867,9.94284631024264,74.2122455734755,2.6836304100168,1.46240564266835,4.37677669073477,4.05297228620976,2.63394627448174,0.146379840546371,21.3297958761339,9.81457801294293,0.243075545557686
278.7,"Frisbee - Forest line","Frisbee - Forest line","Little HaleNet","MA",2135,20.74195056,-156.1342138,NA,NA,NA,NA,NA,14.3578588866111,98.5448783229507,13.4201369601278,11.5281858067982,17.1133453671251,3.53711165101564,5.54948014806685,1.44772661811018,13.3270569723714,4.24471874059543,10.0494164085354,14.1582509362283,29.1999770644531,137.771763407812,60.9112533391,14.9204455105785,9.70943189766378,13.0186585028709,97.1697491549274,3.51380950341529,1.91479975255759,5.73072934068224,5.30675628179125,3.44875561709756,0.191662336549925,27.9281525413175,12.8507105021491,0.318270786782114
278.71,"Frisbee - Cloud forest","Frisbee - Cloud forest","Little HaleNet","MA",2087,20.73622225,-156.1341472,NA,NA,NA,NA,NA,14.043793777856,96.3892987081787,13.1265836659231,11.2760172238811,16.7390064969401,3.45974054964684,5.42809031550191,1.41605891463467,13.0355397182692,4.15186937750948,9.82959456168505,13.8485520699012,28.5612541152434,134.758131347505,59.57887505377,14.5940743309367,9.49704690286952,12.7338871848883,95.044249240417,3.43694811533856,1.87291524893624,5.60537484682343,5.19067581311276,3.37331722363601,0.187469897200285,27.3172495971887,12.5696128939813,0.311308902698025
278.8,"Puu Alaea - Alpine","Puu Alaea - Alpine","Little HaleNet","MA",2320,20.74402239,-156.1421477,NA,NA,NA,NA,NA,13.22018068751,73.0983895676582,11.2851799740737,8.59915974066604,10.787694242413,2.61160398249323,1.97266066639552,1.22827579825249,10.3187013864197,1.53346395863451,7.23311381667236,10.971313623735,22.3458820425055,93.3634893108796,42.2028097951439,10.6784911120055,6.60407784342997,9.34846122040357,68.4661897075821,3.07068949563122,1.63644720488258,4.67611139938288,4.08432061143086,2.90319734132406,0.167492154307157,21.9351782104118,9.82866469181715,0.167492154307157
278.9,"Puu Alaea - Subalpine","Puu Alaea - Subalpine","Little HaleNet","MA",2075,20.74489428,-156.1421289,NA,NA,NA,NA,NA,17.4737437208351,77.1951125144982,10.512661847346,9.03060225542509,13.40573598138,2.77079576862093,4.34718426484904,1.13407638303635,10.4397476558631,3.32509965356921,7.87220851620112,11.0908632963029,22.8737967236016,107.923485812555,47.714819226844,11.6879282775197,7.60588171143395,10.1981637708603,76.1179053307861,2.75254203553553,1.49995803797133,4.48916578692524,4.1570465683399,2.70158208551819,0.150138656483756,21.8775132146769,10.0666017350352,0.249317362950167
279,"POHAKAU PALAHA HN-161","HaleNet","HaleNet","MA",2460,20.73061111,-156.1413056,NA,NA,NA,NA,NA,8.636,59.18,10.668,1.778,6.35,5.08,3.81,0,8.636,3.048,10.16,6.604,8.128,127.758,38.608,9.906,11.684,12.7,89.146,0,2.032,3.302,1.016,0,0,13.97,3.556,0
280.1,"OheoGulchRGatdamnearKipahulu","OheoGulchRGatdamnearKipahulu","USGS","MA",128.016,20.66836111,-156.0522222,NA,NA,NA,NA,NA,14.2947787464094,45.3653014510902,16.7768697370522,0.899490760642534,5.10912119782759,3.0757480539779,7.0484465293155,0.316109032588805,4.36895512312088,1.54198416110149,10.1344699185747,3.34096568238655,4.1119577629373,67.8571246173152,42.9870895920415,13.8625014360664,5.91093928422236,6.42493400458953,62.7378735281512,32.1166777110226,1.84987292546522,1.67048284119328,0.513994720367162,0.63221806517761,0,11.8722847003983,1.79898152128507,1.58054516294403
302,"MAALAEA BAY","NWS","STATE","MA",302,20.7903,-156.514,NA,"P36","15DF05C6",NA,NA,0,6.34999999999999,0,0,0,4.06400000000002,0,0,2.53999999999996,9.65200000000004,0.762,0.761999999999944,10.414,0.253999999999962,10.16,0.253999999999962,0,6.096,33.528,0.254000000000019,0,0,0.253999999999962,0,0,0.254000000000019,0.253999999999962,0
307.2,"POHAKEA BRIDGE 307.2","WAILUKU SUGAR","COOP","MA",50,20.81346495,-156.5071787,"USC00518060",NA,NA,NA,NA,9.92204421876066,NA,NA,NA,0.115178034101987,0.184284854563179,7.39975229133879,1.6491601422264,NA,NA,18.3824142426771,2.22343786695743,14.4125891417825,11.5950628348315,12.1526643605807,NA,NA,NA,22.2523961885039,17.2505920792048,0.127806474502004,0,NA,NA,3.1184779778489,2.03693173841462,4.62458714181621,1.28938515374152
311.2,"Kealia Pond NWR","Kealia Pond NWR","RAWS","MA",3.6576,20.7975,-156.4772222,NA,"KPDH1","32B2C438",NA,NA,0,3.81000000000001,0,0,0,8.13,0.510000000000005,0.509999999999991,1.27,14.48,3.81,2.03,8.37,1.8,14.5,0,0,5.3,41.4,0,0,0,0.299999999999983,0,0,0,0.700000000000017,0
311.5,"Kihei 2","NWS","HydroNet-UaNet","MA",54.5592,20.7061005,-156.437,NA,"KHIH1","93202508",NA,NA,0,14.986,0,0,0,4.826,0,0,0,9.906,2.286,1.016,0.254,0,0.508,0,0,6.604,55.372,0,0,0,0,0,0,0,0,0
324.6,"KULA AG HN-119","HaleNet","HaleNet","MA",965,20.75788889,-156.3200278,NA,NA,NA,NA,NA,0.254,15.6139597613088,0.538412405562372,0.269206202781186,0.807618608343558,1.016,0,4.03809304171779,10.4990419084663,29.8818885087117,22.0749086280573,4.84571165006135,0.762,27.94,2.15364962224949,13.1911039362781,2.54,1.524,73.4932933592638,0.269206202781186,0,1.016,0.254,0.254,0,0.269206202781186,0.254,0
324.7,"Kula Branch Stn","NWS","HydroNet-UaNet","MA",944.88,20.7577991,-156.3217,"USC00515000","KBSH1","93220610",NA,NA,0.254,14.732,0.508,0.254,0.762,0.762,0,3.81,9.906,28.194,20.828,4.572,0.508,45.72,2.032,12.446,1.524,9.652,69.342,0.254,0,4.318,0,0,0,0.254,1.778,0
328.4,"PU'U PAHU HN-106","HaleNet","HaleNet","MA",960,20.75763889,-156.2775,NA,NA,NA,NA,NA,2.47774036501718,45.3212986261734,0.0953741925077757,0,0,2.82915456045163,0.503761713529345,0.45946991783192,4.32207212664877,27.2541978656622,21.1361956321529,1.60591298735225,0.984322004728714,30.3098716515158,11.135031883797,3.36805123593858,7.68458307279686,6.80558585705861,58.2234734292076,0,0.190748385015551,0.554689902713103,0.106881078175684,0.106881078175684,0,0.15287767364487,0.413194356730297,0
337,"south rim","south rim","CraterNet","MA",2898,20.703948,-156.241101,NA,NA,NA,NA,NA,1.8,53,1,0,0,8.8,1.4,0,0,14.2,23,0,1.8,11.4,18.6,3,12.8,13.2,83.8,0,2.2,2,0,0,0,1.6,0,0
337.1,"Sliding Sands","Sliding Sands","CraterNet","MA",2697,20.714563,-156.2394,NA,NA,NA,NA,NA,2.76279295420056,44.1001172861659,0.657346426975038,0,0.0759883215002749,5.94464230880351,0.991401276276086,0.0837884204251315,1.17303788595184,27.6317654703715,17.1442796182388,0.411142003200801,1.38519040052246,14.2807662424025,12.1942749978979,2.67173382271301,8.86524707174428,15.5663174525818,88.7589986891358,0,1.15346008716864,1.6979548266102,0,0,0,0.507294660485084,0,0
337.11,"Pohaku Palaha","Pohaku Palaha","CraterNet","MA",2461,20.7300298,-156.140176,NA,NA,NA,NA,NA,12.4,98.2,12,2,7.4,6.2,5,0.8,14.6,4.4,18,8.2,13,199,73.8,13.8,12.6,16.6,129.6,0,1.8,3.8,1.4,0,0,20.2,7.8,0
337.12,"Puu Alaea","Puu Alaea","CraterNet","MA",2282,20.73782363,-156.1453106,NA,NA,NA,NA,NA,27,166.6,14.2,7.4,6,4.4,0.8,1.2,20.4,1.8,20.2,11.4,20.6,249,91.8,22.2,12.6,19.4,119.8,0.2,1.8,2.2,3.2,1,0,22.6,14.2,0
337.13,"Paliku","Paliku","CraterNet","MA",1927,20.71236611,-156.1437572,NA,NA,NA,NA,NA,5,58.2,5.4,0.2,4.8,8.8,62.4,0,0.8,15.6,6,7.2,2.8,106.6,32,2.6,3.8,12.8,93.6,0.2,0.8,7.8,6.4,0.2,0,4.8,0,0
337.2,"Puu o Pele","Puu o Pele","CraterNet","MA",2424,20.709651,-156.224485,NA,NA,NA,NA,NA,1.4,33.4,0.8,0,0.2,12.2,1.8,0,0,63.8,12.8,0,2.2,15.8,14,2.4,1.8,19,109.8,0,2.6,1.8,0,0,0,0.2,0,0
337.3,"Lava lake","Lava lake","CraterNet","MA",2270,20.718443,-156.212261,NA,NA,NA,NA,NA,2.6,39.6,0.6,0.4,0.8,10.8,0.6,0,0.2,23.6,8.8,1,2.6,26.2,20.4,3,0.8,17.8,93.8,0,1.4,1.4,0,0,0,0.2,0.4,0
337.4,"Silversword loop","Silversword loop","CraterNet","MA",2186,20.731704,-156.205387,NA,NA,NA,NA,NA,5,82.4,0.6,0.147778650139177,0.4,5.8,0.4,0,1.4,17,13.4,1.2,5,82.4,39.4,7,3.8,15.2,85.6,0,0,0.2,0,0,0,0.6,1.6,0
337.5,"Leleiwi","Leleiwi","CraterNet","MA",2722,20.74337371,-156.2288651,NA,NA,NA,NA,NA,13.6,115.2,1,0,0.2,2.8,0.6,0.4,4,49.6,33.2,1.8,7.6,18.4,66.8,8.8,6.2,20.6,115,0.2,0.2,0.4,0,0.2,0,0.2,0.2,0
337.6,"Puu Nole","Puu Nole","CraterNet","MA",2261,20.717807,-156.188007,NA,NA,NA,NA,NA,2,36.2,0.4,0,0.4,11.2,1,0,0.6,5.6,6.2,0.4,0.8,36,19,4.6,2.2,11,77.6,0,2.4,1.4,0,0,0,0,0.4,0
337.7,"Hanakauhi","Hanakauhi","CraterNet","MA",2645,20.73567887,-156.1754875,NA,NA,NA,NA,NA,13.2,124,15.2,0,1.6,4.8,0.6,0,4.4,1.4,12.6,8.6,8,112,69.2,12.8,18.4,10.2,96.6,0,1,1.2,0,0,0,8.2,2.2,0
337.8,"Aloha Park","Aloha Park","CraterNet","MA",2455,20.73555054,-156.1587809,NA,NA,NA,NA,NA,0,0,0,0,0,0,0,0,0,0.4,0,0,0,0,0,0,0,0,0,0,0,0,0,0,0,0,0,0
337.9,"Laie","Laie","CraterNet","MA",2051,20.7229056,-156.1544823,NA,NA,NA,NA,NA,4.6,66.4,0.6,0.2,2.8,5.6,4.6,0,4.2,5.8,8.6,0.6,4.2,138,49.4,6.6,2.6,16.2,79.4,0,1.4,3.4,1.8,0,0,4.2,1,0
338.4,"HALEAKALA SUMMIT 338","SMITHSONIAN INST 1","COOP","MA",3037,20.71667,-156.26667,"USC00511008",NA,NA,NA,NA,NA,NA,0,0,0,4.8,NA,NA,NA,NA,NA,NA,NA,NA,NA,0.3,NA,NA,NA,0,0,NA,NA,0,0,NA,NA,0
339.4,"PARK HQ HN-151","HaleNet","HaleNet","MA",2120,20.75980556,-156.2481667,NA,NA,NA,NA,NA,7.62,85.082,0,0,0,1.016,0.254,1.524,10.16,34.798,34.802,3.302,3.302,85.6,30.48,9.906,4.318,12.954,76.452,0,0,0,0,0,0,0.254,1.524,0
339.5,"NENE NEST HN-152","HaleNet","HaleNet","MA",2590,20.73819444,-156.2458333,NA,NA,NA,NA,NA,4.572,58.5976149489624,0.580556086670333,0,0,1.27,0.508,0.254,3.556,11.8186369049003,17.1465560755357,1.016,1.778,25.654,19.6909106664202,4.064,5.588,16.764,79.1975582816982,0,0,0,0,0,0,0,0,0
339.6,"SUMMIT HN-153","HaleNet","HaleNet","MA",2990,20.71036111,-156.25675,NA,NA,NA,NA,NA,2.286,54.356,0.254,0,0.254,9.144,1.27,0,0,6.858,18.796,0.254,0.762,7.366,5.588,1.27,9.906,19.558,86.622,0,1.524,3.556,0,0,0,0,0,0
348.5,"WestWailuaikiRainGagenrKeanae","USGS","USGS","MA",472.44,20.81436111,-156.1429722,NA,"WWKH1","DD5E710A",NA,NA,51.1000795887447,197.104,26.924,35.052,34.544,0.254,0.254,5.588,27.178,0,9.652,34.798,83.058,132.334,103.632,25.908,3.302,13.462,107.442,13.97,2.794,13.716,16.256,13.208,0.762,67.818,36.576,0.762
350,"PAAKEA 350","EMI","COOP","MA",390,20.81179461,-156.1171956,"USC00517194",NA,NA,NA,NA,48.8,NA,NA,NA,30,5.52733579844877,0,0,NA,NA,NA,NA,NA,43.6368615667008,128.146916800878,NA,NA,NA,NA,103.419361913081,NA,NA,NA,NA,NA,3.6364051305584,104.58301155486,NA
353,"Hana AP","NWS","HydroNet-UaNet","MA",19,20.7946,-156.0157,"USC00511125","HNAH1","B150314C",NA,NA,13.2079999999999,20.828,10.6680000000001,47.2439999999999,3.55600000000004,0,0,1.26999999999998,11.9379999999999,0,12.9540000000002,17.2720000000002,40.3859999999997,53.086,32.5120000000002,9.39800000000014,2.53999999999974,7.61999999999989,111.252,3.30199999999991,0,12.9540000000002,21.5899999999999,4.82600000000002,6.60400000000004,67.056,4.06399999999985,0
355,"HANA AIRPORT 355","HAWN AIRLINES","COOP","MA",24,20.792,-156.017,"USC00511125",NA,NA,NA,NA,15.5,18.3,18.8,39.1,3.6,0,0,3,10.2,0,13,31,29.5,50.3,36.8,2.5,2.5,11.2,107.4,3.3,0,17.5,17,4.3,20.3,54.1,3.3,0
361.1,"Lahainaluna","NWS","HydroNet-UaNet","MA",238.0488,20.8909,-156.6556,NA,"LAHH1","81700366",NA,NA,1.016,1.27,1.524,1.524,1.016,0.762,1.016,NA,0.508,0.508,0.762,0.508,0.508,NA,0.508,1.016,0.508,0.762,0.508,0.508,0.508,0,0,0,0,0,0,NA
364,"WAHIKULI 364","PIONEER MILL","COOP","MA",177,20.89679257,-156.6621736,"USC00518955",NA,NA,NA,NA,7.66073211569775,3.13393586551271,3.3273886967172,0.50297736113167,0,0,6.6934679596753,0.967264156022443,0.967264156022443,1.47024151715411,2.74703020310374,0.193452831204489,5.30060757500299,9.13097363285186,8.3571623080339,6.88692079087979,3.83036605784887,0,19.1518302892444,11.6071698722693,0.116071698722693,0,0,0,0,0,0,0.50297736113167
380,"PuuKukuiRainGageatalt","BALDWIN PKRS","USGS","MA",1759,20.89083333,-156.6008333,"USC00514887","PKKH1","DD73556E",NA,NA,51.562,214.376,1.778,2.794,0.762,12.7,9.398,7.112,27.686,36.83,19.304,6.604,98.044,345.948,101.6,11.684,13.208,16.764,57.404,0,0,0,0.762,0.254,0.254,2.032,5.588,0.762
386,"WAILUKU 386","WAILUKU SUGAR","COOP","MA",55,20.89345755,-156.4971783,"USC00519484",NA,NA,NA,NA,15.2360509458005,NA,NA,NA,0.461348041811855,1.53757265140536,5.41365866652741,1.90366438536472,NA,NA,41.7344576713671,6.35128824760174,45.7246112626569,18.4405131028285,32.8580212152083,NA,NA,NA,50.5206592863917,42.0147630353676,0,0,NA,NA,NA,7.94713311712439,10.930390043524,8.27808376498496
386.6,"Wailuku","NWS","HydroNet-UaNet","MA",146.9136,20.8831005,-156.5124,NA,"WUKH1","9321D776",NA,NA,1.016,17.526,13.208,0.762,1.778,4.318,4.318,1.778,6.604,18.796,10.668,7.62,43.18,18.542,21.336,5.08,3.81,10.668,47.244,0.254,0,0.254,4.826,3.302,0,18.034,9.652,0
390,"WAIKAPU 390","WAILUKU SUGAR","COOP","MA",130,20.8491,-156.5092,"USC00519376",NA,NA,NA,NA,26.2,NA,NA,NA,0,0,22.1,5.1,NA,NA,35.9575176341884,2.3,15.2,21.3,22.4,NA,NA,NA,43.5275213466492,31.8,0.5,0,NA,NA,6.1,1.3,8.9,1.8
390.4,"Waikapu Country Club","NWS","HydroNet-UaNet","MA",145.9992,20.8346996,-156.5135,NA,"WCCH1","9320E016",NA,NA,0.508,33.02,1.778,0.254,0,0,0.254,0.254,7.874,19.304,0.254,0,31.75,2.286,35.306,3.556,0.254,20.828,41.91,0,0,0,0.762,0.762,0,5.334,4.826,0
396,"PUUNENE 396","HC&S","COOP","MA",18,20.8717927,-156.4538466,"USC00518543",NA,NA,NA,NA,13.9366210651102,NA,NA,NA,0,0,11.755699448051,2.712853718781,NA,NA,NA,1.22344383396006,8.08536794617083,11.3301537666736,11.9152790785675,NA,NA,NA,NA,16.9154408347521,0.265966050860882,0,NA,NA,3.24478582050277,0.691511732238295,4.73419570532371,0.957477783099177
398,"KAHULUI AIRPORT","NOAA-NWS","NWS","MA",12,20.8887,-156.41,"USW00022516","HOG",NA,NA,NA,0.3,11.9,0,0,0,6.9,1.3,3,2,5.3,4.8,3.8,17,6.4,13.5,0.8,6.6,6.1,45.7,0,0,0.5,8.1,0,0,2,2,0
400,"SPRECKELSVILLE 400","HC&S","COOP","MA",20,20.897526,-156.41427,"USC00518688",NA,NA,NA,NA,8.73142175961706,20.92389839556,8.00071970634899,NA,NA,NA,NA,NA,NA,NA,NA,3.53596455678265,19.691426207945,12.7631861971017,16.2507496841278,4.17471587208564,5.29989562540063,5.09369214492762,34.6392202507326,14.9598789289494,NA,NA,NA,NA,NA,2.61264564301991,4.85668523116801,NA
406,"PAIA 406","HC&S","COOP","MA",50,20.9051221,-156.3738494,"USC00517566",NA,NA,NA,NA,14.4958261919529,27.6289720573676,25.0074027999479,1.48897793439579,0.781257557279085,0.219872920831125,3.50840733327009,1.36352363214665,3.13473457602071,1.7667307237924,16.6222314245197,3.50760201504161,30.7560130129975,18.6599132578684,21.8540135638061,12.1277340992456,7.61934042464021,2.86672975115329,21.0547910373119,37.5376361062281,0.16986819742648,0,0.811434739719753,0.255620784577238,0,4.34625162139268,6.01593598274353,2.79957588550787
410,"KEAHUA 410","HC&S","COOP","MA",120,20.85846016,-156.3805162,"USC00513910",NA,NA,NA,NA,13.1884967084948,NA,NA,NA,NA,NA,NA,NA,NA,NA,NA,2.95541950261269,19.157381308368,15.412292533712,16.1534629744856,NA,NA,NA,29.5781441220852,22.9296878586776,NA,NA,NA,NA,NA,2.70751338486428,6.14705507789085,NA
423,"HALIIMAILE 423","MAUI PINE","COOP","MA",326,20.86679262,-156.3405177,"USC00511075",NA,NA,NA,NA,24.1620962616796,24.3953316700762,22.7537571923557,1.72317600794571,0.211434751810393,0.160368700232415,13.2043284416474,2.52491345444838,2.90613226164106,3.91067318887729,9.99309836983605,1.3126498517594,23.6702915626344,33.7758027529054,22.9813233665224,18.2672481551131,10.7957142607237,2.0852292195657,34.7560248570313,32.7856415124753,10.6281799646531,0,0.260599137877674,0,0,1.10746054994494,1.25875703916818,2.48950992575607
426.6,"Pukalani","NWS","HydroNet-UaNet","MA",495.9096,20.8355007,-156.3307,NA,"PUKH1","15D2B52E",NA,NA,0,0,0,0,0,0,0,0,0,0,0,0,0,0,0,0,0,0,0,0.254,0,0,0.254,0,0,10.414,5.334,0
446,"KAILUA 446","EMI","COOP","MA",213,20.89012208,-156.2121892,"USC00512679",NA,NA,NA,NA,37.8,87.581441476755,14.8655219797903,6.04265452349927,4.6,3.8,0,0,7.60643714913152,6.51650194225536,6.23353943673194,13.6389039317653,52.7433547425501,30,88.1,12.2685539958243,37.645884552852,10.4101803227744,99.2422473026249,71.1,2.246227196837,3.71275876861252,13.13891082585,2.77004344682604,0.13136205485868,2.5,71.9,1.364114961381
457.1,"PUUKOLII 457.1","COOP","COOP","MA",128,20.93194,-156.67611,"USC00518407",NA,NA,NA,NA,19.8,8.1,8.6,1.3,0,0,17.3,2.5,2.5,3.8,7.1,0.5,13.7,23.6,21.6,17.8,9.9,0,49.5,30,0.3,0,0,0,0,0,0,1.3
462.4,"KAPALUA W.MAUI AIRPORT 462.4","KAPALUA W.MAUI AIRPORT 462.4","NWS","MA",73,20.9625,-156.6753,"USC00513317",NA,NA,NA,NA,19.1,36.1,21.6,0.3,0.3,0,1.5,2.8,0.8,1,10.9,0.5,19.8,26.4,13.5,9.9,3,3.3,22.9,45.5,0.5,0,0,0,0,0.5,0.8,2.8
465.1,"Mahinahina","NWS","HydroNet-UaNet","MA",223.1136,20.9552002,-156.6562,NA,"MABH1","190524C8",NA,NA,10.414,48.514,0.508,0,0,15.24,0,0.762,1.778,9.652,1.27,2.286,64.008,28.956,23.876,2.794,8.382,11.938,71.882,0.254,0,0,0,0,1.778,0.762,1.524,0.254
466,"MAHINAHINA 466","PIONEER MILL","COOP","MA",257,20.94678808,-156.6555055,"USC00515715",NA,NA,NA,NA,32.8,33.5,50.8,4.6,0.5,0.8,17.3,0.8,6.4,7.6,10.9,4.3,45.2,57.2,32.5,25.7,22.1,4.3,0,0,51.3,0,1.3,0,0,4.6,4.8,3.8
474,"FIELD 46 474","MAUI PINE","COOP","MA",319,20.9951177,-156.6391163,"USC00510541",NA,NA,NA,NA,27.3111068235083,48.2725481079407,43.6922174378627,2.48201903631606,1.00118446612204,0.804174944243743,6.44368929102906,1.91881858960635,3.79390585633721,4.54978153129613,14.9533667669276,2.51564175205479,39.3931466218624,38.3530991294203,31.1362731360281,21.1892294266529,13.312293212919,5.00866805821356,20.3893937182271,37.2494385956613,25.1462344742873,0,0.625952564657495,0,0,2.1335092986145,12.37255868769,4.32273380284991
482,"WAIHEE VALLEY 482","WAILUKU SUGAR","COOP","MA",91,20.94012106,-156.5255102,"USC00519315",NA,NA,NA,NA,19.8,58.3870692871902,34.9351993518922,1.15384419474975,0.5,2.8,3.6,2.8,4.6627983345501,0.881700628335489,26.3776116856161,6.6,54.6,11.2,45.7,16.0119663696173,4.85211102109614,5.33732212320575,50.1173778586155,53.3,0,0,1.36295521885225,0.405641434182217,2.95216708190487,10.2,14,16
482.4,"KAHAKULOA MAUKA 482","NWS","COOP","MA",334,20.9539,-156.5342,"USC00512450",NA,NA,NA,NA,14.983277725953,NA,NA,0.3,3.3,2.8,2.72423231380963,2.11884735518527,NA,NA,NA,4.99442590865098,41.3175234261127,8.47538942074106,34.5826157614167,NA,NA,NA,NA,0,0,0,NA,0,NA,7.71865822246061,0.3,0
482.5,"Kahakuloa","Kahakuloa","HydroNet-UaNet","MA",335.28,20.9540997,-156.5342,NA,"KHKH1","781001B6",NA,NA,15.494,30.226,19.05,0.762,3.302,2.54,0.254,4.572,1.778,13.208,30.48,7.366,60.706,38.1,22.86,8.89,12.954,12.192,77.47,0.254,0,4.826,15.494,1.778,0.762,23.114,6.096,0
484,"WAIEHU CAMP 484","WAILUKU SUGAR","COOP","MA",98,20.91623388,-156.5088444,"USC00519275",NA,NA,NA,NA,14,44.6238993245074,26.7001724490127,1.17128926895757,0.5,0.8,7.6,1.5,3.56366993568376,0.673863589207924,39.9,7.1,45.7,26.7,27.9,12.2375790391308,3.7083572845851,4.07919301304361,48.3,39.6,0,0,1.04167544650539,0.465033681475619,2.25627366230814,7.4,10.2,3.6
485,"HAMAKUAPOKO 485","HC&S","COOP","MA",98,20.91345401,-156.3455169,"USC00511086",NA,NA,NA,NA,21.9052531935308,42.0055525472509,38.0198644452778,1.46828091068751,1.55544086835656,0.47631094043766,2.1583030645864,1.446245697394,4.46727266887052,0.844728173188114,12.8987602589046,2.18904793610042,34.2789215668937,26.0945705863716,27.0237951687228,18.4383324478082,11.5840214365583,4.35841648219142,17.7423356091014,48.6202814523146,0.387387240373393,0,1.30580225890481,0.582947437011075,0,0.857430931594767,14.1382761441242,4.12807193444821
486.7,"HAIKU 3.2 SE","HAIKU 3.2 SE","CoCoRaHS","MA",416,20.92011989,-156.3071849,"US1HIMI0001",NA,NA,NA,NA,NA,NA,NA,5.3,5.3,0,8.9,0,16.5,0.3,19.1,NA,NA,NA,NA,NA,NA,NA,NA,NA,0,0,5.6,2.5,0,NA,NA,8.4
489,"Haiku","NWS","HydroNet-UaNet","MA",99.3648,20.9288998,-156.3225,"USC00510822","AIKH1","50A30568",NA,NA,10.16,46.99,1.524,0,9.906,3.556,0,2.032,3.302,7.366,0.762,8.636,43.434,28.194,17.018,1.016,41.91,9.144,75.692,0,1.27,1.524,11.684,0,0,10.668,4.572,0
490.7,"KUIAHA 490.7","COOP","COOP","MA",341,20.89306,-156.30306,"USC00514806",NA,NA,NA,NA,40.4692482276462,69.4443788675144,46.1338031585895,6.32120882309016,5.05896345551764,0.839130216531642,1.34737232529518,3.07960539209756,6.74797042571373,4.49453865934363,15.8372714992305,6.32638470079109,48.0834606726269,44.2317366915312,42.1182693459109,23.7918892008082,13.5151587708845,6.4338989936866,32.0021540798333,56.7378636747788,25.1493366235178,1.51408414487652,2.41282242541164,1.45800695432553,0.0841157858264732,8.45969575728382,20.0879096305015,4.35436350152848
492.2,"HALEHAKU 492.2","COOP","COOP","MA",210,20.91,-156.282,"USC00511016",NA,NA,NA,NA,22.2230980241886,77.7713707147511,6.16583269386493,6.22034330096012,11.1532576680576,3.05826257202462,0.0300499676374885,1.89477736758408,7.83011012474279,6.70812455760389,2.40679207508897,14.0399661066947,54.2943125520593,39.6360214811091,42.7459176941011,5.52290360820524,38.752889955298,10.7162994642059,87.9984671613644,17.9173590418395,1.65239766560544,3.82193521814082,13.5252703293982,2.3438974757241,0.135224854368698,15.0720433592369,23.5505873069336,0.135224854368698
493,"HONOKOHUA 493","MAUI LAND&PINE CO","COOP","MA",38,21.00011804,-156.655505,"USC00511887",NA,NA,NA,NA,18.6449025544046,27.4407655032171,24.8370541854769,1.410915831453,0.288696033719512,0.218969716630924,5.49441992626964,1.63614268433265,2.15666429524788,2.58634551074439,8.50031429907804,1.43002882826652,22.3932264041094,29.0182512917273,15.7284429752646,12.0451208539995,7.56743803018111,2.84720179596824,11.5904503429891,23.029060725153,14.2944996803333,0,0.355825789525251,0,0,1.51214247200312,1.71872486198603,2.45727912169861
494,"HONOLUA FIELD 49 494","MAUI LAND&PINE CO","COOP","MA",61,21.010978,-156.633839,"USC00511914",NA,NA,NA,NA,NA,32.6091155183913,29.5150063862398,1.67665575252206,NA,NA,NA,NA,2.56286272807816,3.07347255018993,10.1013118926574,1.69936859997968,26.6108941660349,NA,NA,14.3137674973027,8.99273239573119,3.38345999341799,13.7734617534776,NA,16.9868071391429,0,0.42284404470026,0,0,NA,NA,2.92009706256215
497,"NAKALELE FIELD 60 497","MAUI LAND&PINE CO","COOP","MA",104,21.02511528,-156.6005068,"USC00516645",NA,NA,NA,NA,NA,18.7974580902604,28.504802118962,2.58114349896113,NA,NA,NA,NA,3.59115617246765,4.26449795480534,6.11618785623397,2.41280805337671,25.3625404680528,NA,NA,14.4207365050654,12.4007111580524,2.41280805337671,0,NA,28.785361194936,0,0.729453597532492,0,0,NA,NA,2.13224897740267
499.11,"LUA MAKIKA","RAWS","RAWS","KO",335.28,20.5625,-156.5630556,"USR0000HLUA","HLUA",NA,NA,NA,0.505600850231675,16.1591723669555,0.788435823603612,0,0,2.14378990337012,1.72980021169573,0,0.151680255069494,11.0320782428486,0.252800425115838,0,0,0,0,0,0,6.30021499180789,62.3656058414837,0.101120170046329,0.303360510139002,0.101120170046344,0,0,0.151680255069494,0,0,0
499.12,"KEALIALALO","RAWS","RAWS","KO",251.46,20.54361111,-156.6408333,"USR0000HKLL","KLLH1","32792006",NA,NA,0.631602468191536,14.7794977556819,0.442121727734068,0,0,1.32636518320224,1.89480740457461,0,0.18948074045745,7.83187060557505,0.315801234095768,0,0,0,0,0,0,4.3580570305216,36.5697829082899,0.1263204936383,0.378961480914918,0.126320493638318,0,0,0.18948074045745,0,0,0
499.13,"HAKIOAWA","RAWS","RAWS","KO",365.76,20.58027778,-156.5711111,"USR0000HHAI","HKIH1","3279159C",NA,NA,1,23.4,0.699999999999989,0,0,2.10000000000002,3,0,0.299999999999983,12.4,0.5,0,0,0,0,0,0,6.90000000000001,57.9,0.199999999999989,0.599999999999994,0.200000000000017,0,0,0.299999999999983,0,0,0
499.9,"KANELOA","RAWS","RAWS","KO",248.412,20.52222222,-156.5658333,"USR0000HKAN","KAOH1","32793370",NA,NA,0,5.08,0.510000000000005,0,0,1.27,0.25,0,0,5.59,0,0,0,0,0,0,0,3.3,38.84,0,0,0,0,0,0,0,0,0
511,"MAUNALOA 511","MOLOKAI RANCH CO","COOP","MO",314,21.13348648,-157.2121842,"USC00516190",NA,NA,NA,NA,7.9,NA,NA,NA,0.3,0,3.8,3,NA,NA,NA,10.9,17,0,0,NA,NA,NA,NA,NA,0.8,NA,NA,NA,NA,8.4,0.5,1.3
524,"MOLOKAI KAUNAKAKAI MOLOKAI AIRPORT","ALOHA AIRLINES","NWS","MO",141,21.15514996,-157.0924625,"USW00022534","HMK",NA,NA,NA,5.1,10.2,2.3,0,0,0,9.7,1.8,3.3,12.2,2.8,3,26.9,14,3.6,3.8,9.4,0.8,36.3,0,0,0,0,0,0,10.7,0.3,0
536,"KAUNAKAKAI 536","MOLOKAI RANCH","COOP","MO",3,21.08876308,-157.0216311,"USC00513541",NA,NA,NA,NA,5.1,3,0,0,0,0,2.3,NA,NA,NA,NA,NA,10.4,3.6,0,NA,NA,NA,NA,17.3,0,0,0,0,0,0,0,0
536.5,"Kaunakakai Mauka","MOLOKAI GEN HOSP","HydroNet-UaNet","MO",28.3464,21.0946007,-157.0174,NA,"KACH1","50A0F2E2",NA,NA,0.254,0.508,0,0,0,4.064,0,0,9.398,9.398,2.794,1.778,14.478,4.064,3.556,0,2.286,4.826,47.498,0.254,0,0,0,0,0,0,0,0
536.6,"KAUNAKAKAI 3.5 ESE","KAUNAKAKAI 3.5 ESE","CoCoRaHS","MO",13,21.068,-156.963,"US1HIMI0002",NA,NA,NA,NA,4.8,0,1.8,0,0,0,4.6,0.3,3,1.5,15.2,2,9.1,0,0.3,0,0,0.5,17.5,41.9,0,0,0,0,0,0,0,0
538,"MOLOKAI 1","RAWS","RAWS","MO",833.0184,21.115,-156.9475,"USR0000HMLK","MLKH1","487016AC",NA,NA,1.5,9.19999999999999,1,0.5,0,5.09999999999999,2.30000000000001,4.80000000000001,12.9,18.6,29.9,16,58,27.1,44.5,6.30000000000001,11.5,5.29999999999995,58.7,0.199999999999932,0,0,0,0,0,3.10000000000002,3.5,0.5
541.2,"Puu ALII WEST","Puu ALII WEST","RAWS","MO",1159.764,21.14083333,-156.9022222,NA,"PAFH1","32D6062E",NA,NA,18.8,66.31,22.6,20.6,2.79999999999998,3.30000000000001,6.29999999999998,8.60000000000002,12.5,32.5,25.9,44,106.4,123.4,55.4,19.6,51.5,6.39999999999998,72.1,0,0,0,1.5,1.5,9.20000000000005,65.5,16.5,5.39999999999998
542.11,"Kamalo","NWS","HydroNet-UaNet","MO",8.8392,21.052,-156.871,"USC00513045","KMLH1",NA,NA,NA,NA,NA,NA,NA,NA,NA,NA,NA,NA,NA,NA,NA,NA,NA,NA,NA,NA,NA,NA,NA,NA,NA,0.5,NA,NA,NA,NA,NA
550.3,"MAUNALOA 3.2 NNW","MAUNALOA 3.2 NNW","CoCoRaHS","MO",93,21.1804,-157.2319,"US1HIMI0006",NA,NA,NA,NA,6.6,12.7,10.2,NA,0,0,0.3,NA,0.8,3.3,16.8,2.3,15.7,NA,5.8,2.3,2.8,7.4,17,17.3,NA,0,0,0,NA,3,3.3,NA
553,"MAKAPULAPAI","RAWS","RAWS","MO",22.86,21.20333333,-156.9661111,"USR0000HMAK","MKPH1","FA9024CE",NA,NA,1.78,15.49,9.91,2.53999999999999,3.3,2.29000000000001,9.65000000000001,0.509999999999991,1.27000000000001,27.22,4.5,9.40000000000001,56.9,39.9,5.80000000000001,4.09999999999999,16.5,4.60000000000002,65.3,0.200000000000045,0,0,6.09999999999997,0,0,51.3,0.5,0
563,"KALAUPAPA 563","CIVIL AIR PATROL","COOP","MO",9,21.19014673,-156.9824624,"USC00512896",NA,NA,NA,NA,15.2,NA,NA,NA,NA,3,5.1,NA,NA,NA,NA,NA,40.9,56.4,76.7,NA,NA,NA,NA,50,0,0,NA,NA,NA,NA,34.5,0
672.1,"Lanai City","NWS","HydroNet-UaNet","LA",498.0432,20.8262997,-156.9182,"USC00515286","LANH1",NA,NA,NA,2.794,2.032,1.8,1.524,1.524,2.032,1.3,NA,0.8,0.8,0.8,0.508,0.762,0.508,0.508,0.508,0.5,0.508,0.5,0.762,0.508,NA,0.762,0.3,0.254,0.254,0,0.3
679,"LANAI 1","RAWS","RAWS","LA",387.096,20.87333333,-157.0063889,"USR0000HLAN","LNIH1","48702336",NA,NA,0.5,18.29,0.760000000000005,0,0,3.56,0.510000000000005,0,0,6.09,1.02,0.25,0.769999999999996,1.77,2.29,2.54,0,7.11,51.32,0.200000000000003,0,0,0,0,0,0,0,0
702.2,"HONOLULU OBSERV 702.2","USC&GEODETIC SURVEY","COOP","OA",2,21.313926,-157.999529,"USC00511918",NA,NA,NA,NA,NA,NA,0,0,0,NA,NA,0,0,0,12.2,NA,NA,NA,3,13,1.8,NA,NA,1,0,0,0,0,3.8,0,0,0
702.7,"Kapolei-Kalaeloa AP","NWS","NWS","OA",15,21.31667,-158.06667,"USW00022551","HJR",NA,NA,NA,2.5,0.5,0,0,0,3.3,0.5,0,0,5.6,0.3,0,3.6,0.5,0.3,0.3,0.3,0.8,9.9,0,0,0,0,0,0,0,0,0
702.8,"PTWC","NWS","HydroNet-UaNet","OA",1.524,21.3150005,-157.9992,NA,"PTWH1",NA,NA,NA,10.668,4.064,0,0,0,20.574,1.016,0,0,12.192,0,3.302,6.858,9.652,4.572,12.954,1.778,0.508,22.098,1.016,0,0,0,0,0,3.81,0,0
703,"HONOLULU INTERNATIONAL AIRPORT","USWB","NWS","OA",2.1,21.324,-157.9294,"USW00022521",NA,NA,NA,NA,4.6,2.5,0,0,0,4.3,0.5,0,0,2.8,0,1.5,10.9,1.5,3.8,2.5,0.8,0.3,13.5,0,0,0,0,0,1.3,4.1,0.3,0
703.1,"HONOLULU FIRE STATION 703.1, HI US","COOP","COOP","OA",1,21.3287,-157.9298,"USC00511925",NA,NA,NA,NA,6.6,2.3,1,0,0,0,6.6,0.8,0,0.8,2.75402526927682,0.0848444023920596,10.7,1.3,2.8,3,2.3,1.5,8.4,5.3,0,0,0,0,1.66319202088238,7.42335842663206,0,0
705,"BERETANIA PUMP STN 705","BWS","COOP","OA",6,21.305169,-157.8522571,"USC00510211",NA,NA,NA,NA,3.3,1.8,0,0,0,3.3,2,0,0,3.6,0,0.3,12.4,2.5,3.8,0.8,0.5,0.8,11.4,0,0,0,0,0,2.5,9.1,0,0
705.12,"Aloha Tower","NWS","HydroNet-UaNet","OA",38.1,21.3034,-157.8627,NA,"ALOH1",NA,NA,NA,2.032,1.016,0,0,0,1.778,1.524,0,0,2.286,0,0.762,10.16,1.27,2.032,0,0.508,1.27,11.176,0,0,0,0,0,2.794,7.874,0,0
706.5,"Niuhelewai HCC JD","J_Delay","PrivateObs","OA",2,21.32180556,-157.8694722,NA,NA,NA,NA,NA,NA,NA,NA,NA,NA,NA,NA,NA,NA,NA,NA,NA,13.1,5.9,3.3,0,1.1,0.3,14.6,0,0,0,0,0,2.8,5.2,0,0
707.2,"EWA KALAELOA AIRPORT","LYDECKER RC","STATE","OA",14,21.30489073,-157.8305905,"USW00022551",NA,NA,NA,NA,2.5,0.5,0,0,0,3.3,0.5,0,0,5.6,0.3,0,3.6,0.5,0.3,0.3,0.3,0.8,9.9,0,0,0,0,0,0,0,0,0
707.5,"HONOLULU 2.0 SW","CoCoRaHS","CoCoRaHS","OA",12,21.3004,-157.8293,"US1HIHN0023",NA,NA,NA,NA,21.4103201679952,11.3416098179041,5.63150090436725,0,0,0,11.4,1,0.3,0.8,3,0.3,12.4,36.6,6.9,3.6,1.8,0,5.6,7.9,0,0,0,0,5.3,18,0.5,0
709,"PUNCHBOWL CRATER 709","T MEM CEMETERY","COOP","OA",108,21.31016855,-157.846146,"USC00518316",NA,NA,NA,NA,19.9277659976284,10.3805403457037,2.08691701146368,1.03068471557313,0,0.173247139032435,9.93205882551356,0.649410581705565,0.349259309755936,1.69988192205204,1.90895266437054,0.1867393728209,12.5947803475874,35.1470576284724,6.21410874396336,4.33137730353474,2.55266582613073,0.447541799199491,6.47969487971458,5.28797772844398,0,0,0.101047521134621,0.101891424254264,2.97433312743539,10.7688285272787,0.684552875927253,0.101047521134621
711.6,"ManoaRGatKanewaiFld,Honolulu","USGS","USGS","OA",11.5824,21.29322222,-157.8127222,NA,NA,NA,NA,NA,6.1851479163381,12.9617387533381,0.976750008240701,0.471855763288731,0.276101559580648,4.57333246930919,1.3222871254607,0.138050779790324,0.402076342250334,1.78719716530831,1.85850578892424,0.266684202453059,28.3376453552455,19.529338880042,8.33649390059576,1.93260280834555,1.34789388803794,0.444200910884567,9.1693481979531,0,0,0,0,0.0902099630091421,4.25468208104264,9.59436040446633,1.02230973703357,0
711.7,"H-1RainGageatKapiolaniAve","USGS","USGS","OA",6.096,21.28944444,-157.8155556,NA,NA,NA,NA,NA,3.48476612502989,6.9491364038206,0.559220138172847,0.10988604394214,0.219772087884281,5.13305678416199,1.50760622803331,0.10988604394214,0.291577665326852,2.05946800284276,1.38444467508791,0.266140968942579,22.8626745134844,14.0548925600679,6.01162161659773,1.72388013942316,1.32466868600929,0.487662145074077,10.0382365680073,0,0,0,0,0.0718055774425711,2.80751050876311,10.0078583005786,0.623953078606062,0
712.1,"MANOA 712.1","BEAUMONT MRS J","COOP","OA",61,21.31044568,-157.8147571,"USC00516122",NA,NA,NA,NA,32,21.6,19.1,0.5,1,0.8,17.3,1.8,1,1,3.6,0.3,20.8,60.2,9.4,11.7,1.8,0.3,5.3,8.6,0.3,0,0,0,0.8,22.1,2.5,0.3
713,"UNIV OF HAWAII 713","UH MET DEPT","COOP","OA",24,21.29933514,-157.8167017,"USC00518815",NA,NA,NA,NA,18.2181336934583,7.9,0.5,0,0,0,6.92728325117145,0,0.3,1,2.8,0,18.8,46.7,6.9,3.61526089002674,0.874758045652054,0.152191114273708,13,0,0,0,0,0.3,4.3,15.2,1,0
715,"WAIALAE KAHALA","TINKER SPENCER","COOP","OA",15,21.27433592,-157.7880917,"USC00519185",NA,NA,NA,NA,11.7,2,1.8,0.3,0,0.5,11.4,0.8,0,2,9.9,1,20.3,40.9,12.2,2.5,4.3,0,6.4,9.7,0.3,0,0,0,0,3.6,1,0
716,"MANOA TUN 2 716","BWS","COOP","OA",198,21.32794416,-157.7914236,"USC00516130",NA,NA,NA,NA,28.2285607095421,71.715374630343,17.2828891049666,4.33265029918825,6.26562133946877,8.94404276085722,1.41049959235987,1.634544539691,1.53761405436204,6.29480167096414,1.80610942239382,4.82725505909946,71.1706997992128,27.67329205495,11.7898869319074,12.4775562863961,16.2952687485898,0.715814522761827,10.2665416147539,0,0.0942547017467655,0.251345871324708,0,4.19710652506623,20.0604614530333,28.6291142634709,3.5579990193039,0
717.2,"WAIKIKI 717.2","PURINTON J","COOP","OA",3,21.27183682,-157.8180917,"USC00519397",NA,NA,NA,NA,8.4,1.3,0.3,0,0,0,15.2,2,0.3,0.5,6.9,0,12.2,24.4,6.1,3.6,2.3,0.3,6.6,8.9,0,0,0,0,2.8,2.3,0,0
718,"PALOLO VALLEY 718","BWS","COOP","OA",302,21.32183297,-157.7717015,"USC00517664",NA,NA,NA,NA,21.3,98.3,21.3,3.3,13.2,8.4,0.8,3.6,1.8,8.6,1.8,8.6,101.6,26.4,16.5,21.8,22.6,0.8,14.7,0,0,0,0,7.4,23.4,39.1,4.8,0
720.6,"HONOLULU 2.7 SSE","CoCoRaHS","CoCoRaHS","OA",113,21.285,-157.7816,"US1HIHN0010",NA,NA,NA,NA,14.7,10.2,1.8,0.8,0,0.5,18.8,0.5,1.8,1,0.5,0.5,32.5,62.2,8.1,5.8,5.3,1,7.4,11.7,0,0,0,0.5,1.8,8.1,1.3,0
721,"WILHELMINA RISE 721","BWS","COOP","OA",335,21.29766804,-157.7853133,"USC00519980",NA,NA,NA,NA,8.9,12.2,3,1,1,16.5,1,1.5,1.5,3.8,1.3,3.6,80,9.1,0.5,0,0.3,0.3,0.3,0,0.3,0.3,0,0.3,6.6,29.2,1,0.3
721.4,"Palolo Fire Stn","NWS","HydroNet-UaNet","OA",59.436,21.2996006,-157.7944,"USC00517662","PFSH1","19014414",NA,NA,5.588,20.574,2.032,0.508,1.016,10.668,1.524,0.508,1.016,2.794,3.302,0.762,65.532,9.398,14.224,4.064,3.302,0.254,14.224,0,0,0,0,0,4.318,15.24,1.778,0
723.4,"PAIKO DRIVE 723.4","GRUBB DL","COOP","OA",3,21.28172556,-157.7282194,"USC00517540",NA,NA,NA,NA,3.8,0.8,0,0.5,10.2,0,0,1,6.1,2,0,27.9,35.8,9.7,4.6,5.1,3,14.7,0.5,0,0,0,0,0,8.1,10.2,0,0.5
723.8,"Niu Valley","NWS","HydroNet-UaNet","OA",19.812,21.2896996,-157.7332,"USC00516865","NIUH1","1900D38C",NA,NA,5.842,9.906,2.54,2.54,0,12.192,0.254,0.762,1.778,4.318,1.524,3.302,52.07,40.894,8.128,6.858,11.938,0.254,15.24,0,0,0,0,0.762,3.81,14.986,2.032,0
724.19,"HAWAII KAI GC 724.19","UNOAA-NWS","COOP","OA",9,21.29889,-157.66444,"USC00511308",NA,NA,NA,NA,4.318,1.778,0.254,0.762,0.254,3.302,0.508,4.318,1.27,5.588,2.032,2.286,19.812,33.274,1.27,5.08,9.398,0.254,19.05,0,0,0,0,1.016,0.762,2.794,1.27,0
724.21,"Kamehame","NWS","HydroNet-UaNet","OA",242.316,21.3085995,-157.6791,NA,"KMHH1","190046EE",NA,NA,7.62,1.778,0.508,1.524,0,4.826,0.762,1.016,4.064,6.858,3.302,4.064,23.876,29.972,3.302,4.572,23.368,0.508,14.732,0.254,0,0,0,1.27,2.286,1.524,6.604,0
728.2,"PALEHUA","RAWS","RAWS","OA",722.376,21.385,-158.1041667,NA,"PLHH1","4870F55E",NA,NA,5.85,2.79,0.25,0,0,6.35,0,0,0,15.24,2.29,0,4.32,3.55,0.509999999999998,1.02,0.759999999999998,0,11.94,0.25,0,0,0,0,0.259999999999991,0.5,0,0
734.5,"HONOULIULI STREAM TRIBUTARY NEAR WAIPAHU 4WNW","NWS","STATE","OA",195.72,21.4019,-158.067,NA,"HOUH1","DD7ED01C",NA,NA,0,0,0,0,0,0,0,0,0,0,0,0,0,0,0,0,0,0,0,0,0,0,0,0,0,0,0,0
740.5,"Kunia","NWS","HydroNet-UaNet","OA",85.0392,21.3869991,-158.0358,NA,"KUNH1",NA,NA,NA,7.112,2.54,0,0,0,1.27,1.524,0,0.254,29.718,1.27,0.254,7.62,12.446,1.524,2.032,0.254,0,18.288,0,0,0,0,0,1.27,0.762,0,0.508
741,"EWA PLANTATION 741","EWA PLANTATION","COOP","OA",12,21.3401713,-158.0339215,"USC00510507",NA,NA,NA,NA,4.74660646150839,3.31158590337795,0,0,0,NA,NA,0,0,0,17.7424546786674,1.10386196779265,4.52583406794986,5.29853744540472,4.44436637971273,10.0048781487601,2.61773921488536,NA,NA,1.4542995638252,0,0,0,0,5.52633834253576,0,0,0
742.4,"HONOULIULI PHB","FWS","RAWS","OA",1.524,21.35666667,-158.0205556,NA,"HOFH1","327BF39A",NA,NA,4,6,0,0,0,3,3,0,0,11,0,0,6,0,1,0,0,0,14,0,0,0,0,0,0,1,0,0
750,"WAIPAHU 750","OAHU SUGAR","COOP","OA",18,21.38683459,-158.0072536,"USC00519738",NA,NA,NA,NA,4.3,3,NA,NA,0,NA,NA,0,NA,NA,NA,1,4.1,4.8,4.1,1,NA,NA,NA,NA,0,0,NA,NA,NA,NA,NA,0
752.6,"WAIAWA PHB","FWS","RAWS","OA",1.524,21.38694444,-157.9811111,NA,"WWFH1","3274C092",NA,NA,8,2,0,0,0,1,1,0,0,8,1,1,9,0,2,4,0,0,13,1,0,0,0,0,0,0,0,0
764.6,"AIEA HEIGHTS 764.6","G FOWLER","COOP","OA",238,21.39488776,-157.91031,"USC00510123",NA,NA,NA,NA,42.7,18.5,7.9,1,0,0,1,1.3,0.5,1.3,7.9,0.8,21.1,38.4,7.4,6.1,1.5,0.3,8.1,7.4,0,0,0,0,1.3,2.8,1.3,0.5
764.7,"AIEA 0.7 ENE","CoCoRaHS","CoCoRaHS","OA",175,21.393,-157.9186,"US1HIHN0014",NA,NA,NA,NA,34.3,20.6,6.4,5.1,0,0,0.8,1.8,0.8,5.6,0.5,0.5,13.2,43.7,9.4,6.4,1,0.5,2.3,15,0,0,0.5,0,0,2.3,1,0.5
770,"MOANALUA 770","ROXBURGH J","COOP","OA",6,21.34794527,-157.8950332,"USC00516395",NA,NA,NA,NA,16,4.1,3,0,0,0,10.9,0.3,0.5,0.8,5.8,0,11.2,17.5,3.6,4.6,0.3,0.3,10.7,4.1,0,0,0,0,0.5,7.1,0.3,0
771.11,"N.HalawaValleyRGattunnel","USGS","USGS","OA",335.28,21.40488889,-157.8504444,NA,"TNLH1","DD75A524",NA,NA,69.85,65.786,24.13,11.938,6.604,8.128,1.016,0.762,6.604,13.208,3.81,9.652,52.324,38.862,27.94,7.62,36.83,0.508,13.208,0.254,0,0,0.508,4.318,62.23,35.052,3.302,0
771.9,"NHalawaRainGagenrHonolulu","USGS","USGS","OA",210.312,21.382,-157.9033333,NA,NA,NA,NA,NA,21.0996960148208,18.7519563112352,1.08250611900276,1.53221300360879,0.132468365998985,3.80249705759751,1.36209665063964,0.143157417820776,0.623251036527774,6.04592064176363,0.698611348144838,1.4090526020643,24.4843603302474,12.1278764116252,10.4905228859337,1.40436776027221,1.51900201046687,0.122200074155057,9.41059519028671,0.0715787089103882,0,0.365337942531583,0,0,3.94126433679764,2.99537185817438,1.25730993231105,0
772,"MoanaluaRaingagenrHonolulu","USGS","USGS","OA",103.058976,21.37823611,-157.8700306,NA,NA,NA,NA,NA,43.4513243906469,46.3692585403503,8.14125115330572,4.93032308651053,0.994466181905242,8.428100594617,3.5557887357749,0.282551635764966,2.113668302028,7.86655312958066,1.79993645902096,3.97375733686595,49.6040935034861,26.2353713520308,23.176480228373,4.52097426252592,13.9246029059247,0.548401693950697,13.9574015939309,0.207125548341593,0,0,0.118243901631831,1.66601405018635,19.5076959238858,19.2552863157372,3.66794559641743,0
772.1,"N.HalawaRaingagenrAiea","USGS","USGS","OA",97.536,21.39295833,-157.8908639,NA,NA,NA,NA,NA,23.1597131606496,20.5827576408773,1.18819395280112,1.68180686772318,0.145401590489336,4.17374454524436,1.49508162125831,0.157134241707539,0.684100625095351,6.63619929675491,0.766818556174663,1.54662200200202,26.8748308872418,13.3119519230872,11.514739395904,1.54147976715505,1.66730605162046,0.134130779118965,10.3293756045082,0.0785671208537694,0,0.401006817813399,0,0,4.32606002789876,3.28781765367958,1.38006430831544,0
772.3,"MoanaluaRGNo.1atalt1000","USGS","USGS","OA",304.8,21.39338889,-157.8401111,NA,"MOGH1","1689664A",NA,NA,72.136,58.166,19.304,5.334,2.54,5.842,4.318,0,3.81,10.16,2.794,6.35,66.802,39.624,25.654,7.366,29.464,1.016,11.938,0,0,0,0.254,5.842,45.212,49.276,2.54,0
772.5,"Moanalua Stream","USGS","HydroNet-UaNet","OA",72.2376,21.3736,-157.8801,"USC00516400","MOAH1","1900B66A",NA,NA,31.242,24.384,2.032,2.032,0.254,11.684,4.318,0.508,2.032,6.35,1.016,2.54,31.496,14.478,16.764,1.016,2.032,0.254,13.208,0.254,0,0,0,0,4.572,5.334,3.048,0
772.6,"MoanaluaRaingagenrKaneohe","USGS","USGS","OA",350.52,21.38823333,-157.8486389,NA,NA,NA,NA,NA,56.5160165426436,78.0972239691833,16.0448113269666,9.53558241732006,1.73856466671827,4.72003666037444,2.07489535516765,0.299743347464461,2.20645156369254,9.56951745545745,2.80369002504826,4.99333998483157,83.0579221398238,45.1156195591463,28.772150691542,10.7883068498808,30.6356630352777,1.07767722090068,14.7222233824594,0.207058342239785,0.109495632483493,0,0.175189714140459,3.67281202644831,35.9749487279774,33.4036010747993,5.03956521982762,0
773,"KAPALAMA 773","KAMEHAMEHA SCH","COOP","OA",188,21.33933391,-157.8567005,"USC00513268",NA,NA,NA,NA,38.1,10.1568629468948,3.57361372864866,0.251722745625433,0.3,0.3,2,0.3,0.490120305064949,1.1502736830389,5.89987969102232,2.5,11.2,12.4,10.7,6.27276731159608,0.922384814530851,0.279152226370852,12.8738000620032,7.9,0,0.5,0,0.138588358916689,2.53934328712115,8.9,0.8,0.3
775,"NUUANU RES 5 775","BWS","COOP","OA",125,21.339125,-157.835905,"USC00516933",NA,NA,NA,NA,27.4,41.9,2.3,2.8,0,2.3,0.5,0,0.3,6.1,1,0.5,40.9,24.6,20.1,4.1,2,0.3,11.7,0,0,0,0,0,15,7.4,2,0
777,"KALIHI RES SITE 777","BWS","COOP","OA",277,21.37516437,-157.8222555,"USC00512960",NA,NA,NA,NA,15.2,16,9.9,0.5,0,7.1,2.3,0,0.3,2,0.8,0.8,36.8,7.1,0.8,0.5,3,0,0,0,0,0,0,1,6.9,9.4,0.5,0
777.3,"Wilson Tunnel","NOAA-NWS","HydroNet-UaNet","OA",314.5536,21.3771,-157.8166,NA,"WITH1",NA,NA,NA,36.177249776439,73.4116295297542,10.9387840183097,6.12151423142877,4.13641982757261,10.4533946974381,1.85272397492864,0.236719105118666,1.02099145399941,8.86810126829831,2.13396727256129,4.78736589051207,68.1862476849758,41.3897584961855,21.2745895141273,8.08616835863081,19.1505989469052,1.24071553613915,16.8159976685376,0.235252068222347,0,0,0.671188215069158,2.55848017959568,21.7738139950077,29.9057792700081,4.87262258462798,0
780.5,"TANTALUS 2 780.5","NEWMAN N","COOP","OA",404,21.32711168,-157.8239234,"USC00518738",NA,NA,NA,NA,43.3523802170104,37.8887777797976,10.2795277702655,3.27065765201566,1.05784464459655,2.00706870065949,8.26875718219401,1.18132167659405,1.00897344433882,2.87944071134114,6.52139548025142,1.64776313129779,30.6194672637645,41.2607652494857,9.99434276696641,10.4969689037884,5.30433904929269,0.52199732067429,10.0651131714209,5.45674600198647,0.0835140508892013,0.222704135704537,0,0.835140508892013,8.2521779852131,10.6944999620051,2.29484235511674,0.368699054188275
781,"KANEOHE MAUKA 781","STATE HOSPITAL","COOP","OA",61,21.40849568,-157.8105878,"USC00513113",NA,NA,NA,NA,13.1053747613815,36.5715269085128,7.77292431347503,1.4991067011675,6.76549135941029,10.8139470479983,1.2640440435197,1.33956357430853,1.54368732582288,5.28888129153799,5.83430773313303,4.7521425032063,39.8631747210877,19.7220151450019,8.69288863443575,9.34253262670086,9.01457933439029,5.88272168658437,4.28454878869683,4.42050045092173,0.106947591554558,0,0,5.88640252539174,7.16792793117805,20.2241320467689,4.36554370818193,0.285193577478821
781.11,"LulukuRaingageatalt","USGS","USGS","OA",67.056,21.39184444,-157.809475,NA,NA,NA,NA,NA,24.892,15.494,10.922,2.286,2.032,12.192,3.81,0,0.508,9.652,1.524,6.096,48.006,44.704,9.144,5.08,18.034,2.286,17.78,0.254,0,0,1.524,4.572,21.844,35.56,1.016,0
781.13,"KANEOHE 0.8 SW, HI US","CoCoRaHs","CoCoRaHs","OA",20,21.4039,-157.8017,"US1HIHN0027",NA,NA,NA,NA,30,24.9,8.9,2,1.5,2.5,NA,2.5,1.3,1.8,12.7,3,39.4,41.9,13.2,12.4,7.1,10.2,5.8,12.7,0.3,0,0,12.7,10.7,48.3,11.4,0.5
781.7,"LULUKU 781.7","NWS","COOP","OA",84,21.3873,-157.8098,"USC00515655",NA,NA,NA,NA,NA,NA,NA,2.3,4.3,NA,NA,0.3,NA,NA,NA,NA,NA,NA,NA,7.9,NA,NA,NA,0.3,0,0,NA,8.6,NA,8.9,0.3,0
781.9,"RBKamooaliiRaingagenrKaneohe","USGS","USGS","OA",59.484768,21.38628889,-157.7928083,NA,NA,NA,NA,NA,20.5575719728795,25.3046174914881,7.52808225691161,3.4297530530709,1.00673454732264,5.36897269061527,1.5301505251565,0,0.341725612306366,6.49278663382095,1.0251768369191,4.10070734767639,32.2930703629516,27.4201649960598,8.6956867363296,5.06580102813475,14.023372946682,1.09216595039923,9.33737118196433,0.160035246778879,0.0746038437022872,0,0.512588418459549,2.35840753610381,14.7328811911133,18.2768551975165,1.78406659055059,0
782.3,"Nuuanu Upper","NWS","HydroNet-UaNet","OA",248.412,21.3502007,-157.8184,"USC00516938","NUUH1","156097FE",NA,NA,43.18,80.264,11.684,10.414,1.27,2.794,1.016,0,0.762,8.636,2.54,4.826,70.612,38.608,33.02,9.398,25.908,0.762,16.002,0.254,0,0,0.254,1.778,29.464,23.622,5.588,0
783,"NUUANU RES 4 783","BWS","COOP","OA",320,21.35266525,-157.807534,"USC00516928",NA,NA,NA,NA,49,80.8,15.5,10.7,1.3,5.1,1,0.187055858859175,0.940283315836266,7.3917253093781,1.92620863098871,2.80677173150968,55.8511571142716,49.8,22.6,13.5,32,1.3,13.5,0.3,0.3,0,0,3.3,29.7,25.4,5.8,0
784,"PAUOA FLATS 784","BWS","COOP","OA",549,21.33516641,-157.8105899,"USC00517810",NA,NA,NA,NA,43.9,87.1,16,9.1,3.8,8.9,0.5,0.8,2.3,6.9,2.5,3.8,54.1,46.5,16.3,12.4,20.3,1.3,14.7,0,0.3,0.8,0,3,26.2,31,4.8,0
785.11,"WAIHI STREAM NEAR HONOLULU 3NE","USGS","USGS","OA",108,21.3283,-157.801,NA,"WISH1","16EA459A",NA,NA,NA,0.762,0,0,0,0,0,0,0,0,0,0,0,0.254,0,0,0,0,0,0,0,0,0,0,0,0.254,0,0
785.4,"Manoa Lyon Arbo","NWS","HydroNet-UaNet","OA",151.7904,21.3330002,-157.8024,"USC00516128","MNLH1",NA,NA,NA,57.404,184.658,13.462,8.89,12.7,20.828,0.254,1.016,2.54,10.668,3.302,4.064,120.396,52.578,33.02,13.97,18.288,0.508,21.59,0.254,0,0,0,1.016,18.542,38.1,11.938,0
787.1,"MAUNAWILI 787.1","HSPA","COOP","OA",127,21.351,-157.7668,"USC00516222",NA,NA,NA,NA,25.3194604999484,26.1412874432097,8.35864793447179,4.63047410672544,3.3,31,1.8,1.8,1.37827726471126,7.47427203808305,1.3,4.32521839836474,46.9494584650707,34.3578141364186,13.1945260998942,7.17843924894357,16.1953881794643,0.971550321532227,14.5377732061053,0,0,0,0.642158530309197,4.34672640886664,19.8168827242795,18.5,0.3,0
787.2,"Maunawili","NWS","HydroNet-UaNet","OA",127.1016,21.3509998,-157.7668,NA,"MAUH1","19007374",NA,NA,22.606,34.036,10.922,3.302,1.524,31.242,0,1.778,1.778,10.16,4.064,4.318,55.626,38.862,12.954,19.812,13.462,1.524,18.542,0.254,0,0,2.032,3.81,13.462,33.274,5.334,0
788,"ST STEPHENS SEMINARY","ST STEPHEN SEMIN","COOP","OA",143,21.3666,-157.7785,"USC00518601",NA,NA,NA,NA,21.1,10.4357243120824,6.99893987875788,2.20485231349041,1.14046106423785,14.749155090777,1.50559403914662,4.1,1.15445450417879,5.41770581829032,1.22832596505812,3.10681172209944,34.9962917671197,24.7555300428615,17.5,4.73051962307964,10.0530227705513,0.731195490991011,10.013373067559,0,0,0,5.3,2.67764620889098,13.3207132310484,16.8,0,0
788.1,"PALI GOLF COURSE 788.1","C&C PARKS & RECR","COOP","OA",146,21.37183016,-157.7839226,"USC00517656",NA,NA,NA,NA,32,14.6378494287992,NA,NA,3.48520224495218,5.1,11.4,3,0.522780336742827,11.152647183847,13,2,30,79.8,15.7,6.27336404091392,22.1310342554463,18.9943522349894,18.9943522349894,16.5,0.8,0,6.27336404091392,23.8736353779224,5.1,41.9,13.5,0.3
788.2,"St Stephens Seminary","NWS","HydroNet-UaNet","OA",142.9512,21.3666992,-157.7786,NA,"STVH1","19005598",NA,NA,28.956,13.208,8.89,5.588,0.508,14.986,2.032,2.032,3.556,9.398,2.54,5.08,58.928,43.688,16.51,12.192,17.78,0.508,19.812,0,0,0,0.508,4.826,23.622,39.37,6.858,0
790.11,"Olomana Fire Stn","NWS","HydroNet-UaNet","OA",45.1104,21.3777008,-157.7507,"USC00517052","OFSH1","19011468",NA,NA,16.256,2.286,3.302,0.762,3.556,18.034,1.27,2.032,1.27,7.366,2.286,2.286,34.798,28.702,10.414,8.128,13.716,0.508,20.066,0.254,0.254,0,3.302,2.032,6.096,5.842,0.762,0
793.1,"WAIMANALO EXPERIMENTAL FARM","CoCoRaHS","CoCoRaHS","OA",38,21.3727,-157.725,"US1HIHN0022",NA,NA,NA,NA,6.6,4.6,1,0,2.8,1.8,12.2,0.5,0.5,4.1,3,2.8,13.2,5.6,15.2,6.6,9.1,4.6,5.6,7.6,0.3,0,0.5,8.6,0.3,1.8,0.5,0
793.2,"BELLOWS AFS AT WAIMANALO","NWS","STATE","OA",6.66,21.3667,-157.717,NA,"BELH1","B14036D2",NA,NA,7.11200000000008,0.253999999999905,0.25400000000036,0.762000000000171,0.253999999999451,24.1299999999997,0.508000000000266,0,0.762000000000171,7.11200000000008,1.01599999999962,1.77799999999979,23.3680000000004,22.0980000000004,1.26999999999953,5.08000000000038,9.90599999999949,0,14.2240000000002,0,0,0,1.77799999999979,3.8100000000004,0,0.253999999999451,0.254000000000815,0
795.1,"WAIMANALO EXP F 795.1","HAES","COOP","OA",18,21.33516407,-157.7105906,"USC00519523",NA,NA,NA,NA,7.4,NA,NA,1.3,2.5,NA,NA,NA,NA,NA,NA,1.3,17.8,53.3,18,4.1,NA,NA,NA,12.7,0,0.5,NA,NA,NA,5.6,2.5,0.8
795.3,"Waimanalo Nonokio","NWS","HydroNet-UaNet","OA",20.1168,21.3356991,-157.7116,NA,"WMLH1","224185AC",NA,NA,2.54,2.286,0.254,2.032,0.254,24.892,0,0,1.27,5.08,0.508,0.508,56.642,25.654,6.604,3.048,12.954,0.508,15.494,0.254,0,0,1.778,5.588,1.778,5.334,0.254,0
