"SKN","Station.Name","Observer","Network","Island","ELEV.m.","LAT","LON","NCEI.id","NWS.id","NESDIS.id","SCAN.id","SMART_NODE_RF.id","X2020.01.01","X2020.01.02","X2020.01.03","X2020.01.04","X2020.01.05","X2020.01.06","X2020.01.07","X2020.01.08","X2020.01.09","X2020.01.10","X2020.01.11","X2020.01.12","X2020.01.13","X2020.01.14","X2020.01.15","X2020.01.16","X2020.01.17","X2020.01.18","X2020.01.19","X2020.01.20","X2020.01.21","X2020.01.22","X2020.01.23","X2020.01.24","X2020.01.25","X2020.01.26","X2020.01.27","X2020.01.28","X2020.01.29","X2020.01.30","X2020.01.31"
3.9,"LOWER KAHUKU CS","LOWER KAHUKU CS","RAWS","BI",953.7192,19.10083333,-155.6697222,NA,"LKHH1","32D620C2",NA,NA,1.26999999999998,2.53999999999996,1.01600000000008,2.79399999999987,0,0,0,0,1.77800000000002,11.4300000000001,47.498,177.038,8.63599999999997,0,10.6680000000001,5.33400000000006,3.30199999999991,0.254000000000133,0.761999999999716,0.508000000000038,0,0,0.762000000000171,4.31799999999998,0.253999999999905,0.508000000000038,1.52399999999989,2.7940000000001,6.60399999999981,2.54000000000019,5.58799999999997
4.15,"SOUTH POINT NEAR NAALEHU 12SSW","NWS","STATE","BI",295.78,18.9928,-155.668,NA,"SOPH1","B1507246",NA,NA,0,0,0,0,0,0,0,0,1.016,2.032,20.32,91.948,0.254,0,6.604,1.524,4.572,0,0,0,0,0,0,2.032,0,0,0.254,0.254,0.508,0.508,2.286
9.2,"Nene Cabin","Nene Cabin","RAWS","BI",1991.7737,19.2564,-155.6144,NA,"NENH1","32D64524",NA,NA,0.76199999999983,0.508000000000152,NA,11.1759999999999,0,0,0,0,7.11199999999997,NA,80.01,182.372,3.30199999999991,0,2.53999999999996,3.048,7.36599999999999,0.254000000000133,0,0,0,0,NA,NA,0,0,0,0,0,0,1.52399999999989
21,"Pahala","KAU SUGAR","HydroNet-UaNet","BI",346.8624,19.2042999,-155.4872,"USC00517421","PPLH1","B16084B2",NA,NA,0,14.2240000000002,0.253999999999905,0,0.508000000000266,0,0,0,13.7159999999999,0.762000000000171,155.956,109.728,0.762000000000171,0,0.507999999999811,14.4780000000001,7.8739999999998,0.253999999999905,0,0,0,0,0,11.9380000000001,0,0,0,0.25400000000036,3.30199999999968,2.03200000000015,0.508000000000266
23,"KAHUKU","RAWS","RAWS","BI",1796.4912,19.23222222,-155.78,NA,"KRCH1","32639544",NA,NA,0.761999999999944,1.26999999999998,0,0,0,0,0,10.922,0,0.762,15.494,81.28,0,0.254000000000019,1.01599999999999,1.01600000000001,0.761999999999986,0,0.254000000000019,0,0,0,0,6.85799999999999,0,0,0,0,0,0.253999999999991,0.254000000000019
27.6,"Honaunau No. 2","NWS","HydroNet-UaNet","BI",398.0688,19.4629002,-155.8824,NA,"HAUH1","15D12742",NA,NA,0,0,0,0,7.6200000000008,6.34999999999945,0,5.07999999999993,0,8.38200000000052,4.82600000000002,14.732,0,2.79399999999987,1.77799999999934,9.45948440581037,7.6200000000008,18.2879999999996,0,0,0,0,0,2.28600000000006,0,0,0,0,0,0,0.253999999999905
29.12,"Kealakekua","NWS","HydroNet-UaNet","BI",537.972,19.5181007,-155.9159,NA,"KLEH1","81708572",NA,NA,0,0,0,0,14.9859999999999,14.4780000000001,0,4.06399999999985,0,20.5740000000001,3.30200000000013,15.4940000000001,0.253999999999451,4.82600000000002,0.25400000000036,9.39800000000014,1.26999999999953,0.508000000000266,0.253999999999905,0,0,0,0,0,0.762000000000171,0,0,0.253999999999905,0,0.508000000000266,2.2859999999996
34,"Kapapala Ranch","NWS","HydroNet-UaNet","BI",638.556,19.2754993,-155.4514,"USC00513300","KAYH1","B16097C4",NA,NA,0,0,0.253999999999451,0,0,0,0,0,19.0500000000002,5.58799999999974,224.282,132.842,0.507999999999811,0,2.54000000000042,10.6679999999997,8.12800000000016,0,0,0,0,0,0.253999999999905,12.9539999999997,0.25400000000036,0,0,1.01600000000008,0,0.253999999999905,1.26999999999998
36.3,"KAPAPALA RANCH","KAPAPALA RANCH","RAWS","BI",1081,19.25811,-155.441781,NA,"KPRH1","AA10E258",NA,NA,0,1.27,0,0,0,0,0,0,16.1958570247489,3.048,163.83,132.842,0.671829401366333,0,2.03199999999998,9.65200000000004,5.84199999999998,0,0,0,0,0,0,11.43,0,0,2.53999999999996,0.508000000000038,2.79399999999998,1.524,0.762
38.9,"KAELAKOMO","KAELAKOMO","RAWS","BI",29.5656,19.29277778,-155.1075,NA,"KMOH1","32807432",NA,NA,0,0,0,5.33399999999995,2.286,0.762,2.54000000000002,5.84200000000004,28.7019999999999,9.39800000000002,69.088,70.866,1.524,0.761999999999944,17.018,6.35000000000002,0,0,0,0,0,0,0,0,0,0,0,0,2.79399999999998,1.524,2.79399999999998
43.3,"PUHE CS","PUHE CS","RAWS","BI",34.126,20.025,-155.8211111,NA,"PHRH1","32D61558",NA,NA,0,1.52400000000011,0,0,0.253999999999905,5.08000000000015,0,2.28599999999983,0,0,1.01600000000008,18.0340000000001,0.254000000000133,0,0,2.79399999999987,0.507999999999811,0,0,0,0,0,0,0,0,0,0,0,0,0,0
47,"KEMOKU LAVA FLOW","RAWS","RAWS","BI",1706.88,19.47555556,-155.3627778,"USR0000HKEA","KKUH1","FA4447E8",NA,NA,0,1.77800000000002,0,0.761999999999944,5.8420000000001,0.254000000000019,4.82599999999991,16.002,72.1360000000001,53.34,144.272,150.368,5.07999999999993,0,6.85800000000006,11.4300000000001,6.85799999999983,0,0,0,0,0,7.87400000000002,3.048,0,0,0,0,0,0.508000000000038,6.096
63,"KALOKO-HONOKOHAU","RAWS","RAWS","BI",7.62,19.67277778,-156.0202778,NA,"KHOH1","FA667668",NA,NA,0,0,0,0,0,0,0,11.176,0,3.556,0.254000000000001,13.97,0.254000000000001,0,0,0,3.302,0,0,0,0,0,0,0,0,0,0,0,0,0,0
70.16,"Waiaha Stream","NWS","HydroNet-UaNet","BI",460.5528,19.6331997,-155.9486,NA,"WIHH1","9321011E",NA,NA,3.55599999999959,0,0,0,8.88999999999987,0.508000000000266,0,10.922,0,2.28600000000051,1.01599999999962,13.462,2.03200000000015,6.35000000000036,0,27.1779999999994,5.33400000000029,0,2.79399999999987,0,0,0,0,0,3.30199999999968,0,0,0,0.25400000000036,0,1.52399999999943
75.1,"PTA KIPUKA ALALA","RAWS","RAWS","BI",1641.348,19.66694444,-155.7077778,"USR0000HPTK","PKAH1","32666200",NA,NA,0,NA,0,0,0,0,0,0,0,0,10.16,17.018,0,0,0.254000000000001,0,0,0,0,0,1.27,0,0,0,0,0,0,0,0,0,0.254000000000001
83,"QuarryRainGageatSaddleRd","USGS","USGS","BI",1286.256,19.68586111,-155.2942222,NA,"SDQH1","DDF6B6E4",NA,NA,0,2.2846506937654,0,9.90599999999995,42.2660378346599,5.07999999999998,24.892,82.55,239.014,176.276,492.76,205.994,47.4065018956318,9.14400000000001,26.2734829783021,11.4299999999998,5.07999999999993,0.254000000000133,1.77800000000002,2.28600000000006,0.507999999999811,0.254000000000133,8.88999999999987,2.7940000000001,1.27000000000021,0.507999999999811,0,0.762000000000171,1.26999999999975,0.254000000000133,6.096
92.5,"KiholoRainGage","USGS","USGS","BI",283.96692,19.82580556,-155.8925833,NA,"KIRH1","DD60236E",NA,NA,0,0,0,0,0,0,0,1.77800000000001,0,1.77799999999999,0.254000000000005,20.828,0,2.28599999999999,0,0,0,0,0,0,0,0,0,0,0,0,0,0.762000000000015,0,0,0
93.12,"PUUANAHULU","RAWS","RAWS","BI",830.58,19.83277778,-155.7697222,NA,"PULH1","48703040",NA,NA,0,0,0,0,0,0,0,0,0,0.762,5.842,26.416,0,0,0,0,0,0,0,0,0,0,0,0,0,0,0,0,0,0,5.08
94,"KAUPULEHU LAVA FLOW","RAWS","RAWS","BI",372.1608,19.80333333,-155.9180556,NA,"KPLH1","4870E628",NA,NA,0.508,0,0,0.254,0,0,0,0,0,1.524,0,21.336,0,0,0,0,0,0,0,0,0,0,0,0,0,0,0,0,0,0,0
94.5,"PUU WAAWAA","RAWS","RAWS","BI",708.9648,19.795,-155.8452778,"USR0000HPUW","PWWH1","487046D0",NA,NA,0,0,0,0,0,0,0,0,0,3.302,1.016,23.876,0,0,0,0,4.06399999999999,0,0,0,0,0,0,0,0,0,0,0.762,0.254000000000005,0,0.253999999999998
95.6,"WAIKOLOA","RAWS","RAWS","BI",297.7896,19.92416667,-155.7936111,NA,"WKVH1","4870C0C4",NA,NA,4.31800000000004,0,0,0,0,0,0,0,0,3.55599999999993,4.06399999999996,22.098,2.286,0,0.254000000000076,0,0.507999999999981,0,0,0,0,0,0,0,0,0,0,0.253999999999962,0,0,0.254000000000019
98.2,"PUHO CS","PUHO CS","RAWS","BI",29.5656,19.42194444,-155.9075,NA,"PERH1","32D6803A",NA,NA,0,0,0,0,0,0,0,0,0,0,NA,11.176,0.508000000000038,0,0,0,0,0,0,0,0,0,0,0,NA,0,0,0,0,0,9.90599999999998
99,"PTA WEST","RAWS","RAWS","BI",1307.592,19.77166667,-155.7022222,"USR0000HPTW","PKWH1","32667176",NA,NA,1.778,0,0,0,0,NA,0,0,0.508,1.778,11.938,27.432,NA,0,0,0,3.556,0,0,0,1.27,0,0,NA,0,0,0,0,0,0.507999999999996,1.27
101.1,"PTA KEAMUKU","RAWS","RAWS","BI",1025.9568,19.90222222,-155.6786111,NA,"PKMH1","328FB7BE",NA,NA,1.524,0.254,0,0,0,0,0,0,0,1.27,3.048,30.226,0,0,0,0.762,NA,0.254000000000005,0,0,0.761999999999986,0,0,0,0,0,0,0,0,0,14.224
102.8,"AUHMOA","RAWS","RAWS","BI",2001.9264,19.83638889,-155.6130556,NA,"AHMH1","4870D3B2",NA,NA,0.254,0.254,0,0,0,0,0,0.762,0.508,0.254,0.762,NA,0.762,0.253999999999999,0.254,0.254,0.254,0.254,0,0.254,0,0,0,0,0,0,0,0,0,0,0.254
107.4,"PTA EAST","RAWS","RAWS","BI",1959.864,19.68277778,-155.5452778,"USR0000HPTA","PTAH1","3266D18E",NA,NA,0,0,0,0.508,1.524,0,0,1.016,22.352,34.544,38.354,68.58,0.50800000000001,0,0.253999999999991,0,0,0,0,0,0,0,0,0,0,0,0,0,0,0,0.254000000000019
109,"PTA RANGE 17","RAWS","RAWS","BI",1734.312,19.74583333,-155.6261111,NA,"PTRH1","3279630C",NA,NA,0,0,0,0,0,0,0,0,0,0,9.906,35.814,0,0,0,0,0.508000000000003,0.253999999999998,0,0,0,0,0,0,NA,0,0,0,0,0.253999999999998,0
113.2,"PUU MALI","RAWS","RAWS","BI",2165,19.92666,-155.44,NA,"PMLH1","3181742E",NA,NA,0,1.016,0,0,1.016,0,8.128,2.032,59.69,32.258,75.692,115.57,0,0,1.77799999999996,0,12.446,0.508000000000038,0,0,0,0,0,0,0,0,0.507999999999981,0,0,0,0
129,"HAKALAU","RAWS","RAWS","BI",1950.72,19.82111111,-155.3305556,"USR0000HHAK","HKUH1","8374D370",NA,NA,0,1.016,0,3.302,18.796,0.253999999999998,16.51,56.388,192.024,158.496,421.894,237.744,21.0819999999999,2.54000000000019,11.684,16.7639999999999,7.11200000000008,0.253999999999905,0.253999999999905,0,0,0.112955560648447,1.0160000000003,0.761999999999716,1.01600000000008,0.254000000000133,0,0,0,0.112955560648447,1.52399999999989
133.3,"Laupahoehoe","NWS","HydroNet-UaNet","BI",499.872,19.9792,-155.2372,NA,"LPHH1","B159741A",NA,NA,0,2.28600000000006,0,1.77800000000002,19.5579999999999,6.35000000000002,13.2080000000001,27.432,48.5139999999999,57.404,138.176,88.1379999999999,2.56983127727866,1.52400000000011,14.9859999999999,0,30.7339999999999,21.8440000000001,5.07999999999993,1.26999999999998,0,0,0,0,0.254000000000133,0,0,0,0,0,0.508000000000038
147.2,"KOHALA RANCH","KOHALA RANCH","RAWS","BI",328.8792,20.08305556,-155.8325,NA,"KHRH1","4870B654",NA,NA,0,0,0,0,0,0,4.572,0.508000000000001,0.254,0,1.016,22.352,1.524,0,0,3.04800000000001,14.986,0,0,0,0,0,0,0,0,0,0,0,0,0,0
160.3,"Upolu Airport","NWS","HydroNet-UaNet","BI",34,20.265,-155.8582,NA,"UPLH1","B15017A0",NA,NA,0,0,11.43,0.50800000000001,1.77799999999999,1.27000000000001,1.26999999999998,11.684,9.39800000000002,14.478,21.336,29.21,0.762,0,0.762,1.27000000000004,3.55599999999993,0.762000000000057,1.77800000000002,0,0,0,0,0,0,0,0,0,0,0,0
176.3,"Kahua Ranch HQ","KAHUA RANCH","HydroNet-UaNet","BI",987.552,20.1249008,-155.7884,NA,"KASH1","15D293C2",NA,NA,2.03200000000061,0.508000000000266,0.507999999999356,1.52399999999989,5.84200000000055,3.04799999999932,46.7360000000003,19.0499999999997,59.4360000000001,11.6840000000002,14.9860000000003,40.1319999999996,2.79400000000032,0,0.507999999999356,19.8119999999999,25.9080000000004,9.9060000000004,1.26999999999953,0,0,0,0.253999999999905,0,0,0,0,0,0,0.508000000000266,0
185.7,"KawainuiRainGagenearKamuela","USGS","USGS","BI",1237.488,20.08533333,-155.6811667,NA,"KWSH1","DDF6A592",NA,NA,0.253999999999962,3.81,2.79399999999998,1.01600000000002,12.7,5.58799999999997,91.44,37.8459999999999,NA,NA,37.846,97.028,10.4139999999999,0.508000000000038,11.4300000000001,1.26999999999998,19.812,30.734,12.4459999999999,5.33399999999995,0.254000000000133,0.254000000000019,0,0.253999999999905,0.762000000000057,0.253999999999905,0.254000000000133,1.01599999999996,0.254000000000019,0,0
192.7,"Kamuela Upper","NWS","HydroNet-UaNet","BI",948.5376,20.0319996,-155.6667,"USC00513080","KUUH1","817075F6",NA,NA,0,0.253999999999962,0,0.508000000000095,2.286,0,40.6399999999999,11.4299999999999,61.468,5.8420000000001,5.07999999999993,44.45,2.03199999999993,0.254000000000019,0.762000000000057,2.53999999999996,7.62,12.192,6.09599999999989,1.52400000000011,0,0,0,0,0,0,0,0.253999999999905,0,0,0
201.3,"Kamuela 1","NWS","HydroNet-UaNet","BI",877.824,20.0394993,-155.6084,NA,"KMUH1","81706680",NA,NA,0,1.26999999999953,0,0,2.28600000000006,0,27.9399999999996,12.9540000000006,69.3419999999996,6.09600000000046,5.33399999999892,39.6240000000007,0.507999999999811,0,0.50800000000072,0,15.2399999999998,14.2240000000002,1.26999999999953,0.253999999999905,0,0,0,0,0.253999999999905,0,0,0.253999999999905,0,0,0
215.5,"Honokaa","NWS","HydroNet-UaNet","BI",591.9216,20.0656,-155.49,NA,"HNKH1","B15047DC",NA,NA,0,2.03200000000004,0,0,10.922,0.253999999999905,23.8760000000002,41.4019999999998,133.096,59.6900000000001,92.4559999999999,68.8340000000001,0,0,0,0,45.2119999999998,43.9420000000002,1.26999999999998,0,0,0,0,0,0.508000000000038,0.253999999999905,0.253999999999905,0.762000000000171,0,0,0
250.2,"Ulupalakua Ranch","NWS","HydroNet-UaNet","MA",581.5584,20.6487999,-156.3981,NA,"ULUH1","8170531A",NA,NA,0,4.57199999999989,0,0,0,0,0,0,0,0,4.06400000000008,18.288,1.01599999999985,0,0,0,4.31799999999998,0,0,0,0,0,0,0,0,0,0,0,0,0,0
255,"KepuniGulchRainGage","USGS","USGS","MA",225.552,20.6195,-156.2518889,NA,"KPNH1","F000D4EA",NA,NA,0,0,0,0,0,0.507999999999996,0,3.048,1.27,7.11199999999999,36.068,52.07,0.762,0.50800000000001,7.61999999999998,28.956,1.26999999999998,0,0,0,0,0,0,0,0,0,0,0,NA,9.906,3.81000000000001
267.8,"KULA 1","KULA 1","RAWS","MA",1998.5736,20.68305556,-156.3216667,NA,"KLFH1","AA10F12E",NA,NA,0,1.27,0.762,0.254,0,0,0,0,3.556,1.27,20.32,84.836,4.318,0,0.254000000000005,0,1.01599999999999,0,0,0,0,0,0,0,0,0,0,0,0,0,0
302,"MAALAEA BAY","NWS","STATE","MA",302,20.7903,-156.514,NA,"P36","15DF05C6",NA,NA,0,3.55599999999998,1.27000000000004,0,0,0,0,0.253999999999962,0,1.52400000000006,1.01599999999996,10.922,0,0,0,0,3.04800000000006,0.253999999999905,0,0,0,0,0,0,0,0,0,0,0,0,0
311.2,"Kealia Pond NWR","Kealia Pond NWR","RAWS","MA",3.6576,20.7975,-156.4772222,NA,"KPDH1","32B2C438",NA,NA,0,1.27,0.762,0,0,0,0,0,0,1.016,1.016,13.462,0.254000000000001,0,0,0,9.144,0.254000000000001,0,0,0,0,0,0,0,0,0,0,0,0,0
311.5,"Kihei 2","NWS","HydroNet-UaNet","MA",54.5592,20.7061005,-156.437,NA,"KHIH1","93202508",NA,NA,0,0,0,0,0,0,0,0,0,0,2.286,26.4159999999999,0.508000000000038,0,0,0,2.79399999999998,0,0,0,0,0,0,0,0,0,0,0,0,0,0
324.7,"Kula Branch Stn","NWS","HydroNet-UaNet","MA",944.88,20.7577991,-156.3217,"USC00515000","KBSH1","93220610",NA,NA,1.26999999999998,0,0,0,0,0,0,1.52399999999989,1.01600000000008,1.01599999999985,2.28600000000029,24.8919999999998,1.27000000000021,0,0,0,7.61999999999989,0,0,0,0,0,0,0,0,0,0,0,0,0,0
348.5,"WestWailuaikiRainGagenrKeanae","USGS","USGS","MA",472.44,20.81436111,-156.1429722,NA,"WWKH1","DD5E710A",NA,NA,1.01600000000008,36.7877429496004,66.8019999999999,69.2583143081804,12.954,8.38200000000006,9.90599999999995,69.9443684413197,NA,105.664,171.45,135.382,5.7795345900719,12.7,20.7871805405476,35.8139999999999,54.3560000000002,22.8599999999997,15.748,3.80999999999995,0.253999999999905,0,0,0,0,0,0,0,0.762000000000171,1.01600000000008,10.6680000000001
353,"Hana AP","NWS","HydroNet-UaNet","MA",19,20.7946,-156.0157,"USC00511125","HNAH1","B150314C",NA,NA,2.28599999999994,0.508000000000152,23.8759999999999,4.572,3.55600000000004,0.254000000000019,2.03199999999993,5.08000000000004,11.4300000000001,37.5919999999999,41.9100000000001,54.1020000000001,3.30199999999991,7.87400000000002,4.06399999999996,24.6380000000001,10.4139999999999,1.01599999999996,2.54000000000008,1.524,0,0,0,0,0,0,0,0,0.254000000000019,0,1.524
361.1,"Lahainaluna","NWS","HydroNet-UaNet","MA",238.0488,20.8909,-156.6556,NA,"LAHH1","81700366",NA,NA,0,0,3.048,1.01600000000001,0,0,6.604,23.622,NA,1.77799999999999,1.27000000000001,9.65200000000002,0,0,0,0,7.61999999999998,0,0,0,0,0,0,0,0,0,0,0,0,1.01600000000002,0
380,"PuuKukuiRainGageatalt","BALDWIN PKRS","USGS","MA",1759,20.89083333,-156.6008333,"USC00514887","PKKH1","DD73556E",NA,NA,2.53999999999996,33.274,186.944,102.616,2.7940000000001,2.79399999999987,50.546,88.3920000000001,NA,122.936,123.19,88.1380000000001,7.36599999999976,10.1600000000001,23.114,0.761999999999716,29.4639999999999,8.12800000000016,15.7480000000005,4.57199999999966,0,0,0,0.254,0.254,0,0,0,0,6.35,5.842
386.6,"Wailuku","NWS","HydroNet-UaNet","MA",146.9136,20.8831005,-156.5124,NA,"WUKH1","9321D776",NA,NA,0,3.30200000000036,16.5099999999998,8.12800000000016,0,0,1.52400000000011,2.2859999999996,6.35000000000014,6.34999999999991,6.8580000000004,24.1299999999999,0,0,0,1.26999999999998,32.7659999999998,7.36600000000021,1.26999999999975,0,0,0,0,0,0,0,0,0,0,0,0
426.6,"Pukalani","NWS","HydroNet-UaNet","MA",495.9096,20.8355007,-156.3307,NA,"PUKH1","15D2B52E",NA,NA,3.30200000000008,17.272,5.07999999999998,3.048,0,0.253999999999962,7.87399999999997,NA,40.894,20.828,10.6679999999999,31.75,0.254000000000133,0,0,2.28599999999994,20.828,4.06400000000008,0,0,0,0,0,0,0,0,0,0,0,0,0
465.1,"Mahinahina","NWS","HydroNet-UaNet","MA",223.1136,20.9552002,-156.6562,NA,"MABH1","190524C8",NA,NA,0,0,NA,NA,NA,NA,NA,NA,NA,NA,NA,NA,NA,NA,NA,NA,NA,NA,NA,NA,NA,NA,NA,NA,NA,NA,NA,NA,NA,NA,NA
482.5,"Kahakuloa","Kahakuloa","HydroNet-UaNet","MA",335.28,20.9540997,-156.5342,NA,"KHKH1","781001B6",NA,NA,0.507999999999981,2.03200000000004,40.132,11.4299999999999,2.286,3.30200000000002,0.762,2.79400000000004,4.572,15.7479999999999,33.782,48.26,0,0,0,0,67.564,4.31799999999998,4.3180000000001,0.761999999999944,0,0,0,0,0,0,0,0,0,0,0
489,"Haiku","NWS","HydroNet-UaNet","MA",99.3648,20.9288998,-156.3225,"USC00510822","AIKH1","50A30568",NA,NA,12.9540000000001,8.63599999999997,43.434,7.36600000000004,2.286,3.55599999999993,2.7940000000001,4.572,20.3199999999999,37.338,72.898,78.994,1.01599999999996,1.77800000000002,4.82600000000002,2.28600000000006,16.5099999999999,0.508000000000038,6.60400000000004,1.26999999999987,0,0,0,0,0,0,0,0,0,0,1.2700000000001
499.9,"KANELOA","RAWS","RAWS","KO",248.412,20.52222222,-156.5658333,"USR0000HKAN","KAOH1","32793370",NA,NA,0,1.016,0.253999999999998,0.254000000000005,0,0,0,0,0,0,0,5.842,0.254000000000005,0,0,1.27,0,0,0,0,0,0,0,0,0,0,0,0,0,1.016,0
536.5,"Kaunakakai Mauka","MOLOKAI GEN HOSP","HydroNet-UaNet","MO",28.3464,21.0946007,-157.0174,NA,"KACH1","50A0F2E2",NA,NA,0,0,3.048,0,0,0,0,0,0,0.508000000000038,4.31799999999998,13.7159999999999,0.254000000000133,0,0,2.03199999999993,0.254000000000133,0,0,0,0,0,0,0,0,0,0,0,0,0,0
538,"MOLOKAI 1","RAWS","RAWS","MO",833.0184,21.115,-156.9475,"USR0000HMLK","MLKH1","487016AC",NA,NA,2.286,6.096,29.464,2.794,0.253999999999998,0.254000000000005,1.77799999999999,10.414,15.24,5.842,6.604,36.83,0,0,0,5.58800000000002,12.192,3.55600000000001,0,0.253999999999991,0,0,0,0,0,0,0,0,0,0.253999999999991,0.762
541.2,"Puu ALII WEST","Puu ALII WEST","RAWS","MO",1159.764,21.14083333,-156.9022222,NA,"PAFH1","32D6062E",NA,NA,11.4299999999999,26.4160000000001,119.38,24.384,2.53999999999996,1.26999999999998,11.9380000000001,34.29,NA,NA,32.766,86.614,2.79399999999998,8.12800000000004,12.1919999999999,NA,91.9480000000001,NA,11.9380000000002,5.84199999999987,0,0,0,0,0,0,0,0,0.762000000000057,4.572,2.53999999999996
679,"LANAI 1","RAWS","RAWS","LA",387.096,20.87333333,-157.0063889,"USR0000HLAN","LNIH1","48702336",NA,NA,0,0,8.636,0.507999999999997,0,0,0,0,0,0,0,8.382,0.254000000000001,0,0,0,0,0.254000000000001,0,0.253999999999998,0,0,0,0,0,0,0,0,0,0,0
721.4,"Palolo Fire Stn","NWS","HydroNet-UaNet","OA",59.436,21.2996006,-157.7944,"USC00517662","PFSH1","19014414",NA,NA,0,3.30199999999996,26.162,34.544,9.90600000000001,2.53999999999996,10.9220000000001,6.35000000000002,18.5419999999999,22.3520000000001,7.36599999999987,8.12800000000004,0.508000000000038,0,9.39800000000002,2.79399999999998,1.01599999999996,0.254000000000019,0,3.04799999999989,0,0,0,0,0,0.508000000000152,0,0,0,0,0
723.8,"Niu Valley","NWS","HydroNet-UaNet","OA",19.812,21.2896996,-157.7332,"USC00516865","NIUH1","1900D38C",NA,NA,0.253999999999905,2.79400000000032,7.8739999999998,20.3199999999997,4.82600000000002,1.52399999999989,4.82600000000002,3.55600000000049,16.7640000000001,16.5099999999993,6.35000000000036,9.14399999999932,0,0,0.50800000000072,2.53999999999996,1.27000000000044,0,0,1.01599999999962,0,0,0,0,0,0,0,0,0,0,1.27000000000044
724.21,"Kamehame","NWS","HydroNet-UaNet","OA",242.316,21.3085995,-157.6791,NA,"KMHH1","190046EE",NA,NA,0,7.61999999999989,4.31800000000021,10.9219999999996,0.508000000000266,1.26999999999998,3.04800000000023,4.06399999999985,8.88999999999987,8.38200000000006,2.28600000000006,8.12800000000016,0,0,0.253999999999451,2.54000000000042,0.762000000000171,0,0,0.253999999999451,0,0,0,0,0.25400000000036,0,0,0,0,0,0
728.2,"PALEHUA","RAWS","RAWS","OA",722.376,21.385,-158.1041667,NA,"PLHH1","4870F55E",NA,NA,0,3.048,2.54,7.112,3.556,0.253999999999998,1.524,1.778,6.35,13.462,10.16,13.462,0.507999999999988,0.254000000000005,2.286,0.254000000000005,0,0,0,0.507999999999996,0,0,0,0,0,0,0,0,0,0,0
734.5,"HONOULIULI STREAM TRIBUTARY NEAR WAIPAHU 4WNW","NWS","STATE","OA",195.72,21.4019,-158.067,NA,"HOUH1","DD7ED01C",NA,NA,0,0,0,NA,0,0,0,0,0,NA,215.646,NA,NA,NA,0,0,0,0,0,0,0,0,0,0,0,0,0,0,0,0,0
742.4,"HONOULIULI PHB","FWS","RAWS","OA",1.524,21.35666667,-158.0205556,NA,"HOFH1","327BF39A",NA,NA,0,3.048,4.31800000000021,2.03199999999993,0.761999999999944,0,0,0.507999999999811,0.762000000000171,4.82599999999979,4.57200000000012,13.97,0.253999999999905,0,1.01600000000008,0,0,0,0,0,0,0,0,0,0,0,0,0,0,0,0
752.6,"WAIAWA PHB","FWS","RAWS","OA",1.524,21.38694444,-157.9811111,NA,"WWFH1","3274C092",NA,NA,0,6.34999999999991,3.81000000000017,8.63599999999974,3.55600000000004,1.27000000000044,0.253999999999678,0.508000000000266,11.6839999999997,12.9540000000002,17.5260000000001,12.192,0,0,0,2.28599999999983,0,0,0,0.254000000000133,0,0,0,0,0,0,0,0,0,0,0
771.11,"N.HalawaValleyRGattunnel","USGS","USGS","OA",335.28,21.40488889,-157.8504444,NA,"TNLH1","DD75A524",NA,NA,7.61999999999995,23.114,30.2260000000001,72.898,18.034,8.38199999999995,3.55600000000004,13.716,46.228,55.372,25.908,41.91,8.63600000000008,12.954,27.94,23.9359659739968,8.63600000000001,0.253999999999991,0,7.366,0,0,0,0,2.286,0,0.254000000000005,1.27,0.762,0,0
772.5,"Moanalua Stream","USGS","HydroNet-UaNet","OA",72.2376,21.3736,-157.8801,"USC00516400","MOAH1","1900B66A",NA,NA,0,8.38199999999961,17.018,56.134,10.922,5.8420000000001,4.57200000000012,20.3199999999997,62.7380000000003,77.7239999999997,81.0259999999998,34.5440000000003,7.11200000000008,13.462,10.4139999999998,0.762000000000171,0.507999999999811,0,0,12.6999999999998,0,0.25400000000036,0,0,0,1.01600000000008,0.253999999999905,0.253999999999905,0,0,0.253999999999905
782.3,"Nuuanu Upper","NWS","HydroNet-UaNet","OA",248.412,21.3502007,-157.8184,"USC00516938","NUUH1","156097FE",NA,NA,2.96253214099516,17.2617726971018,19.4947765615425,60.165854560206,16.4631165912986,6.97869298452527,9.652,15.494,49.022,63.754,95.504,59.182,16.256,11.176,17.432365057488,10.16,6.60400000000004,0,0,11.43,0,0,0,0,1.91915775379821,1.8714715463209,0.24223436728935,0.599075759736865,0.181764535044002,0,0.181646188941348
785.11,"WAIHI STREAM NEAR HONOLULU 3NE","USGS","USGS","OA",108,21.3283,-157.801,NA,"WISH1","16EA459A",NA,NA,0,NA,NA,0.762,NA,0,NA,NA,NA,0.508,1.778,NA,0,0,0.508,NA,0,0,0,NA,0,0,0,0,0,0,0,0,0,0,0
787.2,"Maunawili","NWS","HydroNet-UaNet","OA",127.1016,21.3509998,-157.7668,NA,"MAUH1","19007374",NA,NA,3.55599999999868,27.9399999999987,12.9540000000015,NA,7.36599999999999,1.27000000000044,4.06399999999849,9.65200000000186,17.271999999999,23.6219999999994,11.4300000000003,14.478000000001,0,0.507999999999811,11.6839999999993,NA,3.3020000000015,0.253999999998996,0,5.07999999999993,0,0,0,0,1.77800000000025,1.27000000000044,0,0,0.253999999998996,0,2.03199999999924
788.2,"St Stephens Seminary","NWS","HydroNet-UaNet","OA",142.9512,21.3666992,-157.7786,NA,"STVH1","19005598",NA,NA,2.53999999999996,17.2258367060423,0.254,5.842,9.652,1.778,3.048,5.588,20.32,29.464,30.1480221948253,17.526,0,1.27,7.366,12.446,1.524,0,0,1.27,0,0,0,0,3.04799999999999,2.54000000000001,0,0.253999999999991,0,0,0
790.11,"Olomana Fire Stn","NWS","HydroNet-UaNet","OA",45.1104,21.3777008,-157.7507,"USC00517052","OFSH1","19011468",NA,NA,0.507999999999811,16.5100000000002,8.38200000000006,17.5259999999998,6.60399999999981,2.03200000000061,2.28600000000006,2.53999999999951,11.6840000000002,14.4780000000001,3.80999999999995,8.12800000000016,0,0,0.761999999999716,0.507999999999811,2.79400000000032,0.253999999999905,0,0.508000000000266,0,0,0,0,1.26999999999998,0,0,0,0,0,0
793.2,"BELLOWS AFS AT WAIMANALO","NWS","STATE","OA",6.66,21.3667,-157.717,NA,"BELH1","B14036D2",NA,NA,0.762,12.446,0.254000000000076,3.30199999999996,3.55599999999998,0.507999999999981,0,0,2.03199999999998,4.572,0.762,3.55600000000004,0,0,0,0,0.507999999999981,0,0,0,0,0,0,0,0,0,0,0,0,0,0.507999999999981
795.3,"Waimanalo Nonokio","NWS","HydroNet-UaNet","OA",20.1168,21.3356991,-157.7116,NA,"WMLH1","224185AC",NA,NA,1.27000000000044,11.1759999999999,4.06399999999985,14.7319999999995,7.36600000000089,1.01599999999962,2.28600000000006,0.507999999999811,4.57200000000012,5.84199999999964,2.28600000000006,8.38200000000006,0,0,1.01600000000008,0.508000000000266,0.762000000000171,0,0,2.79399999999941,0,0,0,0,0,0,0,0,0,0,0
801.2,"WAIANAE BOAT HARBOR","NWS","STATE","OA",4.25,21.4503,-158.184,NA,"WBHH1","15D13434",NA,NA,0,0,0.254000000000019,0,0,0,0,0,0,4.31799999999998,6.096,14.478,0,0,0,0,0,0,0,0,0,0,0,0,0,0,0,0,0,0,0
803.2,"WAIANAE VALLEY","RAWS","RAWS","OA",291.6936,21.48055556,-158.1552778,"USR0000HWVA","WNVH1","487005DA",NA,NA,0,2.54,8.128,9.906,0.507999999999996,1.778,1.524,1.524,2.286,29.464,33.782,11.938,0,0,0,0,7.366,0,0,0,0,0,0,0,0,0,0,0,0,0,1.27
804,"Lualualei","US VY","HydroNet-UaNet","OA",35.9664,21.4211006,-158.1352,"USC00515647","LUAH1","8170406C",NA,NA,0,1.26999999999998,1.61454079999811,15.4939999999999,0.762000000000171,0.508000000000038,8.8900000000001,13.2079999999999,4.03635199999528,21.8440000000001,25.3999999999999,27.1780000000001,0,0,0.761999999999944,9.65200000000004,0,5.8420000000001,2.79399999999987,0,0,0,0,0,0,0,0,0,0,0.761999999999944,0.254000000000133
810.1,"WHEELER ARMY AIR FIELD 810.1","COOP","NWS","OA",255,21.48722,-158.02806,"USW00022508","WAFH1","B14101B2",NA,NA,0,4.572,5.84199999999987,28.194,3.55600000000004,15.7480000000002,7.36599999999987,10.922,3.63657267918458,63.754,38.862,16.7639999999999,0,1.27000000000021,1.01599999999985,0.508000000000038,0.508000000000038,0,0,0.761999999999944,0,0,0,0,0,0,0,0,0.253999999999905,0,1.52400000000011
837.12,"WAIAHOLE STREAM NEAR KAHALUU 2N","USGS","USGS","OA",4,21.48194,-157.8458,NA,"WHSH1","162B784C",NA,NA,0.254000000000005,6.09599999999999,6.60400000000001,22.352,4.57199999999999,1.01600000000001,3.048,5.08000000000001,20.066,14.732,5.84200000000001,9.65199999999999,0.762,0.762,5.334,0.762,0.50800000000001,0,0,2.03200000000001,0,0,0,0,1.77799999999996,0,0,0,NA,NA,NA
839.15,"Ahuimanu Loop ","NWS","HydroNet-UaNet","OA",74.0664,21.4319992,-157.8373,NA,"AHUH1","15CE7632",NA,NA,6.35000000000036,18.7959999999994,7.36599999999999,NA,NA,3.80999999999949,2.03200000000015,4.57200000000012,24.8919999999998,21.5900000000001,NA,NA,NA,NA,NA,3.048,2.286,0,0,7.366,0,0,0,0,1.27,0.254,0.254000000000001,0,0,0,0.507999999999999
839.8,"Waihee Pump","USGS","HydroNet-UaNet","OA",64.3128,21.4463997,-157.8584,"USC00519286","WPPH1","195042AC",NA,NA,2.83230623088846,20.9247003944409,9.65377312402406,26.857315131426,8.02974494785512,5.23673596183385,4.29631315632471,4.826,24.384,28.702,13.208,17.526,4.318,4.572,10.668,7.87400000000001,2.53999999999999,0,0,4.82600000000001,0,0,0,0,2.53999999999998,1.01600000000002,0,0.253999999999991,0.253999999999991,0,1.524
841.2,"KUAOKALA","S&PF","RAWS","OA",267.0048,21.57027778,-158.26,NA,"KKRH1","48710720",NA,NA,0,2.54,1.27,NA,NA,0,0,1.27,0.254000000000001,NA,NA,NA,NA,0,0,0,1.016,0,0,1.778,0,0,0,0,0.253999999999998,0,0,0,0,0,0
842.1,"MakahaRainGage","USGS","USGS","OA",286.097472,21.50158333,-158.1801667,NA,"MKHH1","DD1423F8",NA,NA,0,8.12799999999999,8.12800000000001,18.542,0,0.253999999999991,0.253999999999991,2.286,0.762000000000029,19.05,31.242,17.526,0,0,0,0,17.78,0,0,0,0,0,0,0,0.254000000000001,0,0,0,0,0,0
842.9,"MAKUA RIDGE","RAWS","RAWS","OA",533.4,21.54277778,-158.1988889,"USR0000HMRG","MKGH1","3266C2F8",NA,NA,0,0,0,NA,0,0,0,0,0,NA,NA,NA,0,0,0,0,0,0,0,0,0,0,0,0,0,0,0,0,0,0,0
843.7,"DILLIINGHAM","RAWS","RAWS","OA",31.0896,21.57194444,-158.1986111,NA,"DLGH1","3278D278",NA,NA,0,3.81,7.62,7.62,1.016,0.508000000000003,0,0,3.048,19.05,NA,NA,NA,NA,NA,NA,NA,NA,NA,NA,NA,NA,NA,NA,NA,NA,NA,NA,NA,NA,NA
858,"SCHOFIELD BARRACKS","RAWS","RAWS","OA",298.704,21.495,-158.0819444,"USR0000HSCO","SCBH1","3266A71E",NA,NA,0,4.06400000000002,3.30199999999996,7.36599999999999,0,3.30200000000002,2.54000000000002,0.253999999999962,4.826,25.908,42.164,17.272,0,0.254000000000005,0.50800000000001,1.77799999999999,0.762,0,0,0.254000000000005,0,0,0,0,0,0,0,0,0,0,1.27
883.12,"PoamohoRainGageNo1,nrWaawa","USGS","USGS","OA",755.904,21.53386111,-157.9213889,NA,"PMHH1","DD9836AA",NA,NA,3.048,54.1020000000001,27.1780000000001,62.4839999999999,8.63599999999997,9.39800000000014,8.63599999999974,11.6840000000002,18.2879999999998,27.1780000000001,39.3700000000001,87.8839999999998,34.2900000000002,13.462,22.8084741695602,32.5120000000002,11.9379999999999,0.254000000000133,0.254000000000133,11.1759999999999,0.507999999999811,0.254000000000133,0,0.508000000000038,6.60400000000004,3.04799999999977,0.254000000000133,2.28600000000006,0,0,0.508000000000038
885.7,"OAHU FOREST NWR","RAWS","RAWS","OA",698.9,21.47747,-157.9369,NA,"OFRH1","8379F6FA",NA,NA,0,16.51,14.478,53.848,8.636,4.318,5.07999999999998,10.16,29.972,48.514,39.116,50.038,10.668,7.36599999999999,23.876,3.048,3.55599999999998,0,0,11.684,0,0,0,0,0.254000000000019,1.77800000000002,0,0.507999999999981,0,0,3.55599999999998
886.4,"KahanaRainGageatalt","USGS","USGS","OA",28.956,21.54041667,-157.8825556,NA,"KNRH1","17B972EE",NA,NA,1.77800000000002,36.8299999999999,13.97,39.878,4.31800000000004,10.922,6.35000000000002,9.65199999999999,13.462,14.4780000000001,19.8119999999999,27.686,14.986,7.62,11.684,29.7180000000001,0.508000000000038,0.253999999999905,0,5.07999999999993,0,0.254000000000133,0,0.111682589804435,5.588,0.254,0,1.778,0,0,1.016
886.8,"Hakipuu Mauka","RILEY W","HydroNet-UaNet","OA",8.5344,21.5067005,-157.8547,"USC00510920","HAKH1","16C69380",NA,NA,0,12.9540000000001,6.60399999999993,22.098,2.79399999999998,3.04800000000012,1.26999999999998,4.31799999999998,14.986,11.684,4.31799999999998,11.4300000000001,1.26999999999987,2.54000000000008,2.79399999999998,19.05,5.33400000000006,0.254000000000019,0,2.03200000000004,0,0,0,0,1.52399999999989,0,0,0,0.254000000000019,0,2.03200000000004
905.22,"Punaluu Pump","NWS","HydroNet-UaNet","OA",3.9624,21.5842991,-157.8916,NA,"PUNH1","19051152",NA,NA,0,22.352,5.84200000000001,23.114,1.27000000000004,1.27000000000001,1.01599999999996,4.06400000000002,13.462,9.65200000000002,1.524,9.90599999999998,6.858,3.048,1.01599999999996,1.27000000000004,0.762,0,0,8.63599999999997,0,0,0,0.254000000000076,5.33399999999995,0,1.77800000000002,0,0,0,0
909,"KAHUKU TRAINING AREA","RAWS","RAWS","OA",181.6608,21.67916667,-157.9894444,"USR0000HKAH","KTAH1","325A861E",NA,NA,0,15.24,2.54,8.128,2.794,3.81000000000001,0.762,6.35,6.858,8.636,12.446,12.446,2.794,3.55600000000001,0.762,1.27,0.254000000000005,0,0,9.652,0,0,0,5.84199999999998,10.16,0.507999999999981,0,0.762000000000015,0,0,3.30199999999999
911.1,"KII","RAWS","RAWS","OA",1.524,21.68833333,-157.9525,"USR0000HKII","KFWH1","8375210E",NA,NA,0,15.494,2.286,3.048,0.762000000000004,2.032,0,3.81,5.842,3.81,4.572,5.08000000000001,1.524,1.524,0,0,0,0,0,3.556,0,0,0,0,2.54000000000001,0,0,0,0,0,1.52399999999999
912,"KAUHUKU 912","KUILIMA  GOLF","COOP","OA",4,21.695,-157.9811,"USC00512570","KAHH1","B1404042",NA,NA,0,10.16,0.762,2.286,2.286,2.79400000000001,1.01599999999999,1.52400000000003,5.84199999999998,2.53999999999999,5.84199999999998,8.89000000000001,1.77800000000002,1.01599999999999,0.253999999999991,0,0,0.761999999999972,0,4.82600000000002,0,0,0,0,2.53999999999999,0,0,0,0,0,2.286
926,"PORT ALLEN CAA AIRPORT","FAA","COOP","KA",9,21.89381249,-159.6010997,"USW0022526","PAKH1","B159A272",NA,NA,0,1.27,0,0,0.254,0.254,0.254,1.27,NA,1.27,4.572,3.048,NA,0,0,0,0,0,0,0,0,0,0,0,0,0,0,NA,NA,NA,0
940.3,"POIPU","NWS","STATE","KA",14.8,21.8828,-159.429,NA,"POIH1","B15997E8",NA,NA,0,NA,NA,NA,NA,NA,0,0,NA,NA,NA,NA,NA,NA,NA,NA,NA,NA,NA,NA,NA,NA,NA,NA,NA,NA,NA,NA,NA,NA,NA
946,"WAIMEA HTS","RAWS","RAWS","KA",159.7152,21.96638889,-159.6638889,NA,"WHGH1","487090B8",NA,NA,0,0.762,0.254,0,0,0.254,0,0,0,1.524,4.318,9.652,0,0,0,0,0.254000000000001,0,0,0,0,0,0,0,0,0,0,0,0,0,0
966.4,"Hanapepe","NWS","HydroNet-UaNet","KA",110.6424,21.9365005,-159.5866,NA,"HNPH1","156011EA",NA,NA,0,0,0,0,0,1.26999999999953,0.762000000000171,0.762000000000171,1.26999999999998,12.4459999999999,20.3200000000002,10.4139999999998,2.54000000000042,3.04799999999977,1.77800000000025,0,0,0,0,0,0,0,0,0,0,0,0,0,0,0,0
992.1,"Omao","NWS","HydroNet-UaNet","KA",99.9744,21.9071007,-159.4768,"USC00517116","OMAH1","195001A6",NA,NA,0,13.97,4.82599999999996,24.13,4.06400000000002,3.81000000000006,2.03199999999993,1.01599999999996,13.7160000000001,21.336,9.90600000000001,4.31799999999998,2.54000000000002,7.36599999999999,7.62,0.761999999999944,1.27000000000004,0,0,0.507999999999981,0,0,0,0,0.507999999999981,2.286,0,0,0,0,2.79400000000004
1029,"MANA","RAWS","RAWS","KA",26.2128,22.02944444,-159.7622222,NA,"MNRH1","4870603C",NA,NA,0,2.032,0,0,0,0,0,0,0,1.524,0.508,8.89,0,0,0,0,2.032,0,0,0,0,0,0,0,0,0,0,0,0,0,0
1036,"PUU OPAE","RAWS","RAWS","KA",652.8816,22.04083333,-159.6958333,NA,"POPH1","4870734A",NA,NA,0,1.524,0.254,0,0,0,0,0,0,1.524,11.684,17.526,0.253999999999998,0,0,0,0.508000000000003,0,0,0,0,0,0,2.28599999999999,0.253999999999998,0.508000000000003,0,0,0,0,0
1042,"WaialaeRainGagenrWaimea","USGS","USGS","KA",1219.2,22.08972222,-159.5925,NA,"WLGH1","DDF7C28E",NA,NA,0.254000000000133,29.2099999999999,5.58799999999997,9.39799999999991,5.08000000000004,5.8420000000001,7.11199999999985,4.064,40.894,66.802,149.606,82.55,17.5260000000001,3.30199999999996,6.096,0,11.176,0,0,0.254000000000019,0.507999999999981,0.254000000000019,1.01599999999996,6.85800000000006,0.507999999999981,0.253999999999962,0.254000000000019,0.254000000000019,0.253999999999962,0.254000000000076,0
1047,"Mt.WaialealeRainGagenrLihue","USGS","USGS","KA",1569.72,22.07088889,-159.4979722,"USC00516565","WLLH1","DD5E818E",NA,NA,1.26999999999998,72.3900000000003,72.8979999999997,84.0740000000001,30.7340000000004,29.9719999999998,30.48,11.6839999999997,43.942,95.25,143.256,168.656,154.432,82.8039999999996,119.126,0.253999999999451,17.5260000000003,0.25400000000036,1.77799999999979,17.7799999999997,0.508000000000266,0.52533372594421,0.762,6.858,9.398,15.24,7.62,0.785020753489464,0.261176945258669,0.253999999999998,5.588
1051,"NWailuaDitchRainGagenrLihue","LIHUE PLANTATION","USGS","KA",338.328,22.0625,-159.4677222,"USC00516888","WLDH1","1732B3E0",NA,NA,0.253999999999905,27.6860000000001,14.9859999999999,26.4159999999997,15.2400000000002,16.7640000000001,20.0659999999998,3.556,23.114,61.976,56.642,65.532,29.972,34.036,38.862,3.30200000000002,22.352,0,0,7.11200000000002,0.761999999999944,0.254000000000019,0.253999999999962,3.30200000000002,4.31800000000004,10.414,2.03199999999998,0.254000000000019,0,0,2.79399999999998
1059,"Lihue Variety Stn","NWS","HydroNet-UaNet","KA",117.0432,22.0240002,-159.3868,NA,"LIHH1","1561501A",NA,NA,0,21.8439999999999,4.82600000000002,15.494,2.79399999999998,1.77800000000002,3.81000000000006,0,8.88999999999987,11.9380000000001,10.16,13.716,0,2.03200000000004,3.04799999999989,0.254000000000019,14.4780000000001,0,0,1.01599999999996,0,0,0,0,4.3180000000001,1.01599999999996,2.79399999999998,0,0,0,1.01599999999996
1061.5,"Wailua UH Exp Stn","NWS","HydroNet-UaNet","KA",158,22.066,-159.3962,NA,"WUHH1","15C163D6",NA,NA,0,23.6220000000003,7.8739999999998,20.0659999999998,5.8420000000001,5.33399999999983,3.30200000000013,1.01600000000008,9.65200000000004,16.002,11.1759999999999,9.14400000000023,0.253999999999905,5.58800000000019,3.04799999999977,0,15.4939999999997,0,0,2.54000000000042,0.253999999999905,0,0,3.80999999999995,3.04800000000023,3.80999999999949,0.762000000000171,0.25400000000036,0,0,1.26999999999953
1074,"MAKAHA RIDGE","RAWS","RAWS","KA",544.9824,22.13055556,-159.7152778,"USR0000HMAH","MKAH1","3286026C",NA,NA,0,NA,3.30199999999999,0,0,0,0,0,0,2.286,NA,22.86,0,0.50800000000001,4.06400000000001,0,24.892,0,0,0,0,0,0,3.55600000000001,0.253999999999991,0.761999999999972,0,0,0,0,NA
1084,"KilohanaRainGafenrHanalei","USGS","USGS","KA",1219.2,22.15408333,-159.5946111,"USC00514610","KLOH1","DDCC972A",NA,NA,0.49384647632905,44.3421336900869,21.3022578661226,29.9881733658656,14.1474868231312,15.143414412683,17.3469330215767,6.33146276392073,47.5293379573379,89.5639371819054,161.684921647369,115.230664148685,49.0754620526707,27.4684947092449,37.2049672040096,1.14811560752779,19.2591530985841,0.0411700452964258,0.288190317074538,5.46894020368904,0.74348224892022,0.431994374770745,1.02004615937805,7.6953947480101,2.032,0.254000000000005,0.253999999999998,0.508000000000003,0.253999999999991,0,1.8423872414852
1094.2,"Kapahi","NWS","HydroNet-UaNet","KA",158.496,22.1021004,-159.3856,"USC00513171","KPIH1","15608488",NA,NA,0,31.2420000000002,8.6359999999986,20.5740000000005,3.55600000000049,4.82599999999911,9.39800000000105,0.253999999998996,14.9860000000008,13.7159999999985,8.38200000000143,11.6839999999993,0.254000000000815,5.58799999999974,5.33399999999892,1.01600000000144,26.4159999999993,0,0,6.60400000000118,0.253999999998996,0,0,9.65200000000004,5.84199999999873,1.01600000000144,1.01599999999962,0.254000000000815,0,0,5.84200000000055
1111.4,"Anahola","HAWN FRUIT PACKERS","HydroNet-UaNet","KA",75.2856,22.1373997,-159.312,NA,"ANHH1","1560029C",NA,NA,0,12.446,0,2.286,2.286,1.77799999999996,2.286,0,0,2.54000000000002,1.524,3.048,0,0,0.762,0,16.002,0,0,0.508000000000038,0,0,0,0,1.26999999999998,0,0,0,0,0,0
1146,"Moloaa Dairy","RAWS","RAWS","KA",85.344,22.18333333,-159.3375,"USR0000HMOL","MLDH1","AAB6D15A",NA,NA,0,0,0,0,0,0,0,0,0,0,0,0,0,0,0,0,0,0,0,0,0,0,0,0,0,0,0,0,0,0,0
54.2,"Glenwood","HELBUSH XL","HydroNet-UaNet","BI",802.2336,19.5076008,-155.1707,"USC00510744","GLNH1",NA,NA,NA,0,3.05969529939889,0,6.4787566224786,36.8963709809051,5.44747613178153,27.1400098915306,81.7006914881503,239.029594660589,200.721155991843,533.242056602226,283.881309350173,44.7322707501575,5.55334121841095,25.3875501712451,15.4518219228143,24.3908291507229,12.8843972114097,3.67489534838075,1.45301852038581,0.159781131507374,0.119835848630637,3.5147604961619,1.41773924437695,1.2648442092709,0.33942880520288,0,0.239671697261203,0.399452828768504,0.119835848630637,3.28886099170256
54.8,"Nahuku 0201","HiMesonet","HavoNet","BI",1202,19.415215,-155.238394,NA,"004HI",NA,NA,NA,0,1.28927323645437,0,4.89014414154836,23.8515548744059,1.59453101727988,17.4988671735349,59.069625080859,189.27646698606,150.301316079932,406.722426402979,208.968197698583,26.7524196564281,4.19166089846965,14.8266422192253,13.8615908918754,5.94582819031343,0.232827747692928,0.662839306509822,0.645017338225406,0.143337186272255,0.143337186272384,3.15303737799274,1.27183198816794,1.00297958390807,0.304496340829137,0,0.215005779408511,0.358342965680701,0.143337186272384,2.68700116260841
79.6,"Kulani NWR","NWS","HydroNet-UaNet","BI",1623.3648,19.5543995,-155.3089,NA,"KNWH1",NA,NA,NA,0,1.50825791606322,0,5.7207412700694,27.9027714471696,1.86536411461902,20.4710717560582,69.1026751413101,221.425312791953,175.830183519287,475.804741708405,244.461708715153,31.2963517583117,4.90361977027919,17.344966034727,16.2159995265215,6.95573458133243,0.272373833263432,0.775423395796731,0.754574343800025,0.16768318751105,0.1676831875112,3.68858473947625,1.48785424983465,1.17333692680952,0.356215427019051,0,0.251524781266725,0.419207968777698,0.1676831875112,3.14339168718068
85.2,"Waiakea Uka","NWS","HydroNet-UaNet","BI",303.8856,19.6585999,-155.1277,"USC00519084","WKAH1",NA,NA,NA,0,2.80754980243738,14.3095956381282,5.94485074348845,25.3453906835571,4.99855673228973,24.9034370919499,74.9678441155945,219.331477679449,184.179987451892,489.298274556621,260.487021089428,41.0459426897354,5.09569761527563,23.2953952903909,14.1784574415687,22.3808127485273,11.8226108503434,3.37205201817037,1.33327716019581,0.146613776961672,0.0733068884809018,3.22511367015946,1.30090520328616,1.16061004850719,0.31145692029403,0,0.21992066544264,0.366534442404245,0.290943324041804,3.01783024908152
87,"HILO INTERNATIONAL AIRPORT 87","NWS","HydroNet-UaNet","BI",11.6,19.7191,-155.053,"USW00021504","PHTO",NA,NA,NA,0,2.33792952898485,11.9160223484438,4.95045255708129,21.1058543828155,4.16244562307701,20.7378265916923,62.4279349666464,182.643790631067,153.372107927707,407.453105043459,216.91522550858,34.1801671251005,4.24333770150327,19.3987627544478,11.8068197042563,18.6371628962866,9.84503676220399,2.80800717398113,1.11025921621648,0.122089616439614,0.0610448082198615,2.68564727765562,1.08330213288909,0.966474219508358,0.259359363930049,0,0.18313442465953,0.305224041099087,0.242277087283659,2.51303625911325
87.9,"IPIF","HiMesonet","HIPPNET","BI",112,19.69748,-155.0954,NA,"005HI",NA,NA,NA,0,2.65361247801082,13.5250037266163,5.61889591384542,23.9557086109594,4.72448699051881,23.5379872354125,70.8573740782819,207.305582072117,174.081440150381,462.470160175039,246.204576290216,38.795402880704,4.81630166073146,22.0181140042857,13.4010558078893,21.1536778175605,11.1743797555795,3.18716316417617,1.26017387327232,0.138574976535067,0.0692874882675953,3.04828141274952,1.22957686348161,1.09697406049563,0.29437980738135,0,0.207862464802724,0.346437441337727,0.274990966999418,2.85236329504429
89.11,"Piihonua","NWS","HydroNet-UaNet","BI",296.8752,19.7098007,-155.1395,"USC00518053","PIIH1",NA,NA,NA,0,2.61328149103265,0,5.53349700205597,31.5131390336863,4.65268177220901,23.1802446243303,69.7804467368034,204.154843672922,171.435659594997,455.44129738427,242.462630681123,38.2057701060016,4.74310099515894,21.6834712195727,13.1973795696442,20.8321731850378,11.0045457017582,3.13872299548655,1.24102109324346,0.136468841739406,0.102351631304646,3.00195204138043,1.21088911277171,1.08030167637178,0.289905669474433,0,0.204703262609231,0.341172104348575,0.102351631304646,2.80901158944948
91.9,"Pahoa Beacon","NWS","HydroNet-UaNet","BI",187.1472,19.5149994,-154.9644,NA,"PHAH1",NA,NA,NA,0,2.77783107219789,0,2.1605352783761,23.7658880621368,7.71619742277174,16.0496906393653,33.3339728663738,58.9517483099758,69.7544247018563,167.904455919512,107.100820228071,NA,1.85188738146534,18.2102259177411,0,37.346395526215,26.5437191343348,6.17295793821728,1.54323948455432,0,0,0,0,0.30864789691103,0,0,0,0,0,0.617295793821783
93.13,"Mamalahoa","HiMesonet","HIPPNET","BI",603,19.80258,-155.850629,NA,"009HI",NA,NA,NA,0,0,0,0,0,0,0,0,0,3.6058885604325,1.10950417244077,26.0733480523581,0,0,0,0,4.43801668976307,0,0,0,0,0,0,0,0,0,0,0.832128129330578,0.277376043110198,0,0.27737604311019
127.5,"Laupahoehoe","HiMesonet","HIPPNET","BI",1152,19.93217,-155.29129,NA,"007HI",NA,NA,NA,0.0728881591517718,3.14542363782186,0.801769750669604,3.67486350220866,28.390365192405,5.47642611823359,45.6669572126444,66.9328034433931,240.471459796987,201.931938436473,391.396386164124,248.254923964629,26.9836733053227,2.83920696025951,20.3070951457586,12.2927090700899,28.6157854158731,21.701212756007,6.70597535945068,2.26908239806831,0.0728881591518209,0.153260637706558,0.722925349959674,0.615082171621149,1.08927603859114,0.253619496641715,0.0728881591518209,0.291552636607119,0.0728881591517882,0.0803724785547694,1.3797604472915
132.2,"Spencer","HiMesonet","HIPPNET","BI",469,19.96358,-155.25014,NA,"006HI",NA,NA,NA,0.315585045941801,3.18666077585372,16.7067721363589,4.518352740845,18.2953139146497,7.35948820068163,36.7210884702233,53.6254447141885,243.624089115701,115.465527587574,133.19115219036,112.339312394205,27.337434702458,4.06718827241138,20.5733252571759,8.89059980665371,36.7972827981008,27.2417987059946,10.3577815657206,3.20536043200312,0.134279064695244,0.0738437376130451,0,0.073843737613012,0.371153620018515,0.073843737613012,0.0738437376130782,0.295374950452147,0.255149718859651,0.241741308328772,2.83752855181056
279,"POHAKAU PALAHA HN-161","HiMesonet","HaleNet","MA",2460,20.730574,-156.141316,NA,"043HI",NA,NA,NA,0.511178895478929,11.1632980499599,63.3818054576163,21.6295054684117,10.5793086555442,1.7323035898964,15.9552393671823,45.2521349697436,254.176662663173,102.900008837392,228.734399298826,137.21797366068,10.9852609167218,4.42311008445374,11.2098552325909,12.7213384091839,15.2673114007802,4.60353059716112,4.65743656198561,1.20865000257642,0.0369907680402956,0,0.448283355667103,0.372534099081871,0.484604937998775,0.112070838916801,0,0,0.110972304120953,2.08700237429163,3.06143368482409
324.6,"KULA AG HN-119","HiMesonet","HaleNet","MA",964,20.757889,-156.320028,NA,"001HI",NA,NA,NA,1.34603101390591,0,0,0,0,0,0,1.615237216687,1.07682481112483,1.07682481112459,2.42285582503098,26.382207872556,1.34603101390615,0,0,0,8.07618608343547,0,0,0,0,0,0,0,0,0,0,0,0,0,0
702.7,"Kapolei-Kalaeloa AP","NWS","NWS","OA",15,21.31667,-158.06667,"USW00022551","PHJR",NA,NA,NA,0,1.85832933707978,2.63263322752982,1.23888622471981,0.464582334269911,0,0,0.309721556179849,0.46458233427005,2.94235478370953,2.78749400561975,8.517342794949,0.154860778089924,0,0.619443112359976,0,0,0,0,0,0,0,0,0,0,0,0,0,0,0,0
702.8,"PTWC","NWS","HydroNet-UaNet","OA",1.524,21.3150005,-157.9992,NA,"PTWH1",NA,NA,NA,0,4.02957408711342,5.70856329007762,2.68638272474219,1.00739352177828,0,0,0.67159568118532,1.00739352177858,6.38015897126264,6.04436113067029,18.4688812326032,0.33579784059266,0,1.34319136237125,0,0,0,0,0,0,0,0,0,0,0,0,0,0,0,0
740.5,"Kunia","NWS","HydroNet-UaNet","OA",85.0392,21.3869991,-158.0358,NA,"KUNH1",NA,NA,NA,0,3.47219955918253,3.02288097584064,4.60266881764934,1.99025871351943,0.429884656781025,0.365780964492355,0.654531847679486,4.96343406043899,8.00929707024716,8.67397324894862,10.7355567785681,0.178574295401254,0.0482420746786688,0.762539256283841,0.735198722462624,0,0,0,0.17281266577782,0,0,0,0,0,0,0,0,0,0,0
772.3,"MoanaluaRGNo.1atalt1000","USGS","USGS","OA",304.8,21.39338889,-157.8401111,NA,"MOGH1","1689664A",NA,NA,3.06789611069983,27.5567683168074,19.0745688514402,53.7724706663803,9.60999614604284,8.47593637918624,7.90771240046097,13.1627548697414,47.3295179605545,58.5329311274128,54.7829456169046,46.6538952763821,11.6895785565695,10.9906134897138,19.18305716086,21.5276894113711,6.70292919994527,0.0761480738014134,0,9.55648892520197,0,0,0,0,4.49484436842466,0.650813196838016,0.0761480738014176,1.29891706856474,0.363167024304554,0,1.25602475834892
785.4,"Manoa Lyon Arbo","NWS","HydroNet-UaNet","OA",151.7904,21.3330002,-157.8024,"USC00516128","MNLH1",NA,NA,NA,7.09944986996091,21.5349979388816,28.1611511508452,67.9180704226265,16.8020313589076,7.80939485695701,7.93974880646586,16.4757112174904,53.4470933907412,67.2969267127585,74.23977923437,58.0494883873838,14.6052708619884,13.3098287619115,26.0313161898569,13.2278115862631,8.3220603585134,0.118324164499345,0,10.8720447877541,0,0,0,0,2.12983496098829,0,0.236648328998703,1.18324164499349,0.709944986996096,0,0
820.6,"Mililani","NWS","HydroNet-UaNet","OA",226.7712,21.4638004,-157.9991,"USC00516261","MITH1",NA,NA,NA,0,8.08679564328992,8.56628700246545,24.2760461238631,5.31384772452807,3.82731018234149,2.50636631819104,6.11013214610638,26.9930646356976,40.844073897106,51.5010042526434,24.6615152460028,1.98818037968188,3.87001953528827,3.12462033202933,2.4129900723323,0.462047191220073,0,0,3.81846954552766,0,0.0710064421315955,0,0,0,0.284025768526002,0.0710064421314683,0.0710064421314683,0,0,0.604396953726696
824.2,"Waipio","NWS","HydroNet-UaNet","OA",124.968,21.4199009,-158.0058,NA,"PECH1",NA,NA,NA,0,4.14231428939299,2.8708680872996,6.80126241830286,2.193145516913,1.36500220429059,1.09414213851682,0.680055221969173,7.13694625477514,14.5790376376553,19.5767274066685,12.1349482486122,0.121333258143133,0.124082203266673,0.672830810034319,1.36845524766574,0.190246722585309,0,0,0.280735454474791,0,0,0,0,0,0,0,0,0,0,0.317077870975514
828,"SCHOFIELD EAST","RAWS","RAWS","OA",381,21.49944444,-157.9933333,"USR0000HSCH","SCEH1","325AB384",NA,NA,0,11.8862474807924,24.1326842791857,79.6018391895529,15.4881406567908,8.28435430479524,6.48340771679633,28.8151454079825,88.9667614471478,110.217931185534,114.900392314332,48.9857471935714,10.0853008927941,19.0900338327887,14.767762021591,1.0805679527996,0.720378635199306,0,0,18.0094658799891,0,0.360189317600297,0,0,0,1.44075727039926,0.360189317599652,0.360189317599652,0,0,0.360189317599652
834.13,"Waiawa CF","NWS","HydroNet-UaNet","OA",235.6104,21.4440994,-157.9669,"USC00519257","WAWH1",NA,NA,NA,0,7.72525195947162,31.6028692322637,61.9050824006553,14.6502952371396,5.57946678217681,9.58130412775705,14.4684393886882,44.3117840504027,55.1216452943154,54.1812037181372,29.2585758281021,6.14652199195696,7.46066448492682,13.9302268390491,3.72057924649377,1.9870841452269,0.138529220300666,0,8.86584131849606,0,0.101493579062954,0,0,0,1.024549135279,0.152240368594158,0.152240368594158,0,0,0.152240368594158
835.2,"Palisades","NWS","HydroNet-UaNet","OA",261.8232,21.4298,-157.9452,NA,"PACH1",NA,NA,NA,0.995945683324117,8.07154971675792,24.6114962423224,49.9993778084497,11.9349504091329,4.74321128000146,9.39591008738268,14.188481420502,43.4543704278143,54.055065588992,53.1328211456068,28.6924351946305,6.02758948223339,7.3163038932688,12.7589228709085,3.64858766686713,1.94863493692129,0.13584874053309,0,8.69429117026598,0,0.0995297227398851,0,0,0.298783704997237,0.669816372025248,0.132727912183845,0.265520669960394,0.0995945683324124,0,0.0995297227397069
855.3,"Poamoho Exp Farm","NWS","HydroNet-UaNet","OA",220.0656,21.5382004,-158.0893,NA,"POAH1",NA,NA,NA,0,1.98621823493159,1.61380231588189,7.20004110162699,0,1.61380231588192,1.24138639683225,0.124138639683205,2.35863415398126,25.3242824953777,41.2140283748304,16.8828549969185,0,0.124138639683227,0.248277279366453,0.868970477782564,0.372415919049672,0,0,0.124138639683227,0,0,0,0,0,0,0,0,0,0,0.62069319841612
884.4,"PunaluuRainGageatalt","USGS","USGS","OA",73.152,21.55644444,-157.899,NA,"PNSH1","DD989652",NA,NA,3.53804372981758,34.7935958753496,20.6855789375745,51.5312609291038,8.78668884111464,8.99948564960982,5.70381074942195,9.77622317372624,29.2838453014608,34.1871015528272,21.0317301885004,30.4790295320659,10.2755189416536,8.64999330188912,17.1663054960711,23.9107850118027,3.72274651668515,0.168297892303629,0,6.26986374901627,0,0.100155411840306,0,0.132113572172236,4.02229274190483,0.582391954739669,0.0681424804634165,1.1623594209237,0.324986577115093,0,1.12397646171012
897.11,"KamananuiRainGageatalt","USGS","USGS","OA",219.456,21.62238889,-158.0143056,NA,"KMRH1","DD34C1E4",NA,NA,1.89240119638795,16.1475183999996,12.4263728513942,32.448706674216,6.09884805593749,3.81705548188995,2.94240964578535,6.09724593142639,16.2118576185709,22.3392376119013,17.6869452449489,30.7036605776252,9.19058447538517,5.82498717592768,14.384374605582,8.66560614514264,4.18196098403818,0.0895180842687682,0.0440634073152698,5.11511868887375,0.0881268146304608,0.0440634073152698,0,0.0881268146305001,1.59513509876383,0.811521799684226,0.0895180842687707,0.704632882576528,0.1363640308605,0,0.6536486384331
897.9,"PupukeaRdRainGageatalt","USGS","USGS","OA",353.568,21.59902778,-158.0169167,NA,"PPRH1","1713D512",NA,NA,3.24924360504869,12.8503318987303,34.2259874898563,46.1498479998975,9.2802616585638,4.72857273505271,5.3615308410331,16.7881332405075,52.7983688787674,65.8155097505474,70.1400718478548,39.7833527506215,9.18398199095409,12.018404497282,12.3637650727121,10.4893882998051,3.38028487253573,0.0442858300883314,0,10.7076888377738,0,0.13277098732792,0,0,0.398572470794997,0.531083949310967,0.177056817416016,0.354200137769346,0.260902070424923,0.76826748095949,0.559586254527392
986.2,"Kalaheo","KUKUILONO GOLF COU","HydroNet-UaNet","KA",263.0424,21.9183006,-159.5265,NA,"KHEH1","1560740C",NA,NA,0,13.4862438264189,4.57531730121844,17.2425580181036,3.62269955504877,3.35458160885167,1.92254770820836,0.775943969630862,9.28913232938738,14.7380523326721,7.93611347284748,4.70626899292845,1.27267233997317,5.10667010329847,4.48520460402345,0.359562115855131,5.12131937424091,0,0,0.981027615130172,0.0741319537893009,0,0,1.11197930683992,1.12929152270877,2.19066565440525,0.222395861368036,0.0741319537894337,0,0,1.68905419374877
1020.1,"LIHUE WEATHER SERVICE OFFICE AIRPORT 1020.1","LIHUE WEATHER SERVICE OFFICE AIRPORT 1020.1","NWS","KA",45,21.98156999,-159.3422063,"USW00022536","PHLI",NA,NA,NA,0,10.5461077464583,3.5153692488193,8.95852163408802,2.60817718460798,2.38137916855499,1.47418710434367,0.453596032105763,4.30916230500443,7.1441375056652,4.98955635316295,4.08236428895165,0.113399008026389,2.49477817658158,1.36078809631708,0,6.91733948961221,0,0,1.13399008026451,0.113399008026389,0,0,1.70098512039645,1.36078809631728,1.70098512039625,0.340197024079372,0.113399008026593,0,0,0.566995040131949
1060,"Wailua UH Exp Stn","NWS","HydroNet-UaNet","KA",158.1912,22.0660992,-159.396,"USC00519475","WUHH1",NA,NA,NA,0.0553291584553018,16.9101364277644,6.89083973424193,14.9957528485425,6.01031872872893,6.10833113846859,5.89176003441934,1.24253330035881,9.48024169828484,20.8701347043508,17.4855782373637,18.4862486193316,6.64582196822407,9.98769518392673,9.86913648961701,0.719279059919196,12.0048234443282,0,0,2.71902914170988,0.282968745861977,0.0368861056368844,0.0553291584553142,2.47399811736015,2.34437093969338,4.02321455410896,0.793577079130849,0.189287793121589,0,0,1.19352709548865
1069,"PUU LUA","RAWS","RAWS","KA",1021.08,22.08916667,-159.6791667,NA,"PLRH1","487083CE",NA,NA,0,1.32329720466135,0.220549534110226,0,0,0,0,0,0,1.32329720466135,10.1452785690704,15.2179178536056,0.220549534110224,0,0,0,0.441099068220454,0,0,0,0,0,0,1.98494580699202,0.220549534110224,0.441099068220454,0,0,0,0,0
1076,"Kokee","NWS","HydroNet-UaNet","KA",1279.2456,22.1485996,-159.6448,NA,"KOKH1","1900E616",NA,NA,0.251803964717011,28.957455942441,5.53968722377131,9.31674669452444,5.03607929433762,5.79149118848832,7.05051101207247,4.02886343547007,40.5404383194175,66.2244427205392,148.312535218242,81.8362885329857,17.3744735654648,3.27345154131939,6.0432951532051,0,11.0793744475427,0,0,0.251803964716898,0.50360792943374,0.251803964716898,1.00721585886748,6.7987070473558,0.672208413585184,0.178452538466961,0.178452538466988,0.231003094575528,0.178452538466958,0.125901982358477,0
1082,"WaiakoaliRainGagenrWaimea","USGS","USGS","KA",1042.416,22.1245,-159.6220833,"519130","WKRH1","17B79574",NA,NA,0.181428064672262,20.5423787094511,5.97615124455276,10.3068158539041,5.77421947913525,6.47942803707872,7.81569999757778,2.7955661254709,25.4550165872676,46.6963933705894,87.2283576928631,55.3701435574377,15.1469677398542,8.8491808524537,11.2740212009863,0.697338910349542,10.3430588498374,0,0,1.62974734001358,0.416497583986681,0.181428064672229,0.564787894762016,4.14757738115803,1.06278362335939,1.58694895741377,0.406836955283797,0.192068290791581,0.120749197191662,0.0851910733533208,0.590056001064989
1083,"MoCrsgRainGagenrWaimea","USGS","USGS","KA",1042.416,22.11708333,-159.6009722,"USC00516433","MCRH1","D109224A",NA,NA,0.179605209398295,20.335984051392,5.91610728810183,10.2032605761082,5.71620438400871,6.41432752690674,7.73717361310653,2.76747834056979,25.1992633700415,46.2272224786186,86.3519515417686,54.8138252260576,14.9947821886327,8.76027081520934,11.1607481577988,0.6903325637142,10.239139429171,0,0,1.61337284172775,0.412312923697568,0.179605209398262,0.55911332288969,4.10590558513745,1.05210555799819,1.57100446568497,0.402749357860965,0.190138530379576,0.119535998388457,0.0843351363314628,0.584127553912008
1117.8,"Hanalei","NWS","HydroNet-UaNet","KA",4.8768,22.1982002,-159.4951,"USC00513386","HNIH1","B159849E",NA,NA,NA,NA,NA,NA,NA,NA,NA,NA,NA,NA,NA,NA,NA,NA,NA,NA,NA,NA,NA,NA,NA,0.0431445726481615,NA,NA,2.15675198690999,2.11679207713423,0.474838229338355,0.220163920711466,0.0428998449261346,0,NA
