"SKN","Station.Name","Observer","Network","Island","ELEV.m.","LAT","LON","NCEI.id","NWS.id","NESDIS.id","SCAN.id","SMART_NODE_RF.id","X2018.09.01","X2018.09.02","X2018.09.03","X2018.09.04","X2018.09.05","X2018.09.06","X2018.09.07","X2018.09.08","X2018.09.09","X2018.09.10","X2018.09.11","X2018.09.12","X2018.09.13","X2018.09.14","X2018.09.15","X2018.09.16","X2018.09.17","X2018.09.18","X2018.09.19","X2018.09.20","X2018.09.21","X2018.09.22","X2018.09.23","X2018.09.24","X2018.09.25","X2018.09.26","X2018.09.27","X2018.09.28","X2018.09.29","X2018.09.30"
2.1,"KAHUKU MAUKA","COOP","COOP","BI",957,19.1089,-155.7467,"USC00512566",NA,NA,NA,NA,0,0,0,7.70670513896926,0,0,0,0,0,13.2425074218908,1.62817714203576,0,4.66744114050251,0,0,0,0,0,0,0,0,0,0,0,0,0,0,0,0,0
2.32,"SOUTH KONA 2 2.32","COOP","COOP","BI",647,19.10778,-155.78944,"USC00518652",NA,NA,NA,NA,0,0,0,7.1,0,0,0,0,0,12.2,1.5,0,4.3,0,0,0,0,0,0,0,0,0,0,0,0,0,0,0,0,0
2.34,"MILOLII 2.34","COOP","COOP","BI",280,19.186302,-155.886763,"USC00516304",NA,NA,NA,NA,0,0,0,0,0,0,0,1.5,0.5,0,0,0,0.3,3,0,27.2,10.7,0.3,0,0,0,0,0,0.8,0,0,0,4.1,0,0
2.36,"KAPUA 2.36","COOP","COOP","BI",533,19.14472,-155.84944,"USC00513376",NA,NA,NA,NA,0,0,0,0,0,0,0,0,0,5.6,0,0,0,13.2,0,7.9,9.9,0,7.9,0,0,0,0,0.3,0,0,0.8,0,2,0
3.22,"HAWAIIAN OCEAN VIEW 4.7 NNE","HAWAIIAN OCEAN VIEW 4.7 NNE","CoCoRaHS","BI",1273,19.135,-155.747,"US1HIHI0035",NA,NA,NA,NA,0,0,0,0,2,0,0,0,0.8,0.8,4.3,0,1.3,3.3,0,0,0.3,3.6,1.8,0.3,0,0,0,0,1.3,0,4.3,0,0,3.8
3.9,"LOWER KAHUKU CS","LOWER KAHUKU CS","RAWS","BI",953.7192,19.10083333,-155.6697222,NA,"LKHH1","32D620C2",NA,NA,0,0,3.556,2.794,0.254,0,0,0,4.316,18.29,0.25,0,18.04,0,1.52,0,5.08,7.62,3.05,4.57000000000001,2.8,9.39,0.510000000000005,1.27,5.08,5.08,15.73,0.799999999999997,14.7,0.5
4.12,"NAALEHU 4.6 WSW","NAALEHU 4.6 WSW","CoCoRaHS","BI",391,19.0424,-155.6354,"US1HIHI0001",NA,NA,NA,NA,0,0,0,1.76931229253701,2.29842723817345,0,0,0,0,0.110985325839179,9.7315184176973,0,7.36744117138662,19.2612738710827,0,0.3,0,1.3,0.5,17,0,0,2.3,0.5,8.4,6.9,9.9,5.8,3,15.7
4.13,"NAALEHU 5.0 WSW","NAALEHU 5.0 WSW","CoCoRaHS","BI",436,19.0424,-155.643,"US1HIHI0010",NA,NA,NA,NA,0,0,0,0.55777720080626,2.7888860040313,0,0,0,0,0,3.68132952532132,0,11.0439885759639,28.0004154804743,0,0.165667972209306,0,0.717894546240326,0.27611328701551,18.4796201316694,1.67333160241878,1.56177616225753,1.71634288091635,0.722335047660518,12.2802508729063,9.77857940944102,15.6743658576617,8.27868665671688,3.31335944418612,17.339914424574
4.14,"NAALEHU 4.7 WSW, HI US","CoCoRaHs","CoCoRaHs","BI",393.18,19.0421,-155.6371,"US1HIHI0057",NA,NA,NA,NA,NA,0,NA,1,2,0,0,NA,NA,0,17.8,0,4.3,15.7,NA,0,NA,1.3,0.3,13.7,0.8,2.3,2.3,0.5,7.9,6.6,9.7,4.6,6.4,10.2
5.1,"Kamaoa Puueo 5.1","COOP","COOP","BI",317,19.01361,-155.66194,"USC00513054",NA,NA,NA,NA,0,0,0,0.395938568047257,1.97969284023628,0,0,0,0,0,2.61319454911189,0,7.83958364733568,19.8761161159723,0,0,0,0,0,12.9075973183406,2.37563140828354,2.21725598106464,0.633501708875611,0.633501708875611,10.8487167644948,8.47308535621129,3.8,3.8,3,NA
6,"KIOLAKAA A&F 6","STATE DIV FTRY","COOP","BI",587,19.07032619,-155.6355484,"USC00514625",NA,NA,NA,NA,0,0,0,0.573249903785765,2.86624951892883,0,0,0,0,0,3.78344936498605,0,11.3503480949581,28.7771451700454,0,0,0,0,0,18.6879468634159,3.43949942271459,3.21019946120028,0.917199846057224,0.917199846057224,15.70704736373,12.2675479410154,13.2413414423058,7.96744232747676,4.34347611004152,NA
6.2,"NAALEHU 5.7 W","NAALEHU 5.7 W","CoCoRaHS","BI",679,19.0732,-155.6632,"US1HIHI0012",NA,NA,NA,NA,0,0,0,4.1,2.8,0,0,0,0,0.3,21.8,0,6.4,17.8,1.3,1.3,0,7.4,7.6,7.1,4.6,3,7.1,1.8,9.1,3,31.8,2.8,3,19.1
9.2,"Nene Cabin","Nene Cabin","RAWS","BI",710.4888,19.34805556,-155.1258333,NA,"AHMH1","32D64524",NA,NA,0,0,19,0,NA,NA,NA,NA,NA,NA,NA,NA,NA,NA,NA,NA,NA,NA,NA,NA,NA,NA,NA,NA,NA,NA,NA,NA,NA,NA
12.15,"SEA MOUNTAIN 12.15","SEA MOUNTAIN","COOP","BI",21,19.13310292,-155.5152744,"USC00518600",NA,NA,NA,NA,0,0,0,3.8,0,0,0,0,0,0,0.5,0,8.4,57.2,0,0,0,0,0,0,0,0,0,2,0,3.8,24.6,1.3,0.3,5.1
14,"NAALEHU 14","KAU SUGAR","COOP","BI",206,19.06032754,-155.5855501,"USC00516588",NA,NA,NA,NA,0,0,0,0.5,2.5,0,0,0,0,0,3.3,0,9.9,25.1,0,0,0,0,0,16.3,3,2.8,0.8,0.8,13.7,10.7,18.3,9.1,2.36865583020822,11.8134322969588
21,"Pahala","KAU SUGAR","HydroNet-UaNet","BI",346.8624,19.2042999,-155.4872,"USC00517421","PPLH1","B16084B2",NA,NA,0,0,4.064,0.508,0,0,0,0,0,0.762,0,1.778,43.18,0.254,0,0,0,0,1.016,8.89,0,8.636,0.762,0.254,8.636,22.86,17.018,6.35,9.906,0
21.3,"PAHALA MAUKA 21.3","COOP","COOP","BI",332,19.20667,-155.48861,"USC00517437",NA,NA,NA,NA,0,0,1.89920032151104,2.12194812029542,0,0,0,0,0,0.356100060283319,1.3,0.830900140661078,27.7274342487274,40.6,0,0,0,0,0,14.2,0,5.11272268247879,0.66379206007413,1.31704495685224,3,4.1,48.8,0,7.1443480863423,3.40674748389875
21.4,"HAWAIIAN OCEAN VIEW 1.7 NNE, HI US","CoCoRaHs","CoCoRaHs","BI",733.03,19.0908,-155.7552,"US1HIHI0059",NA,NA,NA,NA,0,3.8,0,0,6.4,0.3,0,NA,0,1,12.2,0,NA,5.8,0,0,0,5.8,1.5,0,0,0,1.3,NA,2.5,0,6.9,0,0,2.5
23,"KAHUKU","RAWS","RAWS","BI",1796.4912,19.23222222,-155.78,NA,"KRCH1","32639544",NA,NA,0,0,0,29.9,0,0,0,7.20000000000005,0.200000000000045,0.299999999999955,0,0,1.70000000000005,0,3.89999999999998,8.60000000000002,0.5,2.5,0,0,0.299999999999955,0.5,0.299999999999955,0,0,0.200000000000045,1.79999999999995,0,0,0.200000000000045
24.1,"OPIHIHALE 2 24.1","TRUMAN LORNA","COOP","BI",396,19.27032215,-155.8738768,"USC00517166",NA,NA,NA,NA,0,0,0,0,1.5,0,0,0,0,5.1,0,2,0,5.8,0,39.1,34.5,1,0,0,0,2,1.5,0.8,0,0,0,0.5,0.8,0.8
26.2,"KEALAKEKUA 26.2","GREENWELL ESTATE","COOP","BI",442,19.48975723,-155.9122125,"USC00513977",NA,NA,NA,NA,0.434899903117792,0,0,0,0.8,0,0,0,0,0,0,0,17.5864898641278,5.81678620420047,0,1.40691918913022,3.75178450434725,10.019734351672,0,3.6345412385864,5.16195644147878,1.63614017867182,0.937946126086813,1.74811790245257,0,1.28967592336937,0.351729797282555,6.16851600148302,1.17243265760852,7.50356900869451
27,"HONAUNAU 27","TANAKA S","COOP","BI",332,19.4403158,-155.8788789,"USC00511665",NA,NA,NA,NA,0.8,NA,NA,NA,0,0,0,0,NA,NA,0,0,0,10.7,0,NA,NA,18,0,0,1.3,1.5,NA,3,0,0,0,10.7,0,NA
27.6,"Honaunau No. 2","NWS","HydroNet-UaNet","BI",398.0688,19.4629002,-155.8824,NA,"HAUH1","15D12742",NA,NA,7.62,0.508,0,0,0,0,0,0,1.778,0,0,0,40.386,3.048,20.574,7.62,7.112,0,0,4.826,8.89,0,3.556,0,0,1.778,4.572,0,18.034,3.048
28,"NAPOOPOO 28","KONA EXP STATION","COOP","BI",122,19.46864784,-155.9055458,"USC00516697",NA,NA,NA,NA,NA,NA,NA,NA,0.516643554041734,0,NA,NA,NA,NA,NA,0,NA,NA,NA,NA,NA,NA,NA,NA,NA,NA,NA,NA,NA,NA,NA,NA,NA,NA
29.12,"Kealakekua","NWS","HydroNet-UaNet","BI",537.972,19.5181007,-155.9159,NA,"KLEH1","81708572",NA,NA,0,0,0,0,0,0,0,0,0,0,0,0,38.1,0,0,1.524,4.064,0.508,0,7.874,9.652,1.778,1.016,0.254,0,2.794,0.762,0.762,2.54,8.128
34,"Kapapala Ranch","NWS","HydroNet-UaNet","BI",638.556,19.2754993,-155.4514,"USC00513300","KAYH1","B16097C4",NA,NA,0,0,10.922,1.27,0,0.254,0.508,0,0,0,1.27,5.334,33.274,0.254,0.254,0,0,0,2.286,3.81,0.254,6.858,0.254,2.54,8.636,22.606,21.844,0.508,5.588,0
36.3,"KAPAPALA RANCH","KAPAPALA RANCH","RAWS","BI",1081,19.25811,-155.441781,NA,"KPRH1","AA10E258",NA,NA,0,0,9,0,0,0,0,0,0,0,0,2,45,0,1,0,0,0,2,4,0,1,0,1,2,10,20,0,3,0
38.9,"KAELAKOMO","KAELAKOMO","RAWS","BI",29.5656,19.29277778,-155.1075,NA,"KMOH1","32807432",NA,NA,0,0,NA,0,0,0,0,0,0,0,0,11,NA,1,1,0,0,0,7,NA,0,0,9,4,2,NA,NA,7,3,0
39,"Mauna Loa Observatory","NWS","ESRL/GMD","BI",3397,19.5362,-155.5763,"USC00516198","MOBH1",NA,NA,NA,NA,NA,NA,NA,0,0,1.5,NA,NA,NA,0,2,0.3,4.1,NA,NA,NA,0,0,1.3,0,NA,NA,NA,0,2.3,3.8,0,NA,NA
39.1,"Mauna Loa Upper","NWS","STATE","BI",3341,19.53863295,-155.5722206,NA,NA,NA,NA,NA,NA,NA,NA,NA,0,0,1.17438681215395,NA,NA,NA,0,1.56584908287193,0.234877362430789,3.20999061988745,NA,NA,NA,0,0,1.01780190386675,0,NA,NA,NA,0,1.80072644530272,2.97511325745666,0,NA,NA
39.2,"MAUNA LOA 5 NNE","MAUNA LOA 5 NNE","USCRN","BI",3398,19.5354,-155.576,"USW00021514","MLBH1","CD07379A",NA,NA,0,0,1,0,0,1.1,1.4,11.1,0,0,0,1.7,4,0,0,0,0,0,1.6,0,0,0,0,0,1.9,3.5,0,0,0,0
43.3,"PUHE CS","PUHE CS","RAWS","BI",34.126,20.025,-155.8211111,NA,"PHRH1","32D61558",NA,NA,0,0,0,0,0,0,0,0,0,0,0,0,0,0,0,0,0.200000000000003,0,0,0,0,0,0,0,0,0,0.299999999999997,0,0,0
48,"PALI 2","RAWS","RAWS","BI",847.344,19.3175,-155.2922222,"USR0000HPAL","PLIH1","FA900222",NA,NA,0,0,12,0,0,0,0,0,0,0,4,5,65,0,1,0,0,0,12,11,0,0,1,0,24,37,43,0,1,0
49,"KEAUMO","RAWS","RAWS","BI",1682.496,19.47361111,-155.3588889,"USR0000HKMO","HKMO",NA,NA,NA,1,2,1,0,0,0,0,13,0,0,2,5,42,1,1,0,0,0,1,8,0,0,0,6,7,10,0,0,1,0
54,"HAWAII VOLCNS NP HQ 54","HAW VOL NATL PARK","COOP","BI",1210,19.429741,-155.257146,"USC00511303",NA,NA,NA,NA,3.29261276243554,0.400695519049426,13.0576300244464,8.51426050449456,0.485194597414829,1.26013934259729,2.21242275560409,2.41712221987918,0.438795477198219,0,1.13684134326174,9.36740309252219,110.13812229698,9.25471316105554,30.2357066189675,4.05726041900261,8.60986164296522,5.75383793721932,12.1662365971997,4.02786387035456,0.331797563233871,0.697894984993306,1.38473278228307,3.38311836093275,1.05628972221378,6.79387244646361,4.51261287131075,1.54918700416757,3.82566906535249,1.70103523163559
54.2,"Glenwood","HELBUSH XL","HydroNet-UaNet","BI",802.2336,19.5076008,-155.1707,"USC00510744","GLNH1",NA,NA,NA,0,0.508,21.59,11.938,0.254,1.524,0.254,0.508,0.508,0,0,8.382,198.12,17.018,47.752,6.35,10.922,7.366,28.194,6.35,0.762,2.54,0.254,2.794,0,0,8.128,4.572,7.874,3.556
54.8,"Thurston","Thurston","HavoNet","BI",1202,19.41528,-155.23833,NA,NA,NA,NA,NA,2.54,0,11.684,2.54,0.254,2.032,0.254,1.27,0.254,0,3.302,6.858,94.484,6.096,19.558,2.54,4.572,1.27,4.572,4.318,0.508,0.508,0,4.572,1.778,4.826,6.096,0.762,4.826,1.524
54.9,"Ola a","Ola a","HavoNet","BI",1040,19.47833,-155.215,NA,NA,NA,NA,NA,3.96883938654865,0.482989125280732,15.7393656877127,10.2628929897538,0.584842362979903,1.51894286279211,2.66680329746487,2.91354330451612,0.52891393497956,0,1.37032230175061,11.2912513634854,132.757949164186,11.1554175224778,36.4454225162888,4.8905280135376,10.3781283943207,6.93554337442404,14.6649006357246,4.85509409266054,0.39994112042176,0.841226498213343,1.66912491771577,4.07793274490434,1.27322723794206,8.18917695403918,5.43939934395949,1.86735423898483,4.61137314405614,2.05038858569826
55.3,"VOLCANO 4.4 S","VOLCANO 4.4 S","CoCoRaHS","BI",1158,19.4338,-155.2417,"US1HIHI0040",NA,NA,NA,NA,0.8,NA,NA,NA,0,0,0.8,0.8,0.5,0,NA,NA,NA,NA,16.3,4.6,NA,NA,NA,NA,0.5,0,0,NA,NA,NA,NA,NA,NA,0
55.4,"GLENWOOD NO 2 55.4","COOP","COOP","BI",671,19.52194,-155.14389,"USC00510746",NA,NA,NA,NA,0,0.230304466112157,41.412436003763,22.2225652247586,2.50025899630672,1.86693760721081,3.66942897829233,0.230304466112157,0.230304466112157,1.16916998198561,0.409051898738901,15.3454746823096,160.23748629288,28.9164607330366,67.5342675515229,15.0249948315927,12.1249277922114,15.8442116472807,35.127004207897,11.3273498397567,1.77028411786566,2.32069231254639,0.115152233056078,3.20967108262664,1.55639844040982,1.00395226012687,4.3123416203738,8.62099950654234,12.0587070728854,2.45393364981473
63,"KALOKO-HONOKOHAU","RAWS","RAWS","BI",7.62,19.67277778,-156.0202778,NA,"KHOH1","FA667668",NA,NA,0,0,0,0,0,0,0,0.200000000000045,0,0,2.09999999999997,0,4,0,0,0,1.30000000000001,0,0,3.5,12.7,0,1.80000000000001,0,0,3.10000000000002,0,7.79999999999995,0.300000000000011,0
65.4,"PAHOA 2.1 E","PAHOA 2.1 E","CoCoRaHS","BI",137,19.5043,-154.9165,"US1HIHI0003",NA,NA,NA,NA,0.3,0.5,9.7,21.3,3.34250945186457,2,3.6,1,0,5.6,1.5,2.3,13.2,2,1,13.7438840940743,2.92728822168293,14.2,0.8,9.7,0.5,1,0.5,0,14,1.5,4.3,0.3,32.3,1.8
65.6,"KURTISTOWN 6.6 SSE, HI US","CoCoRaHs","CoCoRaHs","BI",339.63,19.5021,-155.029,"US1HIHI0055",NA,NA,NA,NA,0.3,0,6.1,20.6,5.1,1.3,5.1,0.5,0,1.3,1.3,2.5,130,33.8,8.6,15.2,5.8,19.1,7.6,20.1,0.8,2,2.5,3.3,1.8,3,0.8,0.3,34.3,1
67.7,"PAHOA 2.7 SSE","PAHOA 2.7 SSE","CoCoRaHS","BI",259,19.4654,-154.927,"US1HIHI0051",NA,NA,NA,NA,0.3,0,15,23.9,2.8,0.5,3,0.8,0.5,2,0.5,7.1,16.3,4.3,2.5,2,3.3,11.4,1,11.9,1,0.8,2.3,0.3,8.1,9.4,11.2,0.8,41.1,2.8
68.14,"HONOKOHAU HARBOR 68.14","COOP","COOP","BI",9,19.67944,-156.02333,"USC00511880",NA,NA,NA,NA,NA,NA,NA,NA,NA,NA,NA,NA,NA,NA,NA,NA,NA,NA,NA,NA,NA,NA,NA,NA,NA,NA,NA,NA,NA,NA,NA,5.1,1.5,0.5
68.21,"KAILUA KONA KE AHOLE AIRPORT","KAILUA KONA KE AHOLE AIRPORT","NWS","BI",27,19.73556,-156.04889,"USW00021510","HKO",NA,NA,NA,0,0,0,0,0,0,0,0,0,0,0,0,0,0,0.3,0,0,NA,0,0,0,0,0,0,0,7.6,2,0.5,16,0
68.22,"HOLUALOA 4.0 NW","HOLUALOA 4.0 NW","CoCoRaHS","BI",416,19.6799,-155.9699,"US1HIHI0049",NA,NA,NA,NA,NA,NA,NA,0,0,0,NA,NA,NA,NA,NA,2.3,0,66.8,NA,NA,NA,NA,0,0,27.2,NA,NA,NA,0,NA,23.6,27.4,NA,NA
69.25,"Palamanui","Hilo Forest Service","HIPPNET","BI",297,19.73756,-155.99582,NA,NA,NA,NA,NA,0,0,0,0,0,0,0,0,0,0,0,0,4.318,0.254,17.78,0,3.81,2.032,0.254,30.226,19.556,3.302,0.254,0,0,5.842,0.254,0.508,17.018,1.524
69.26,"KALAOA 2.2 ESE","KALAOA 2.2 ESE","CoCoRaHS","BI",398,19.7189,-155.9859,"US1HIHI0038",NA,NA,NA,NA,0,0,0,0,0,0,0,0,0,0,0,0,0.8,28.4,0,NA,18.8,0,14,0,63.5,10.4,13.2,NA,NA,NA,6.4,4.6,NA,14
69.27,"KALAOA 1.7","KALAOA 1.7","CoCoRaHS","BI",304.5,19.7238,-155.9926,"US1HIHI0006","","",NA,NA,0,0,0,0,0,0,0,0,0,0,0,0,0,7.4,0,7.9,0.3,6.6,1.8,0,58.4,7.4,4.1,0,0,0,11.4,1,0.3,11.9
70.16,"Waiaha Stream","NWS","HydroNet-UaNet","BI",460.5528,19.6331997,-155.9486,NA,"WIHH1","9321011E",NA,NA,3.048,0,0,0,0,0,0,0,0,0,0,0,11.43,0.762,5.08,0.508,8.128,0,0,16.51,13.97,1.524,3.556,0,0,18.796,2.286,4.572,5.08,19.558
70.7,"Puuwaawaa","Hilo Forest Service","HIPPNET","BI",1659,19.72544,-155.87389,NA,NA,NA,NA,NA,0,2.032,0.508,6.858,0,0.762,5.842,0,0,0,8.382,53.848,10.922,0.254,1.778,0,4.318,6.858,0,0.508,0.508,3.556,1.016,0,0.254,7.62,12.446,0,14.732,0.254
73.29,"Kainaliu Upper","NWS","HydroNet-UaNet","BI",713.232,19.5310993,-155.9066,NA,"KNUH1",NA,NA,NA,0.421799952145728,0,0,0,0.258634197047395,0,0,0,0,0,0,0,17.0567538183407,5.64157435994911,0,1.36454030546725,3.63877414791267,9.71792230752342,0,3.5250624557904,5.00646922288311,1.58685675512914,0.909693536978168,1.69546151266875,0,1.25082861334498,0.341135076366813,5.98270943631592,1.13711692122271,7.27754829582535
73.34,"Kainaliu","SCAN","SCAN","BI",416,19.53333333,-155.9333333,NA,NA,NA,2096,NA,0,0,0,0,0,0,0,0,0,0,0,0,0,22.352,0,0,0.762,3.048,0.508,0,7.874,15.24,0,3.048,0,0,6.604,1.524,2.032,6.604
74.8,"KEALAKEKUA 4 74.8","COOP","COOP","BI",433,19.5106,-155.9217,"USC00513987",NA,NA,NA,NA,0.494827213286968,0,0,0,0.303412170472368,0,0,0,0,0,0,0,20.0098314774948,6.6183139777132,0,1.60078651819959,4.26876404853223,11.40041005199,0,4.13536517201559,5.87325152922334,1.86159316052949,1.06719101213306,1.98900092634276,0,1.46738764168295,0.400196629549896,7.01851060726309,1.33398876516632,8.53752809706445
75.1,"PTA KIPUKA ALALA","RAWS","RAWS","BI",1641.348,19.66694444,-155.7077778,"USR0000HPTK","PKAH1","32666200",NA,NA,0,0,1.30000000000001,16.3,0,0,17.7,0,0,0,0,6.10000000000002,14.5,0,0,0.299999999999955,0,5.5,3.60000000000002,0.5,0.299999999999955,1.20000000000005,0,0,0.799999999999955,20.1,20.3000000000001,0,0,0
79,"KULANI CAMP 79","DEPT SOCIAL SVC","COOP","BI",1576,19.54863532,-155.3005575,"USC00515011",NA,NA,NA,NA,2.70529547539056,0.314228755326163,6.63240270598515,21.707424566149,3.22054337605775,0.657508175496521,10.8674307358569,3.38105518600136,0.400951269665374,0.563529858737547,0.395650879391385,5.60374613664991,69.4741700323669,9.66837196188325,37.0734617140654,7.14874179940157,7.46663063888328,9.91619076737417,9.26952011786679,6.58327516561029,0.563529858737547,0.563529858737547,1.64585268823479,1.30928648052568,1.24030827918112,5.44663175898683,0.785571888315408,1.04283604503225,4.09507690826243,0.877084631280279
79.6,"Kulani NWR","NWS","HydroNet-UaNet","BI",1623.3648,19.5543995,-155.3089,NA,"KNWH1",NA,NA,NA,2.032,0.254,5.08,5.08,0,2.794,2.286,2.794,0.254,0,0.254,4.318,86.36,1.524,18.034,0.762,3.556,1.524,3.048,1.016,0,0,0.254,1.016,1.016,3.048,0.254,2.286,0.762,0.254
83,"QuarryRainGageatSaddleRd","USGS","USGS","BI",1286.256,19.68586111,-155.2942222,NA,"SDQH1","DDF6B6E4",NA,NA,12.446,1.524,23.622,26.67,1.778,1.27,10.668,9.652,1.27,0,0,27.178,189.484,18.796,70.358,9.652,24.638,19.558,24.638,6.35,0,0,6.858,6.35,2.286,26.416,3.81,1.778,2.794,2.286
85.2,"Waiakea Uka","NWS","HydroNet-UaNet","BI",303.8856,19.6585999,-155.1277,"USC00519084","WKAH1",NA,NA,NA,0,0,64.008,6.858,0,0.254,1.27,0,0.762,0,0,23.368,97.282,25.4,32.766,5.842,10.922,10.922,2.54,9.906,0,0,0.254,29.464,0,2.032,1.27,10.414,2.794,2.286
87,"HILO INTERNATIONAL AIRPORT 87","NWS","HydroNet-UaNet","BI",11.6,19.7191,-155.053,"USW00021504","HTO",NA,NA,NA,0,0,24.638,4.572,0,1.524,1.27,0,0,1.524,0,3.302,30.734,16.256,17.526,2.794,13.716,9.144,5.334,3.302,0,0.254,0.254,0.762,0,0,0,10.16,0.508,0.254
87.5,"HILO 5 S","HILO 5 S","USCRN","BI",189,19.645,-155.0827,"USW00021515",NA,NA,NA,NA,0,0,55.5,7.7,0,0.3,0,0,0.4,0,0,9.5,85.6,15.1,45.9,5.6,6.2,15.7,3.5,5.2,0.2,0,0,1.6,0,0,0.3,16.4,3.7,0.5
87.8,"HILO 0.4 SW","HILO 0.4 SW","CoCoRaHS","BI",107,19.692,-155.0925,"US1HIHI0039",NA,NA,NA,NA,0,0,0.3,41.1,4.3,0,1.8,0,0,1.5,0,0,70.1,13.5,33.8,28.4,3,21.8,2,15.7634139393186,5.3,1.3,0,0,2.3,0,0,1,16.5,2.8
87.9,"IPIF","Hilo Forest Service","HIPPNET","BI",111,19.69748,-155.0954,NA,NA,NA,NA,NA,0,0,42.418,6.858,0,0.508,1.27,0,1.778,0,0,25.4,46.99,18.288,29.718,3.302,12.7,10.414,7.112,8.382,0,1.27,0,2.54,0.254,0,0.254,18.542,2.54,1.778
88.1,"KAUMANA 88.1","HILO SUGAR","COOP","BI",343,19.68362898,-155.1405634,"USC00513510",NA,NA,NA,NA,0,0,49.6476701942877,17.7462395420191,2.08343518795851,0.109621375131237,4.12391582586636,0,0.9177166297043,1.02129175880319,0,13.9715930405237,88.9526118044542,28.7657301032716,57.5120021931241,13.4364143784306,10.8591321376466,17.282780070721,6.58248218768401,15.7416661380903,1.02129175880319,1.13906225966531,0.227391875993355,21.9021785824687,1.34332061142595,0.876971001049894,1.37250038169101,11.2552400314641,9.77069903720937,3.60625045631332
88.2,"WAIAKEA SCD 88.2","SHINICHI KANESHIRO","COOP","BI",287,19.65529741,-155.1205634,"USC00519025",NA,NA,NA,NA,0,0,49.7828390736597,17.7945547862707,2.08910747023274,0.109919826163757,4.13514344397259,0,0.920215170480387,1.02407228932978,0,14.0096315741938,89.194790839397,28.8440465980266,57.6685822069788,13.472995854806,10.8886968023379,17.329833517649,6.60040340608786,15.7845238061945,1.02407228932978,1.1421634277276,0.22801096456158,21.961808630026,1.34697788559355,0.879358609310056,1.37623709960355,11.2858831246075,9.79730037488282,3.61606869815642
89.11,"Piihonua","NWS","HydroNet-UaNet","BI",296.8752,19.7098007,-155.1395,"USC00518053","PIIH1",NA,NA,NA,0,0,47.498,6.604,0,0,1.016,0,1.27,0,0,8.382,59.182,22.098,37.592,6.096,9.906,13.716,1.524,18.034,0,0.254,0.254,19.812,0.254,0,1.778,11.938,5.08,4.064
89.13,"KAIWIKI HOMESTEAD 89.11, HI US","COOP","COOP","BI",379.67,19.7509,-155.1362,"USC00512802",NA,NA,NA,NA,0,0,1.5,41.4,6.6,0.3,3.6,0,0,4.8,0,0,74.2,24.1,41.9,26.4,5.6,28.4,2,25.7,0.5,1.8,0,0,21.3,0,0,2.5,16,7.6
89.2,"AMAUULU 89.2","HILO SUGAR","COOP","BI",390,19.73529295,-155.1455638,"USC00510150",NA,NA,NA,NA,0,0,36.2568387113736,6.72807316293531,0,2.24269105431177,1.86890921192648,0,0,2.24269105431177,0,4.85916395100884,45.2276029286207,23.9220379126589,25.7909471245854,4.11160026623825,20.1842194888059,13.4561463258706,7.8494186900912,4.85916395100884,0,0.373781842385295,0.373781842385295,1.12134552715589,0,0,0,14.9512736954118,0.74756368477059,0.373781842385295
91,"MOUNTAIN VIEW 91","PU SUGAR","COOP","BI",463,19.5487,-155.1101,"USC00516552",NA,NA,NA,NA,0,0.15013870974787,43.4333529940704,8.02238530076498,0,2.3,0,0,0,0,0.8,12.9044016030073,110.366918966616,20.8574763970493,37.6748743036586,5.86782806320113,10.1736989893837,10.4411241814447,33,11.3077838013201,0.5,0,0,3.8,0.3,0.654490551262263,3.42652749197635,8.83648709854436,4.98493605613906,0
91.11,"PUNA MACADAMIA O 91.11","COOP","COOP","BI",244,19.61861,-155.08667,"USC00518315",NA,NA,NA,NA,0,7.78986290763683,31.8945913043523,20.7722800045651,8.9,0,0,2.3,0.211268460998246,0.65609691496216,0,0,97.3,21.3,36.9467851737332,8.63180373860268,6.97610945478055,18.8,0,0,0,0.65609691496216,0.0704228203327488,9.25938820527844,3.70700338518134,0,0,0,6.27687968700446,1.10619516176749
91.12,"HAWAIIAN BEACHES 91.12","COOP","COOP","BI",88,19.533,-154.917,"USC00511300",NA,NA,NA,NA,0,2.91905659861429,18.9237471232869,16.9009313527929,2.12063216565749,2.11858223109198,2.84539986593008,0,0.376652464337327,2.41235405592106,1.22373524375414,5.73674748796672,58.6498998775125,13.4989167363368,23.9198593804847,7.57501598603615,8.22461415749446,12.6444651357457,8.83818652814419,6.01576944814012,0.952528372077224,1.22722035807931,0.180528869917752,1.67154400276524,1.83984110551672,2.3540779021083,0.0941631160843318,18.9481230910816,5.94150486203612,0.568793850986864
91.14,"KURTISTOWN 91.14","COOP","COOP","BI",223,19.59,-155.083,"USC00515102",NA,NA,NA,NA,0,0.13875380430064,37.273566015346,29.2921778376341,4.77270729839593,1.39048988341155,3.47226587314964,1.10122230394748,0,1.67123732112457,0.661655027035843,1.57914218881403,65.5451733786611,24.9462928263149,53.8254631195411,20.6495996447745,9.04649436648451,19.1041114779328,9.55708909994183,10.3989409249732,0.942402464748867,1.06387494081148,0.121472476062618,1.9305581405961,1.25452564552034,0,0,5.98978200020336,7.80430215456679,0.800002250681802
91.15,"Mountain View","Mountain View","HydroNet-UaNet","BI",346.5576,19.5674992,-155.0841,NA,"MTVH1",NA,NA,NA,0,0,69.088,5.334,0,2.032,0.254,0,0,0,0.762,18.034,86.106,21.844,50.038,5.334,9.906,11.938,23.368,9.652,0,0.508,0,3.81,0.254,0.254,0.762,19.812,12.7,2.286
91.17,"PAHOA BEACON 91.9, HI US","COOP","COOP","BI",148.5,19.5407,-154.9728,"USC00517460",NA,NA,NA,NA,0,NA,9.7,NA,1,2.5,0,0,NA,NA,NA,NA,NA,3.8,NA,NA,NA,NA,15.7,NA,NA,NA,0,NA,NA,NA,NA,42.4,NA,0
91.6,"KURTISTOWN 6.1 SSE","KURTISTOWN 6.1 SSE","CoCoRaHS","BI",295,19.5145,-155.0206,"US1HIHI0037",NA,NA,NA,NA,NA,NA,NA,NA,NA,NA,NA,NA,NA,NA,NA,NA,123.2,NA,NA,NA,NA,NA,NA,NA,NA,NA,NA,NA,NA,NA,NA,NA,NA,NA
91.8,"S GLEWNWOOD 91.8","COOP","COOP","BI",694,19.488,-155.149,"USC00518638",NA,NA,NA,NA,0,0.196846855257736,56.9454670586926,10.5181489888478,0.0984234276288682,1.70298001257696,0.634737509404613,0.196846855257736,0.518635304323183,0,0.349626654069077,16.9189603320866,144.702062243292,27.3462363188442,49.3955259197297,7.69330909646121,13.3387362643657,13.6893574210435,26.4197281107053,14.8256348077203,0.513786941679778,0.984234276288682,0.205686243984017,15.1858710079429,0.131109995275904,0.858102530841192,4.49252003285776,11.5855178174574,6.53574942771078,2.3432933340005
91.9,"Pahoa Beacon","NWS","HydroNet-UaNet","BI",187.1472,19.5149994,-154.9644,NA,"PHAH1",NA,NA,NA,0,7.874,28.448,10.16,0.254,3.048,1.016,0,1.016,3.302,2.032,12.446,67.056,8.128,2.54,3.556,6.858,14.732,13.97,1.778,0.762,1.27,0.254,3.81,2.794,6.35,0.254,39.624,4.572,0
92,"KEAAU 92","PU SUGAR","COOP","BI",87,19.62918887,-155.0333418,"USC00513872",NA,NA,NA,NA,0.272619323091851,0.0908731076972837,24.4113290864106,32,5.6,1.3,3.91058284809956,0.775740075803785,0.272619323091851,2.85747065069747,1.3,0,64.5,14.7177322490071,35.2515531489154,13.5239051778325,5.92476048488874,16.1364286586682,5.1,11.7,1.4940507967169,1.44191603375853,0.134079026764242,2.12882612654112,3.4062638671887,0,0,0.740641666193919,5.11121978794508,5.14029403288423
92.5,"KiholoRainGage","USGS","USGS","BI",283.96692,19.82580556,-155.8925833,NA,"KIRH1","DD60236E",NA,NA,0,0,0,0,0,0,0,0,0,0,0,9.906,2.54,0,2.794,0,5.08,1.016,0,0,1.778,0.254,0,0,0,3.048,5.588,0,0.254,0
93.11,"KAPOHO BEACH 93.11","ARRUDA GENVIEVE","COOP","BI",4,19.48892483,-154.8200037,"USC00513368",NA,NA,NA,NA,0.0883076633972814,0.147179438995469,2.92685092826281,16.0749083110551,2.05166793685386,0.588717755981876,1.48911083127167,0.294358877990938,0,2.00625877550283,0.441538316986407,0.677025419379157,20.6090165352311,3.80935928476411,8.35789100190496,13.5505510248023,1.43139623501432,9.3806357213567,0.712619180730858,5.7105622330242,1.41157944659146,0.604494728910708,0.147179438995469,0,4.66972618196196,0.441538316986407,1.26574317536103,0.326873702566335,13.4441314053967,1.19783089005704
93.12,"PUUANAHULU","RAWS","RAWS","BI",830.58,19.83277778,-155.7697222,NA,"PULH1","48703040",NA,NA,0,0,0,0,0,0,NA,0,0,0,0,NA,NA,0,0,0,1,1.80000000000001,0,8.60000000000002,0.299999999999955,0.5,0,0,0,0,NA,0,1.69999999999993,0
93.13,"Mamalahoa","Hilo Forest Service","HIPPNET","BI",636,19.80256,-155.85062,NA,NA,NA,NA,NA,0,0.327609499736399,0,0,0,0,3.82211083025856,0,0,0,1.09203166578816,42.8076412988959,3.82211083025856,0,0.327609499736399,0,3.27609499736448,8.29944065999004,0,0.327609499736399,0.54601583289408,0.327609499736522,0,0,0,1.31043799894572,40.8419843004773,0,34.9450133052211,0
93.61,"PAHOA 4.7 NE, HI US","CoCoRaHs","CoCoRaHs","BI",53.95,19.5473,-154.8988,"US1HIHI0065",NA,NA,NA,NA,0,0,10.9,10.9,8.1,0.8,2.5,0.3,0.3,14.2,0.3,0.3,0.3,3,1.3,2,2,19.3,0.8,1.8,0.3,0.8,1,0,36.3,3.6,1.3,0,12.2,1.8
93.64,"KEAAU 5.5","COOP","COOP","BI",18,19.613803,-154.955684,"US1HIHI0068",NA,NA,NA,NA,0.5,0,7.1,11.4,0,0,1.3,0,0,0.8,5.3,0,41.1,0.8,0,8.9,6.1,16.5,1.5,7.9,0,0,0,0,7.1,0.5,2,0,25.4,0.8
94,"KAUPULEHU LAVA FLOW","RAWS","RAWS","BI",372.1608,19.80333333,-155.9180556,NA,"KPLH1","4870E628",NA,NA,0,0,0,0,0,0,0,0,0,0,0,15,1.80000000000001,0,2,0,6.89999999999998,1.30000000000001,0,0,4,0,0,0,0,10.4,0.299999999999955,0,8.60000000000002,0
94.5,"PUU WAAWAA","RAWS","RAWS","BI",708.9648,19.795,-155.8452778,"USR0000HPUW","PWWH1","487046D0",NA,NA,0,0.299999999999955,0,0,0,0,3.5,0,0,0,1,39.2,3.5,0,0.299999999999955,0,3,7.60000000000002,0,0.299999999999955,0.5,0.300000000000068,0,0,0,1.19999999999993,37.4000000000001,0,32,0
95.11,"WAIKOLOA VILLAGE 2.7 ENE","WAIKOLOA VILLAGE 2.7 ENE","CoCoRaHS","BI",265,19.9465,-155.7883,"US1HIHI0047",NA,NA,NA,NA,0,0,0,0,0,0,0,0,0,0,0,17.5869615474187,2.49264021931918,3.87744034116317,NA,NA,NA,0,2.49264021931918,0,0,NA,NA,NA,0,0,0,7.06248062140435,NA,NA
95.6,"WAIKOLOA","RAWS","RAWS","BI",297.7896,19.92416667,-155.7936111,NA,"WKVH1","4870C0C4",NA,NA,0,0,0,0,0,0,0,0,0,0,0.699999999999989,13.2,2.79999999999995,0,0,0,0,1.30000000000001,0,0,0,0,0,0,0,0.199999999999989,6.90000000000003,0,0,0
95.8,"WAIKOLOA 95.8","BOISE CASCADE","COOP","BI",268,19.93389178,-155.7877744,"USC00519142",NA,NA,NA,NA,0,0,0,0,0,0,0,0,0,0,0,12.7,1.8,2.8,NA,NA,NA,0,1.8,0,0,NA,NA,NA,0,0,0,5.1,NA,NA
95.9,"WAIKOLOA BEACH RT 95.9","COOP","COOP","BI",24,19.91278,-155.87778,"USC00519144",NA,NA,NA,NA,0,0,0,0,0,0,0,0,0,0,0,2,0,1.5,0,0,0,0,0,0,3,0,0,0,0,0,0,1.8,0,13.7
98.1,"PUUKOHOLA HEIAU 98.1","ROSE FUJIMORI","COOP","BI",43,20.02666416,-155.81944,"USC00518422",NA,NA,NA,NA,0,0,0,0,0,0,0.3,0,0,0,0,5.8,0,1.3,0,0,0,3.3,0,0,0,0,0,0,0,0,0,3,0.8,1
98.2,"PUHO CS","PUHO CS","RAWS","BI",29.5656,19.42194444,-155.9075,NA,"PERH1","32D6803A",NA,NA,0,0,0,0,5.80000000000001,0,0,0,0,0,0,0,57.7,0,0,0,0.199999999999989,0,0,0,4.10000000000002,0,0,0,0,0,0.199999999999989,0,10.5,0
98.91,"HOLUALOA 0.95","COOP","COOP","BI",527.3,19.6225861,-155.927558,"US1HIHI0067",NA,NA,NA,NA,1,6.4,0.3,NA,0,NA,NA,0,0,NA,NA,0,NA,38.1,NA,15,1.5,14.5,1.3,0,21.8,10.4,5.1,NA,0,0,44.5,5.1,0.5,4.3
99,"PTA WEST","RAWS","RAWS","BI",1307.592,19.77166667,-155.7022222,"USR0000HPTW","PKWH1","32667176",NA,NA,0.5,0,0.800000000000011,0,0,0,3.80000000000001,0,0,0,0,7.10000000000002,12.2,0,0,0,0,0,0,14.2,0,0,0.5,0,0,4.60000000000002,19.6,0,0,0
100,"Waikii","PARKER RANCH","STATE","BI",1417,19.82,-155.6508,NA,NA,NA,NA,NA,0.983878848628204,0,0,0,0,0,0,0,0,0,0.508,28.194,12.7,0,0,0,0.254,1.27,0,10.16,0.254,0,0,0.254,0,4.826,34.3600767136309,0,0,0
101.1,"PTA KEAMUKU","RAWS","RAWS","BI",1025.9568,19.90222222,-155.6786111,NA,"PKMH1","328FB7BE",NA,NA,1.30000000000001,0,0,0,0,0,0,0,0,0,1,39.1,5.59999999999997,0.199999999999989,0,0,0,1.80000000000001,0,68.4,0,0,0,0,0,0,45.4,0,0,0
102.8,"AUHMOA","RAWS","RAWS","BI",2001.9264,19.83638889,-155.6130556,NA,"AHMH1","4870D3B2",NA,NA,0.299999999999955,0,0,0,0,0,7.60000000000002,0.200000000000045,0,0,2.29999999999995,18.8,8.10000000000002,0,1.10000000000002,0,4.29999999999995,2.80000000000007,0.5,2.79999999999995,0.200000000000045,1.10000000000002,0,0,0,0.5,7.09999999999991,0,0,0
103.3,"Mana House","Mana House","SCAN","BI",1288,19.96,-155.54,NA,NA,NA,2097,NA,0,0,0.254,0.254,4.064,1.016,38.1,6.604,0.508,15.494,0,25.908,13.97,9.906,5.588,2.794,4.064,7.366,7.366,0.254,0.254,0,0,0,0,0,0.254,0,12.7,2.794
104.1,"Silversword","Silversword","SCAN","BI",2835,19.77,-155.42,NA,NA,NA,2101,NA,0,0,0,5.842,3.556,0,1.016,11.684,0,2.032,0.254,0,6.096,20.066,0.508,6.858,0,0,0,2.794,0.254,0,0,0,0,0,2.54,0,2.032,1.016
107.4,"PTA EAST","RAWS","RAWS","BI",1959.864,19.68277778,-155.5452778,"USR0000HPTA","PTAH1","3266D18E",NA,NA,0,0,0.199999999999989,0,0,29.2,30,0.199999999999932,0,0,0.300000000000068,2.79999999999995,3.5,0,0.299999999999955,0,0,0,10.4000000000001,0,0,0,0,0,7.39999999999998,6.29999999999995,0.5,0,0,0
109,"PTA RANGE 17","RAWS","RAWS","BI",1734.312,19.74583333,-155.6261111,NA,NA,"3279630C",NA,NA,0,0,2.30000000000001,16.5,0,1.80000000000001,NA,0.300000000000011,0,0,0.799999999999955,3.5,3.60000000000002,0,1.5,0,0,0.199999999999989,5.10000000000002,0.800000000000011,0,0,0,0,0,0.5,5.79999999999995,0,0,0
113.2,"PUU MALI","RAWS","RAWS","BI",2165,19.92666,-155.44,NA,"PMLH1","3181742E",NA,NA,1,0,3,0,0,35,7,22,0,0,2,15,2,0,0,0,0,0,1,0,0,0,0,0,0,5,2,0,0,0
125.12,"Pua Akala","SCAN","SCAN","BI",1949,19.8,-155.3333333,NA,NA,NA,2098,NA,0,0.508,0,6.096,3.048,0,0,11.938,2.286,0,0,0.254,14.986,64.262,5.588,15.24,1.016,2.794,6.096,45.974,0,0,0,1.016,0.254,0.762,0.762,0,0.508,0
127.5,"Laupahoehoe","Hilo Forest Service","HIPPNET","BI",1145,19.93217,-155.29129,NA,NA,NA,NA,NA,0,0,8.382,6.604,0.254,52.578,12.192,3.556,1.778,0.254,1.27,7.874,48.26,14.986,36.576,6.35,14.986,17.272,12.7,0.254,0.254,0,0.508,5.588,2.286,0.762,0.254,0.762,0,0.508
128.1,"Hakalau","Hilo Forest Service","HIPPNET","BI",1665,19.83873,-155.30797,NA,NA,NA,NA,NA,2.2496033464917,0.261298651469339,7.0291380679532,8.19446898535789,0.350725004995395,10.4081867373785,9.81438429238642,3.45380715016316,0.654549283684721,0.0458765782811667,0.229382891405833,9.89892374115871,59.4410962193641,7.27881901411853,25.5322670118538,3.38012771379548,8.20335427175626,8.5163437013363,22.51839350922,1.13462095940341,0.0458765782811667,0,1.46037102066119,2.09802910330791,0.881946754729238,4.74391593330679,0.814787566446598,0.442478161557729,0.556157100688539,0.483701133766342
129,"HAKALAU","RAWS","RAWS","BI",1950.72,19.82111111,-155.3305556,"USR0000HHAK","HKUH1","8374D370",NA,NA,0.299999999999983,0,3.80000000000001,6.30000000000001,0,1.79999999999998,15,3,0.300000000000011,0,0,9.90000000000001,47.3,3.5,17.8,1.5,3.30000000000001,5.30000000000001,41.5,0,0,0,0.5,0,0.199999999999989,0.200000000000045,0.299999999999955,0,0.200000000000045,0
132.2,"Spencer","Hilo Forest Service","HIPPNET","BI",454,19.96358,-155.25014,NA,NA,NA,NA,NA,0,0,23.622,5.588,1.27,35.56,10.668,6.35,17.272,2.032,0.508,6.858,64.262,60.452,55.88,15.748,13.208,11.43,6.096,0,0.762,0.762,1.016,7.366,0,0,0,0,3.81,0.254
132.3,"POHAKUPUKA","COOP","COOP","BI",82,19.9522,-155.185,"USC00518067",NA,NA,NA,NA,0.281175455207013,7.65177035824494,7.06596290268541,8.82754947711421,3.77295128709732,9.23790629111946,28.6909536086442,1.32081977086968,0.716003941526115,2.56354726195552,0.477763317650829,5.142644364635,16.4074492944668,26.7117185547422,51.1332711723015,17.5561317808407,4.04045896119356,6.55462123276117,10.5126864480322,4.27812030641024,1.4988435926719,2.38348253515421,0.0562350910414026,8.36320332930871,0.763886636044475,0,0,1.23251239472283,5.10753095886953,5.21956968979877
132.4,"KAPEHU MAUKA 132.4","COOP","COOP","BI",335,19.95,-155.217,"USC00513329",NA,NA,NA,NA,0.439165246034933,0.146388415344978,0,12.5991445691228,6.55131731277646,10.3249170814649,75.9498350575481,2.06297572885487,1.75592703246685,18.5819232728149,0.746213942422947,8.03224689723471,25.6266376483862,41.7207769521435,61.3094390907107,27.4207538039839,6.31075408940018,10.2376000217801,16.4196641098672,6.68195506449323,2.34102942825864,2.19464101291367,0.0878330492069866,13.3814590626661,1.19310720850182,0,35.7156491432885,1.92504928522671,7.97740360562959,8.15239582462596
132.5,"KIHALANI 132.5","COOP","COOP","BI",302,19.97278,-155.23944,"USC00514459",NA,NA,NA,NA,0.343235459958904,0.114411819986301,15.609009905084,3.50712792453638,3.91049400599644,21.7896190742835,60.1511291345246,3.48962413363209,6.47856414275829,14.346605042668,0.733395700380036,8.30516992564389,24.1692373256118,44.7287678785285,44.6995751763537,19.9322788728427,7.6558395984597,6.65582295121527,10.9984878818054,2.86006604776688,1.2778620938438,1.16345027385749,0.36901155861821,12.6361003274348,0,0,27.9140423157536,0.572059099931507,2.63660277366829,5.88721157196072
133.1,"LAUPAHOEHOE 133.1","BARNARD EW","COOP","BI",140,19.98027372,-155.2305601,"USC00515427",NA,NA,NA,NA,0.235689417302532,0.0785631391008442,0.147044712610637,15.9833827301131,4.04120594151566,1.01063950363879,23.7056972141024,1.10714942002582,0.942363775012739,9.97247097321938,0.775107644015209,4.31071358203226,22.1384359601593,27.4393660131898,32.9033003064303,14.7160585779666,3.38682982658421,5.49427352345139,7.78453446397726,5.33561415513854,1.25637414803646,1.17781100893562,0.0471378834605065,7.18150700132268,0.640311921970433,0,0,1.03312761747465,4.281280507448,4.37519461950514
133.3,"Laupahoehoe","NWS","HydroNet-UaNet","BI",499.872,19.9792,-155.2372,NA,"LPHH1","B159741A",NA,NA,0,0,16.51,1.778,0,19.812,2.50700392753201,1.19775583410011,1.016,0.254,0.095820466728009,8.07620794113029,45.824509733496,21.6983270797481,47.752,5.56656266068076,7.00938411569619,7.53160322694525,2.02504842058414,6.13471229423007,0,2.286,0.302030301968743,14.986,0,0,0.666292275203238,4.86900040694057,2.4474910009783,1.44162356421717
137.4,"WAILEA 137.4","WAILEA 137.4","COOP","BI",61,19.8875,-155.12528,"USC00519432",NA,NA,NA,NA,0,26.4,0.392202093523145,28.1759566377722,5.76298086917424,0.272870434742766,5.443379512694,0.0654757662388872,0.327378831194436,3.85462481234816,0.0654757662388872,0,34.1136036049669,14.656077674332,44.4381625290645,20.6696906426747,3.11841247079833,11.5147989387586,8.53264574799102,9.92336583572858,1.84892855882367,2.00966058308501,0.0654757662388872,2.26982656294809,8.51198538250137,0,0.126357265277424,1.95399984367054,9.26814474191908,7.6548941330461
138.2,"KAHUNA FALLS 138.2","COOP","COOP","BI",424,19.86139,-155.16361,"USC00512595",NA,NA,NA,NA,1.5,0.5,0.599003442116588,43.0326489574367,13.2,0.0951115140623426,5.32324456350413,0.3,1.5,9.7,0.3,0,20.8,19.1,77.5,42.7,3.8,5.1,21.3,10.7,4.6,4.1,0.3,10.4,9.05771657153304,0,0,2.5,6.6,25.4
138.3,"HONOMU 2.8 SW","HONOMU 2.8 SW","CoCoRaHS","BI",385,19.8494,-155.15,"US1HIHI0014",NA,NA,NA,NA,0.49439031839565,0.16479677279855,0.59228300493622,42.5498500389506,8.70295106260832,0.0940444234407477,5.26352114929742,0.0988780636791299,0.49439031839565,5.82105196392724,0.0988780636791299,0,51.516572670106,22.1328388320286,67.1081793575516,31.2142813287225,4.70926274830305,17.3890446514964,12.8855535121669,14.9857459542599,2.79215481206465,3.034883874176,0.0988780636791299,3.42777287420984,8.95609475947553,0,0,2.95082794856574,13.9962654676745,11.560019118872
140.1,"PAPAIKOU MAUKA NO 2 140","MAU KEA SUGAR","COOP","BI",427,19.78695738,-155.1388973,"USC00517724",NA,NA,NA,NA,0,0,0,28.7,5.1,0,7.6,0,0,2.5,0,0,47.8,18.5,63.5,19.8,3.8,15.2,11.7,7.6,2.5,2.5,0,0,3,0,0,3,15.2,1.8
140.5,"KAUKU 140.5","COOP","COOP","BI",457,19.835,-155.149,"USC00513473",NA,NA,NA,NA,0.498185816927372,0.16606193897579,54.8290428374789,19.598287779584,6.68490362292077,0.121061774892016,4.55429945835805,0.0996371633854743,1.14849265020787,4.34947829944401,0.0996371633854743,4.29202509965131,58.7774772772217,26.0051924244771,73.6367505625177,26.2359457201232,8.04883659444071,15.5746358115296,13.1330696782133,16.2168276439386,2.65564652189095,2.61964594957126,0.229698530041575,13.5988749298723,1.48351338663251,0.96849419913613,1.51573844105278,8.29664594769208,11.6507351621496,11.3289995784536
144.1,"PAPAIKOU 144.1","MAU KEA SUGAR","COOP","BI",61,19.78362447,-155.0922318,"USC00517711",NA,NA,NA,NA,0.259089835852065,7.05074319035345,9.88585289728317,18.2320659865975,7.6,0.5,5.8,0.737241830932706,0.259089835852065,2.71566077358304,0,0,60.6446513748367,13.9873241165123,33.5020974129763,12.8527440126574,5.63072787388382,18.5,6.4,7.9,2.5,1.37035696612411,0.127424984559323,2.02317724740771,7.6,0,0.3,0,4.85756138209009,4.88519273728303
144.11,"PEPEEKEO 0.2 SSE","PEPEEKEO 0.2 SSE","CoCoRaHS","BI",178,19.8313,-155.1077,"US1HIHI0002",NA,NA,NA,NA,0.329444496653591,8.96534027952381,29.4996625048774,12.4543899355942,4.42064915218565,0.656883290648599,3.14836185526959,0.0658888993307183,0.569614735175889,2.87625950072952,0.0658888993307183,7.36522064801713,49.4907163739838,17.7199042003343,46.293253845083,17.1266377385773,5.41072747901054,9.0973300487825,8.96926553091187,7.73963984758917,1.75614821210731,1.64633337988945,0.145945645504818,11.5707310663271,0.895022106843558,0.640453969392794,0.400283730870496,4.72642286107094,6.86495866786492,6.83611745634051
144.12,"PAPAIKOU 1.1 N","PAPAIKOU 1.1 N","CoCoRaHS","BI",108,19.8095,-155.0988,"US1HIHI0011",NA,NA,NA,NA,0.389326025874887,10.5949267239186,27.7365112256951,14.866347340145,5.22416912010925,1.08678201162878,3.18000442562038,0.0778652051749774,1.09000183287185,3.39906324791753,0.0778652051749774,10.0096543856709,40.7692960972327,18.6868891635467,54.2145826285062,19.3649284556743,7.33088064488692,10.7867101987734,12.4561859485877,8.75989997151577,2.07535475994291,2.44606213726816,0.0778652051749774,3.70029255129964,1.2734445141228,0,0.100096543856709,9.01363034804316,8.07304336509027,7.92788674050553
147.1,"MIDDLE PEN 147.1","KAHUA RANCH","COOP","BI",421,20.10027112,-155.8322151,"USC00516270",NA,NA,NA,NA,0,0,0,0,0,0,0,0,0,0,0,0,0,0,0,0,0,0,0,0,0,0,0,0,0,0,0,0,0,0
147.2,"KOHALA RANCH","KOHALA RANCH","RAWS","BI",328.8792,20.08305556,-155.8325,NA,"KHRH1","4870B654",NA,NA,0,0,0,0,0,0,0,0,0,0,2.80000000000001,6.59999999999997,0.5,0,0,0,7.60000000000002,0,0,0.5,0,0,0,0.300000000000011,0,0,12.2,0,0.300000000000011,0
160.3,"Upolu Airport","NWS","HydroNet-UaNet","BI",34,20.265,-155.8582,NA,"UPLH1","B15017A0",NA,NA,NA,NA,NA,NA,NA,NA,NA,NA,NA,NA,NA,NA,NA,5.77074829958815,NA,NA,NA,NA,NA,NA,NA,NA,NA,NA,NA,NA,NA,NA,NA,NA
168,"HAWI 168","KOHALA SUGAR","COOP","BI",183,20.23692665,-155.8272119,"USC00511339",NA,NA,NA,NA,NA,NA,NA,NA,NA,NA,NA,NA,NA,NA,NA,NA,NA,12.2,NA,NA,NA,NA,NA,NA,NA,NA,NA,NA,NA,NA,NA,NA,NA,NA
175.1,"KOHALA MISSION 175.1","BOND ESTATE","COOP","BI",163,20.2252605,-155.7922137,"USC00514680",NA,NA,NA,NA,NA,NA,NA,NA,NA,NA,NA,NA,NA,NA,NA,NA,NA,14.2595589452404,NA,NA,NA,NA,NA,NA,NA,NA,NA,NA,NA,NA,NA,NA,NA,NA
176.3,"Kahua Ranch HQ","KAHUA RANCH","HydroNet-UaNet","BI",987.552,20.1249008,-155.7884,NA,"KASH1","15D293C2",NA,NA,0,0,1.778,0.254,0,33.02,2.794,0,1.27,0.254,28.702,10.922,2.286,1.778,0.508,0.508,4.318,3.048,0,0,0,0,0,0,0,2.54,38.862,0.254,0,0
178.12,"PONOHOLO RCH 178.11","PONOHOLO RCH 178.11","COOP","BI",762,20.12554592,-155.7774941,"USC00518101",NA,NA,NA,NA,0,0,0,0,0,0,37.8,0,0,3.8,0,48.8,1.3,2.5,0,0,3.8,0,0,0,0,0,7.1,0,0,0,0,50.8,0,0
179.3,"POLOLU LOOKOUT 179.3","POLOLU LOOKOUT 179.3","COOP","BI",149,20.20694,-155.73778,"USC00518086",NA,NA,NA,NA,NA,NA,NA,NA,NA,NA,NA,NA,NA,NA,NA,NA,NA,17.2659127568067,NA,NA,NA,NA,NA,NA,NA,NA,NA,NA,NA,NA,NA,NA,NA,NA
185.7,"KawainuiRainGagenearKamuela","USGS","USGS","BI",1237.488,20.08533333,-155.6811667,NA,"KWSH1","DDF6A592",NA,NA,0.254,0,25.4,18.288,0,66.04,22.86,2.032,8.636,1.016,32.766,15.494,11.176,4.572,14.224,10.668,35.052,21.336,0.762,0.254,3.81,3.81,1.016,0,0,0.508,2.794,2.032,0,0
189,"Waimea Plain","SCAN","SCAN","BI",927,20.01666667,-155.6,NA,NA,NA,2099,NA,0,0,0,0.762,0.762,0.254,34.798,2.54,0.254,1.27,0,11.176,57.658,2.54,0,0.508,0,4.826,0.508,0,0.254,0.254,0,0,0,0,4.572,3.048,0.508,0.254
191.1,"LALAMILO FLD OF 191.1","DOWALD","COOP","BI",799,20.01083015,-155.6763867,"USC00515260",NA,NA,NA,NA,NA,NA,NA,NA,0,0,1.5,NA,NA,NA,1,11.2,12.7,2.5,NA,NA,NA,0,0,NA,NA,NA,NA,NA,NA,0,1.5,30.5,NA,NA
192.7,"Kamuela Upper","NWS","HydroNet-UaNet","BI",948.5376,20.0319996,-155.6667,"USC00513080","KUUH1","817075F6",NA,NA,0,0,5.08,7.366,0,24.384,4.064,0,1.016,0.254,13.97,25.146,4.826,2.032,5.842,1.778,13.208,2.54,0,1.016,1.27,0,0,0,0,2.54,13.462,0.762,1.524,0.508
192.9,"PUUKAPU HMSTD 192.9","COOP","COOP","BI",916,20.0375,-155.6347,"USC00518386",NA,NA,NA,NA,NA,NA,NA,NA,NA,NA,NA,NA,NA,NA,NA,NA,NA,NA,NA,NA,NA,NA,NA,NA,0.3,1.5,NA,NA,NA,NA,NA,21.1,2,NA
199,"KUKUIHAELE HIC 199","HONOKAA SUGAR","COOP","BI",299,20.11526922,-155.5822202,"USC00514928",NA,NA,NA,NA,0,0,0,2.3106143844544,1.28367465803022,2.3106143844544,80.2296661268888,3.85102397409066,2.56734931606044,28.7543123398769,1.28367465803022,15.6608308279687,1.02693972642418,56.0965825559206,26.0585955580135,13.7353188409234,7.18857808496923,5.2630660979239,10.7828671274538,1.02693972642418,0,0,0,20.1536921310745,0,0,0,0,0,0
201.3,"Kamuela 1","NWS","HydroNet-UaNet","BI",877.824,20.0394993,-155.6084,NA,"KMUH1","81706680",NA,NA,0.254,0,2.54,3.302,0.254,37.592,10.668,0.254,4.064,0.254,16.51,51.308,1.778,0.508,2.032,1.524,8.128,2.794,0.254,0,1.27,1.016,0.254,0,0,30.988,6.858,2.032,0.254,0.254
206.1,"KUKUIHAELE 206.1","COOP","COOP","BI",226,20.12167,-155.57417,"USC00514927",NA,NA,NA,NA,0,0,0.110240968877755,0.84429098042282,1.84874979133899,6.28557225129638,50.4351862091627,3.82860178956899,2.04387529242837,10.6795621788121,5.12339924680135,13.9162475528244,4.49590948192689,15.860463478047,9.55687678959183,4.67481137500427,7.94662567586364,6.29438841858208,2.83549398698282,0.245636114524598,0.505734490111393,0.505734490111393,0.134862530696372,4.15893945631616,0,0.0674312653481858,14.7411203483795,0.269725061392743,0.509182029530236,0.565757810589151
214,"HAINA 214","HONOKAA SUGAR","COOP","BI",140,20.09193527,-155.4738903,"USC00510840",NA,NA,NA,NA,0,0,0,1.68641203683757,0.93689557602087,1.68641203683757,58.5559735013044,2.81068672806261,1.87379115204174,20.9864609028675,0.93689557602087,11.4301260274546,0.749516460816696,40.942336672112,19.0189801932237,10.0247826634233,5.24661522571687,3.84127186168557,7.86992283857531,0.749516460816696,0,0,0,14.7092605435277,0,0,0,0,0,0
215,"HONOKAA TOWN 215","HONOKAA SUGAR","COOP","BI",326,20.08026947,-155.4672231,"USC00511856",NA,NA,NA,NA,0,0,0,0,4.3,13,45.2,4.1,1.3,16.3,1.8,30.5,9.9,13,8.1,1.5,6.4,8.4,1.8,0,0,0,0,0,0,0,50.8,0,1.8,2
215.5,"Honokaa","NWS","HydroNet-UaNet","BI",591.9216,20.0656,-155.49,NA,"HNKH1","B15047DC",NA,NA,0,0,0,0.515926174854741,1.60276274590133,4.49494529384433,31.7488466919004,2.1147983725418,0.971153217293115,11.40949243884,0.837566761480252,12.8322239728415,3.25947662046511,16.5045601418519,8.29773573927497,3.52601207451138,3.56400537522159,3.74622368371283,2.95859659143863,0.229300522157663,0,0,0,4.50002274734413,0,0,15.5487824034362,0,0.550941108783173,0.612156787536859
216.6,"HONOKAA 2.5 SSW","HONOKAA 2.5 SSW","CoCoRaHS","BI",757,20.0417,-155.4777,"US1HIHI0033",NA,NA,NA,NA,0.3,0,0.3,1.3,4.6,3,95,5.1,2.3,15.5,0.8,20.8,18.3,4.8,3.3,6.1,4.3,4.8,5.6,0.5,0,0,0,0,0,0,2.3,0.5,12.2,0.5
216.8,"KALOPA 216.8","COOP","COOP","BI",396,20.06111,-155.43528,"USC00512982",NA,NA,NA,NA,0,0,0,0.95517105138442,2.17665898638819,6.57815999828743,54.498611237664,3.90312970821561,1.46679750455986,18.1026233540655,2.09233286179201,20.0769465347603,8.81776979665533,24.00408570195,12.5785855367802,4.98874910952921,5.90720848089695,5.23624337955393,3.90064453430022,0.507926083417789,0,0,0,5.05754373707741,0,0,17.475166566678,0,6.59938149229339,0.813107107931218
216.9,"HONOKAA 2.7 ESE","HONOKAA 2.7 ESE","CoCoRaHS","BI",333,20.0606,-155.43,"US1HIHI0034",NA,NA,NA,NA,0,0,0,1.5,1.5,6.1,75.2,6.1,1.5,21.1,4.6,22.6,20.6,21.8,13,4.1,7.6,4.1,2.3,1,0,0,0,0,0,0,0,0.170169339486103,23.9,0.5
217,"PAAUHAU 217","PAAUHAU SUGAR","COOP","BI",122,20.08360173,-155.4372236,"USC00517204",NA,NA,NA,NA,0,0,0,1.57322723684211,0.874015131578951,1.57322723684211,54.6259457236844,2.62204539473685,1.7480302631579,19.5779389473685,0.874015131578951,10.6629846052632,0.699212105263161,38.1944612500002,17.7425071710527,9.35196190789478,4.89448473684213,3.5834620394737,7.34172710526319,0.699212105263161,0,0,0,13.7220375657895,0,0,0,0,0,0
217.2,"PAAUHAU MAUKA 217.2","COOP","COOP","BI",341,20.07306,-155.44722,"USC00517209",NA,NA,NA,NA,0,0,0.3,1,1,5.8,57.4,5.1,1.18632248502576,9.91549171505724,1.56865034519213,14.2210362353502,8.9627172685545,10.0776153294076,5.95587795773007,3.04030044138295,4.16810925326964,4.18079241842266,2.34219260083136,0.625771957247238,0.0572774225360108,0,0,0,0,0,13.0353066879333,0.0952837952114195,8.07295590730997,0.701985947168298
221,"PAAUILO 221","HAMAKUA MILL","COOP","BI",244,20.03860487,-155.3688913,"USC00517312",NA,NA,NA,NA,0,0,0,1.8,1,1.8,62.5,3,2,22.4,1,12.2,0.8,43.7,20.3,10.7,5.6,4.1,8.4,0.8,0,0,0,15.7,0,0,0,0,0,0
221.7,"PAAUILO 2.4 SW","PAAUILO 2.4 SW","CoCoRaHS","BI",613,20.019,-155.3988,"US1HIHI0050",NA,NA,NA,NA,0.5,0.3,0,0.5,5.3,1.3,117.6,1.3,3,9.4,1.3,11.4,13.5,14,7.6,9.9,5.8,6.6,7.6,2.3,0.3,0,0,0,0,0,0,0,16.5,0.5
222,"KUKAIAU 222","HAMAKUA MILL","COOP","BI",256,20.02693892,-155.3422253,"USC00514815",NA,NA,NA,NA,0,0,0,2.57088793293571,1.42827107385317,2.57088793293571,89.2669421158231,4.28481322155951,2.85654214770634,31.993272054311,1.42827107385317,17.4249071010087,1.14261685908254,62.4154459273835,28.9939027992194,15.2825004902289,7.99831801357775,5.855911402798,11.9974770203666,1.14261685908254,0,0,0,22.4238558594948,0,0,0,0,0,0
223,"OOKALA 223","LAUPAHOEHOE SUG","COOP","BI",131,20.01527222,-155.2838932,"USC00517131",NA,NA,NA,NA,0,0,13.6844300728955,3.8439416352231,0.724757143783055,2.15102245094737,46.0027044798892,2.17427143134916,1.44951428756611,17.0810196128783,0.724757143783055,10.6760329371186,17.6500741564734,40.7007894994568,24.4468553283815,9.30674402406478,11.6767763344259,8.05026184233773,9.0505685802602,2.41380149799182,0,0.141076598689644,0.141076598689644,11.8019169534629,0,0,0,5.64306394758578,0.282153197379289,0.141076598689644
249.1,"MAKENA GOLF CRS 249.1","MAKE GC","COOP","MA",30,20.6420893,-156.4388486,"USC00515842",NA,NA,NA,NA,NA,NA,NA,0,0,0,0,NA,NA,NA,NA,NA,0,0,NA,NA,NA,NA,NA,0,0,NA,NA,NA,0,15.7,14.5,0,17,0
250,"ULUPALAKUA RANCH 250","ULUPALAKUA RANCH","COOP","MA",579,20.648174,-156.398497,"USC00518760",NA,NA,NA,NA,NA,NA,NA,NA,17.5,0,0,NA,NA,NA,0,1.3,11.4,0,NA,NA,NA,0,0,NA,NA,NA,NA,NA,0,0,13.2,23.4,7.9,59.2
250.2,"Ulupalakua Ranch","NWS","HydroNet-UaNet","MA",581.5584,20.6487999,-156.3981,NA,"ULUH1","8170531A",NA,NA,0,0,0,18.034,0,0,0,0,0,0,1.016,11.43,0,0,0.254,0,0,0,0,0,0,0,0,0,0,3.81,33.02,7.874,59.182,0
255,"KepuniGulchRainGage","USGS","USGS","MA",225.552,20.6195,-156.2518889,NA,"KPNH1","F000D4EA",NA,NA,0,0,0,0,0,0,0,0,0,0,0,44.704,7.874,0,0,0,0,0,0,0,0,0,3.048,9.652,0.508,0,4.572,0.254,0.508,0
258.6,"OHE'O 258.6","HALEAKALA TL PK","COOP","MA",24,20.662925,-156.04248,"USC00517000",NA,NA,NA,NA,0,0,15.6502936439948,3.6585102024923,0,1.21950340083077,14.1772265104706,0,0,0,0,104.059489009734,59.2955532649863,1,11.9,6.4,0,4.1,0,13.2,1.3,0.5,1.8,2.5,1.5,0,0.3,1,7.4,10.2
266,"KAUPO GAP","RAWS","RAWS","MA",1228.344,20.68416667,-156.1519444,"USR0000HKAU","KPGH1","FA45A6E0",NA,NA,0.332767808035884,0.227574296105716,4.66007482482862,0.94674160737151,0,0.875922639932104,7.2839801572516,0,0,0,26.8034223663118,155.566942852901,35.3875514294776,0.999338363336594,7.05552291024303,0.210387023860336,0.105193511930168,0.0525967559650839,0.0525967559650839,0.0525967559650839,0,0,0.0525967559650839,1.60412506277201,0.0525967559650839,0.157790267895252,3.82520138940621,0.0525967559650839,2.63502372600985,0.210387023860336
267,"KULA HOSPITAL 267","KULA SATORIUM","COOP","MA",916,20.70013977,-156.3555187,"USC00515004",NA,NA,NA,NA,0,0,0,2.5,5.1,1.3,0,0,0,0,0,1.8,9.1,0,0,0,0,0,0,0,0,0,0,0,0,0,6.4,47,0,81.3
267.8,"KULA 1","KULA 1","RAWS","MA",1998.5736,20.68305556,-156.3216667,NA,"KLFH1","AA10F12E",NA,NA,1.5,0.200000000000045,0.5,1.60000000000002,0,0,8.10000000000002,0.299999999999955,0,0,1.5,36.8,1.30000000000007,0,1.19999999999993,0,1.30000000000007,0,0,0.299999999999955,0,0,0,0,0,0,8.10000000000002,0,10.7,0
277,"HORSHOE PU'U HN-163","HaleNet","HaleNet","MA",1930,20.73630556,-156.1071389,NA,NA,NA,NA,NA,1.29186902422647,0.645934512113233,50.4453852313957,10.5596406839743,0,5.45768376433112,22.9572033988364,0,0,1.58207669165172,48.7731417630697,168.779438785119,143.974851133289,23.0118625760274,44.3542296945808,4.19234295892129,14.8846247369787,9.81542740596696,5.86023567683765,3.75080008796868,0,0.263679448608621,0.586646704665237,6.92741621090158,0.322967256056617,0.96890176816985,7.7512141453588,10.8701452004014,9.24747481074589,1.55554847283509
278,"TREE LINE HN-162","HaleNet","HaleNet","MA",2195,20.73422222,-156.1228889,NA,NA,NA,NA,NA,1.33341990900016,0.46399227155305,31.6485048951904,30.4278703856178,0.101358841473515,18.2918563747661,27.0986490250078,0.810870731788118,3.95299481746707,2.63532987831138,65.9495166341304,190.437242215676,134.830998144258,15.2533226174201,39.164814134075,9.03669186098728,15.3637419681597,3.98227327029657,0.231996135776525,0.33335497725004,1.52038262210272,1.82445914652327,2.86732601408791,4.610644262701,0.33335497725004,0.695988407329575,19.3527096990346,0.33335497725004,13.7644499350063,4.88097936057317
278.1,"Lakes - Subalpine","Lakes - Subalpine","Little HaleNet","MA",2228,20.73492113,-156.1234398,NA,NA,NA,NA,NA,1.04850592320248,0.286830210615002,22.4044796225339,23.5183586153069,0.0626578924477126,12.6529224012798,27.9625084037235,2.74340246139803,2.66787173764243,1.62910520364053,40.7685966035804,125.123335881574,118.700735200981,12.0451107015335,37.5142198880081,6.70736147795518,11.9638936544267,6.42286992774839,31.1596757237667,0.206072997755214,0.939868386715689,1.12784206405883,2.14621019591742,2.85020278573795,0.355548952542961,0.579721270710293,12.1876498324505,0.206072997755214,8.65836783922105,3.0173182266908
278.11,"Puu Alaea - Cloud forest","Puu Alaea - Cloud forest","Little HaleNet","MA",1993,20.745673,-156.1425145,NA,NA,NA,NA,NA,0.882767144679521,0.307177903935287,20.9523347530127,20.1442351937968,0.0671028342022364,12.1098010565539,17.9401828808871,0.536822673617891,2.61701053388722,1.74467368925815,43.6607149024493,126.075619102935,89.2624854651711,10.0981933470245,25.9283747840287,5.98258254404949,10.171294531664,2.63639381745039,0.153588951967644,0.22069178616988,1.00654251303355,1.20785101564026,1.89826264122579,3.0523957557897,0.22069178616988,0.460766855902931,12.8121202987276,0.22069178616988,9.11251143409187,3.2313663417578
278.12,"Puu Alaea - Forest line","Puu Alaea - Forest line","Little HaleNet","MA",2033,20.74567736,-156.1424321,NA,NA,NA,NA,NA,1.00357542120391,0.349215754329312,23.8196995682183,22.9010101262713,0.0762859781363223,13.7670491808332,20.3953292775727,0.610287825090578,2.97515314731657,1.98343543154438,49.6357625137904,143.32929505516,101.478217657204,11.4801493267149,29.4767196557379,6.80130975956441,11.5632545403687,2.99718906820858,0.174607877164656,0.250893855300978,1.14428967204483,1.3731476064538,2.15804330870904,3.47012162240111,0.250893855300978,0.523823631493968,14.5654820784916,0.250893855300978,10.3595750655336,3.67358465597519
278.2,"Lakes - Forest line","Lakes - Forest line","Little HaleNet","MA",2182,20.735063,-156.1222481,NA,NA,NA,NA,NA,0.880853596997013,0.274247569667598,36.5136695841078,20.9010188944445,0.0419240228665675,8.96550393066592,13.5138106836155,0.33539218293254,1.63503689179613,1.09002459453076,39.7923651438366,111.948079187966,71.9880123966062,16.7651363725532,32.2539229563237,7.11333310947374,10.9652940014305,2.09996854638566,0.137123784833799,0.13788221615148,0.628860342998513,0.836963594695988,2.17395698498894,1.94821930969536,0.179047807700367,0.987689636185808,19.1605390584393,0.179047807700367,9.68631129106063,2.67751912971797
278.3,"Lakes - Cloud forest","Lakes - Cloud forest","Little HaleNet","MA",2143,20.73575551,-156.1214124,NA,NA,NA,NA,NA,1.21511364344943,0.332407566384782,25.9645541920973,27.2554286939182,0.072614239269586,14.6634733281646,32.4057544307,3.17932945017209,3.0917968851154,1.88797022100924,47.2467316216873,145.005449353334,137.562296634101,13.9590802745191,43.4752340454618,7.77316204234415,13.8649578286309,7.44346474979429,36.1109520314054,0.238818022461977,1.08921358904379,1.30705630685255,2.48724326020419,3.3031003591946,0.412045724862994,0.671839051978239,14.1242688908826,0.238818022461977,10.034183554545,3.49677046428342
278.4,"Lakes - Alpine","Lakes - Alpine","Little HaleNet","MA",2304,20.73450891,-156.1273482,NA,NA,NA,NA,NA,1.0301447442325,0.281807310205424,22.0121378617719,23.1065108783891,0.0615606427787738,12.4313475226243,27.4728358039902,2.69536066929584,2.62115262107875,1.60057671224812,40.054666923234,122.932206663701,116.622076993466,11.8341796725236,36.8572800557761,6.58990380624557,11.7543848784574,6.3103942024,30.6140151128442,0.202464297881486,0.923409641681606,1.10809157001793,2.10862628852844,2.80029073250908,0.349322666352521,0.569569333779213,11.9742226930849,0.202464297881486,8.50674462187356,2.96447968878303
278.5,"Frisbee - Alpine","Frisbee - Alpine","Little HaleNet","MA",2320,20.73857613,-156.1365744,NA,NA,NA,NA,NA,1.14415254570928,0.57207627285464,22.0249365049036,5.14868645569176,0,3.43245763712784,19.1645551406304,0,0,0,43.1962631381069,146.444769044416,99.2552333402801,5.43472459211908,23.1690890506129,1.14415254570928,0.57207627285464,0.28603813642732,0.28603813642732,0.28603813642732,0,0,0.28603813642732,5.43472459211908,0.28603813642732,0.85811440928196,6.86491527425568,0.28603813642732,7.72302968353764,1.14415254570928
278.6,"Frisbee - Subalpine","Frisbee - Subalpine","Little HaleNet","MA",2191,20.74071537,-156.1350318,NA,NA,NA,NA,NA,0.962845425338659,0.335042872122959,22.8529797338871,21.9715751998616,0.0731899202731853,13.2083150345351,19.5675871272622,0.585519362185483,2.85440689065423,1.90293792710282,47.6213006614563,137.512291697342,97.3597355797607,11.0142287543989,28.2804102958901,6.52527936610074,11.0939611522812,2.87554848616934,0.167521436061479,0.240711356334665,1.09784880409778,1.31741856491734,2.0704593631643,3.32928712571448,0.240711356334665,0.502564308184438,13.9743436226287,0.240711356334665,9.93913287387566,3.52449263490015
278.7,"Frisbee - Forest line","Frisbee - Forest line","Little HaleNet","MA",2135,20.74195056,-156.1342138,NA,NA,NA,NA,NA,1.2607009494477,0.438688138173927,29.9225322050911,28.7684658267806,0.0958311682749625,17.2942975751128,25.6208058121723,0.7666493461997,3.73741556272354,2.49161037514902,62.3529149933035,180.051617986961,127.477898168556,14.4214723180733,37.0289344193115,8.54386973834485,14.5258698745934,3.76509729526058,0.219344069086964,0.315175237361926,1.43746752412444,1.72496102894932,2.71095444423599,4.35919964920223,0.315175237361926,0.658032207260891,18.297296543482,0.315175237361926,13.0137963176952,4.61479183907139
278.71,"Frisbee - Cloud forest","Frisbee - Cloud forest","Little HaleNet","MA",2087,20.73622225,-156.1341472,NA,NA,NA,NA,NA,1.23312426242753,0.42909223401348,29.2680040191384,28.1391817935582,0.0937349486001425,16.9160005399027,25.0603739798678,0.74987958880114,3.65566299540556,2.43710866360371,60.9890016700692,176.11315254924,124.689435051015,14.1060157233433,36.2189601461746,8.35698035603836,14.2081296782344,3.68273921521201,0.21454611700674,0.308281065606883,1.40602422900214,1.68722907480257,2.65165478061045,4.26384612032835,0.308281065606883,0.64363835102022,17.8970598177811,0.308281065606883,12.7291313555925,4.51384746343252
278.8,"Puu Alaea - Alpine","Puu Alaea - Alpine","Little HaleNet","MA",2320,20.74402239,-156.1421477,NA,NA,NA,NA,NA,0.489651683525142,0.367615242915958,12.016263870466,11.1735679509798,0.0372204787349239,6.71704255219969,12.1205621444431,0.297763829879391,1.45159867066203,0.967732447108021,51.6342192350939,102.477511587368,56.8094772957663,5.60124762541772,16.7486683430538,3.31840806737936,5.64179525832653,1.46235015533854,0.0851924421463616,0.122412920881285,0.558307181023858,0.66996861722863,1.05292488925438,1.69309735825072,0.122412920881285,0.255577326439085,28.8003901730683,0.122412920881285,5.05451136433613,1.79236843924748
278.9,"Puu Alaea - Subalpine","Puu Alaea - Subalpine","Little HaleNet","MA",2075,20.74489428,-156.1421289,NA,NA,NA,NA,NA,1.05150672231472,0.327379219506023,43.587684894472,24.9503004195712,0.0500462188279188,10.7024455416582,16.1319234278593,0.40036975062335,1.95180253428883,1.30120168952589,47.5015820883207,133.636461516052,85.9346879199538,20.0131482193658,38.5026716417105,8.49144240107007,13.0896671069626,2.50680822636351,0.163689609753012,0.16459497658318,0.750693282418781,0.999113642898038,2.59513089522716,2.32565968700355,0.21373582858093,1.17904075722754,22.8726268381136,0.21373582858093,11.5628992964398,3.19625119727388
279,"POHAKAU PALAHA HN-161","HaleNet","HaleNet","MA",2460,20.73061111,-156.1413056,NA,NA,NA,NA,NA,1.016,0.508,19.558,4.572,0,3.048,17.018,0,0,0,38.358,130.042,88.138,4.826,20.574,1.016,0.508,0.254,0.254,0.254,0,0,0.254,4.826,0.254,0.762,6.096,0.254,6.858,1.016
280.1,"OheoGulchRGatdamnearKipahulu","OheoGulchRGatdamnearKipahulu","USGS","MA",128.016,20.66836111,-156.0522222,NA,NA,NA,NA,NA,0.492372276636208,0.171331573455721,17.5295639830309,16.8534754661701,0.0561409236467873,10.1315454790599,15.0094768618837,0.449127389174298,2.1894960222247,0.97310934321098,24.3522040049279,105.479921823383,74.6805770665293,6.05384787808525,19.4774091440352,6.03430948616457,5.67314209084088,3.19853794816741,0.0856657867278603,5.68661204272202,1.1093315596218,0.884430438820651,1.81743680815197,2.75620128798775,0.755311134336662,0.256997360183581,7.27253290514622,0.544571779277459,8.20153759643661,6.10141000493566
307.2,"POHAKEA BRIDGE 307.2","WAILUKU SUGAR","COOP","MA",50,20.81346495,-156.5071787,"USC00518060",NA,NA,NA,NA,NA,NA,NA,NA,0.319668393305194,0,5.34191584480634,NA,NA,NA,1.0722663541383,21.6405613554119,5.18724004372539,0,NA,NA,1.88891975927259,0.115178034101987,0,0,0,NA,NA,NA,0,0,6.81184250862957,5.45548143312942,NA,NA
311.2,"Kealia Pond NWR","Kealia Pond NWR","RAWS","MA",3.6576,20.7975,-156.4772222,NA,"KPDH1","32B2C438",NA,NA,0,0,0,0,0,0.5,1,0,0,0,8.39999999999998,10.9,0.200000000000045,0,0,0,0,0,0,0,0,0,0,0,0,0,10.4,0,0,0
311.5,"Kihei 2","NWS","HydroNet-UaNet","MA",54.5592,20.7061005,-156.437,NA,"KHIH1","93202508",NA,NA,0,0,0,0,0,0,0,0,0,0,0.508,1.27,0.254,0,0,0,0,0,0,0,0,0,0,0,0,0.762,19.558,0,0.762,0
324.6,"KULA AG HN-119","HaleNet","HaleNet","MA",965,20.75788889,-156.3200278,NA,NA,NA,NA,NA,0,0.254,1.016,0,0,0,0,0,0,0,4.572,24.896,0.254,0,0,0,0,0,0,0,0,0,0,0,0,7.366,37.332,1.27,6.096,0
324.7,"Kula Branch Stn","NWS","HydroNet-UaNet","MA",944.88,20.7577991,-156.3217,"USC00515000","KBSH1","93220610",NA,NA,0,0,1.016,0,0,0,0,0,0,0,5.334,25.654,0.254,0,0,0,0,0,0,0,0,0,0,0,0,5.842,35.56,1.016,7.366,0
328.4,"PU'U PAHU HN-106","HaleNet","HaleNet","MA",960,20.75763889,-156.2775,NA,NA,NA,NA,NA,0.381496770031103,0.208799527272278,0.656794328897974,0.406929888033182,0,0,2.62165690218475,0.0762993540062092,0,0,9.40201578297182,28.2598353846771,2.32644349662277,0,0.917823973134091,0,0.330630534026974,0,0,0.0762993540062092,0,0,0,0,0,3.09955126709483,23.3844177543534,0.534405390878419,5.28648950243828,0
337,"south rim","south rim","CraterNet","MA",2898,20.703948,-156.241101,NA,NA,NA,NA,NA,0,0.2,2,0,0,0,3.6,0,0,0,16,86.6,11,0,2.2,0,0,0,0,0,0,0,0,0,0,0,1,0,0.8,0
337.1,"Sliding Sands","Sliding Sands","CraterNet","MA",2697,20.714563,-156.2394,NA,NA,NA,NA,NA,0,0.147200252985767,1.76815571693391,0,0,0,3.7056409558228,0,0,0,12.1617492775393,64.1003912701529,11.9012174204075,0,2.10633310754451,0,0,0,0,0,0,0,0,0,0,0,10.4605857140787,0,0.565400715168498,0
337.11,"Pohaku Palaha","Pohaku Palaha","CraterNet","MA",2461,20.7300298,-156.140176,NA,NA,NA,NA,NA,0.4,0.4,23.8,5.8,0,4.8,17.4,0.2,0,0,76.2,233.8,111,4.6,24,0.8,0.6,0,0,0,0,0,0.4,6.4,0,0.8,5.6,0,7.6,0.2
337.12,"Puu Alaea","Puu Alaea","CraterNet","MA",2282,20.73782363,-156.1453106,NA,NA,NA,NA,NA,0.6,0.2,12,8.2,0,7.6,13.8,2,0,0,84.6,204.6,95.2,3,17.6,2.8,1.4,0.2,0,0,0,0,0.2,2.4,0,0.8,5.4,0,3.4,0.8
337.13,"Paliku","Paliku","CraterNet","MA",1927,20.71236611,-156.1437572,NA,NA,NA,NA,NA,0.2,0.2,12.2,3.4,0,0,8.2,0,0,0,28.6,150,61.2,7.2,34.8,2.2,0.4,0.6,0,0.2,0,0,1,1.6,0.2,1.4,4.6,0,9.4,1
337.2,"Puu o Pele","Puu o Pele","CraterNet","MA",2424,20.709651,-156.224485,NA,NA,NA,NA,NA,0,0,0.2,0,0,0,3.8,0,0,0,12.2,108.2,13.4,0,2.2,0,0,0,0,0,0,0,0,0.8,0,0,0.8,0,1,0
337.3,"Lava lake","Lava lake","CraterNet","MA",2270,20.718443,-156.212261,NA,NA,NA,NA,NA,0.2,0.2,0.8,0,0,0.4,2.4,0,0,0,18.8,103.6,14.8,0,2.4,0,0,0,0,0,0,0,0,0.2,0,0,3.4,0,1,0
337.4,"Silversword loop","Silversword loop","CraterNet","MA",2186,20.731704,-156.205387,NA,NA,NA,NA,NA,0,0,0.4,0,0,1,2.4,1.2,0,0,37.8,95.8,12.4,0,1.6,0,0,0,0,0,0,0,0,0,0,0,18.4,0,0.6,0
337.5,"Leleiwi","Leleiwi","CraterNet","MA",2722,20.74337371,-156.2288651,NA,NA,NA,NA,NA,0.6,1.4,0.2,1.8,0.2,2.8,8.2,0,0,0,33.6,74,11,0,10.6,0.2,0.2,0,0,0,0,0,0,0.2,0.2,0,17.2,0.2,1,0
337.6,"Puu Nole","Puu Nole","CraterNet","MA",2261,20.717807,-156.188007,NA,NA,NA,NA,NA,0,0,0.2,0,0,0,1.6,0,0,0,17.4,93,13.4,0,2.4,0,0,0,0,0,0,0,0,0,0,1.2,18.4,0,1.6,0
337.7,"Hanakauhi","Hanakauhi","CraterNet","MA",2645,20.73567887,-156.1754875,NA,NA,NA,NA,NA,0.4,0.2,0.8,0.6,0,1.4,5.6,4.6,0,0,59.4,106.4,29.4,0,3.4,0.2,0,0,0,0,0,0,0,1,0,1.8,13.4,0,1.8,0
337.8,"Aloha Park","Aloha Park","CraterNet","MA",2455,20.73555054,-156.1587809,NA,NA,NA,NA,NA,0,0,0,4.8,0,0,0,0,0,0,0,0.2,0,0,0,0,0,0,0,0,0,0,0,0,0,0,0,0,0,0
337.9,"Laie","Laie","CraterNet","MA",2051,20.7229056,-156.1544823,NA,NA,NA,NA,NA,0,0.2,4.6,1.4,0,0,0.6,0,0,0,52.6,143.2,52.4,1.8,13.6,0,0,0,0,0,0,0,0,0.8,0,4.8,5.4,0,3.6,0
338,"HALEAKALA RANGER STATION 338","HAWAII T PARK","COOP","MA",2143,20.75846738,-156.2455233,"USC00511004",NA,NA,NA,NA,0,0,12.7,2.5,1.5,0,NA,NA,0,0,1.3,NA,NA,0.5,2.5,4.8,0,0,0,0,0,0,0,0,0,0,0.3,34.3,1.3,0
338.4,"HALEAKALA SUMMIT 338","SMITHSONIAN INST 1","COOP","MA",3037,20.71667,-156.26667,"USC00511008",NA,NA,NA,NA,0.8,0,NA,NA,0,NA,0,0,0,NA,NA,NA,NA,NA,NA,0,0,0,0.3,0,0,0,0,0,0,NA,NA,NA,NA,0
339.4,"PARK HQ HN-151","HaleNet","HaleNet","MA",2120,20.75980556,-156.2481667,NA,NA,NA,NA,NA,0,0.254,0.508,0,0,0,2.794,0,0,0,35.308,41.914,9.398,0,3.048,0,0,0,0,0,0,0,0,0,0,0,27.938,0,0,0
339.5,"NENE NEST HN-152","HaleNet","HaleNet","MA",2590,20.73819444,-156.2458333,NA,NA,NA,NA,NA,0,0.254,2.286,0,0,0,4.318,0,0,0,18.034,47.5,11.684,0,3.81,0,0,0,0,0,0,0,0,0,0,0,28.446,0,0.254,0
339.6,"SUMMIT HN-153","HaleNet","HaleNet","MA",2990,20.71036111,-156.25675,NA,NA,NA,NA,NA,0,0,1.27,0,0,0,3.81,0,0,0,3.81,70.108,15.24,0,0.508,0,0,0,0,0,0,0,0,0,0,0,2.54,0,0.762,0
348.5,"WestWailuaikiRainGagenrKeanae","USGS","USGS","MA",472.44,20.81436111,-156.1429722,NA,"WWKH1","DD5E710A",NA,NA,1.016,0,34.544,65.786,0.254,38.862,28.956,2.032,9.906,6.604,77.47,179.578,136.144,27.178,51.054,20.32,37.338,9.398,0,0.254,3.81,4.572,6.604,0.508,0.254,0,34.544,0.254,18.796,9.906
350,"PAAKEA 350","EMI","COOP","MA",390,20.81179461,-156.1171956,"USC00517194",NA,NA,NA,NA,NA,NA,NA,NA,NA,0,31.7094527384692,NA,NA,NA,NA,NA,103.419361913081,NA,NA,NA,NA,NA,2.61821169400205,NA,NA,NA,NA,NA,0,0,NA,41.4,NA,NA
353,"Hana AP","NWS","HydroNet-UaNet","MA",19,20.7946,-156.0157,"USC00511125","HNAH1","B150314C",NA,NA,5.8,2.8,1,3.3,0.3,2,8.4,0.3,0,0,23.9,60.5,13,3.6,4.3,3.8,0,2.8,1.8,1.5,0,0,0,1.5,0.5,0,42.7,2.5,5.6,7.1
355,"HANA AIRPORT 355","HAWN AIRLINES","COOP","MA",24,20.792,-156.017,"USC00511125",NA,NA,NA,NA,5.8,2.8,1,3.3,0.3,2,8.4,0.3,0,0,23.9,60.5,13,3.6,4.3,3.8,0,2.8,1.8,1.5,0,0,0,1.5,0.5,0,42.7,2.5,5.6,7.1
361.1,"Lahainaluna","NWS","HydroNet-UaNet","MA",238.0488,20.8909,-156.6556,NA,"LAHH1","81700366",NA,NA,NA,0,0,0,0,0,0,0,0,0,1.27,2.794,0,0,NA,NA,0,0,NA,0,0,0,0,0,0,0.254,82.042,0,0,0
364,"WAHIKULI 364","PIONEER MILL","COOP","MA",177,20.89679257,-156.6621736,"USC00518955",NA,NA,NA,NA,0,0,0,2.47619623941745,0,0.967264156022443,0,0,0,0,2.66964907062194,22.1310038897935,1.39286038467232,0.193452831204489,1.16071698722693,0,0,0,0,0,0,0,0,0,0,0,0,35.169724712976,2.66964907062194,0.193452831204489
380,"PuuKukuiRainGageatalt","BALDWIN PKRS","USGS","MA",1759,20.89083333,-156.6008333,"USC00514887","PKKH1","DD73556E",NA,NA,2.032,0.508,144.526,51.308,0,8.636,14.224,0,0,0,77.216,204.724,100.076,64.516,99.06,20.828,28.448,2.794,0.254,0,0,0.508,6.096,0.254,0.254,4.318,68.834,0.254,24.638,4.064
386,"WAILUKU 386","WAILUKU SUGAR","COOP","MA",55,20.89345755,-156.4971783,"USC00519484",NA,NA,NA,NA,NA,NA,NA,NA,0.581260409487813,0,8.90941875802218,NA,NA,NA,3.66314157518125,32.5095316023583,17.7287921432696,0,NA,NA,4.28850316923822,0.861055934065048,0,0,0,NA,NA,NA,0,0,7.21234418166678,9.23331546716858,NA,NA
386.6,"Wailuku","NWS","HydroNet-UaNet","MA",146.9136,20.8831005,-156.5124,NA,"WUKH1","9321D776",NA,NA,1.778,0,0,4.318,0.254,3.302,12.192,0,0,0,24.13,34.544,0,0,2.032,0.254,0,0,0,0,0,0,0,0,0,7.874,16.51,0,12.192,0.508
390,"WAIKAPU 390","WAILUKU SUGAR","COOP","MA",130,20.8491,-156.5092,"USC00519376",NA,NA,NA,NA,NA,NA,NA,NA,0.8,0,14.5,NA,NA,NA,0.5,53.3,10.2,0,NA,NA,3.69488276441535,0,0,0,0,NA,NA,NA,0,0,19.8,11.7,NA,NA
390.4,"Waikapu Country Club","NWS","HydroNet-UaNet","MA",145.9992,20.8346996,-156.5135,NA,"WCCH1","9320E016",NA,NA,0,0,0,0.508,0,0,21.59,0,0,0,3.302,62.992,0,0,0,0,0,0,0,0,0,0,0.254,0,0,0.254,0,0.254,0.254,0
396,"PUUNENE 396","HC&S","COOP","MA",18,20.8717927,-156.4538466,"USC00518543",NA,NA,NA,NA,NA,NA,NA,NA,0.425545681377412,0,7.71301547496559,NA,NA,NA,0.265966050860882,28.3519810217701,5.425707437562,0,NA,NA,NA,0,0,0,0,NA,NA,NA,0,0,10.5322556140909,6.22360559014465,NA,NA
398,"KAHULUI AIRPORT","NOAA-NWS","NWS","MA",12,20.8887,-156.41,"USW00022516","HOG",NA,NA,NA,0,0.8,0,0.3,0,3,6.4,0,0,0,14.2,14,1.3,0,1.3,0,0,0,0.3,0,0,0,0,0,0,0.3,5.6,0,2.8,0
406,"PAIA 406","HC&S","COOP","MA",50,20.9051221,-156.3738494,"USC00517566",NA,NA,NA,NA,0.0511241569154475,0.680308089470275,0.249229349071966,9.72339952692439,1.34198630647397,0.0511241569154475,6.34412092260463,0.97762987669055,0,0,2.31129218282286,27.6721951775431,29.5092086747193,2.19670177048921,5.86304005828003,3.31394463075479,1.99399501457208,0.995979016323964,0,0,0,0.0918631470256695,0.142987303941117,0,0,0.0511241569154475,9.44127764418875,29.387956430505,7.22112338917908,3.03783940619121
423,"HALIIMAILE 423","MAUI PINE","COOP","MA",326,20.86679262,-156.3405177,"USC00511075",NA,NA,NA,NA,0,0.686492711834853,0.160368700232415,12.2537253866524,1.38888503603667,4.27341268877867,1.43468220762687,0.185340523608557,0,0,6.10187418729876,49.9521844316172,33.721841142541,1.58310046133125,5.89167958932094,2.56711458094795,0.927825022868478,0.772725202623846,0,0,0,0.100230437645259,0.100230437645259,0,0,0,7.82137009628109,80.023841324371,10.8040686621611,3.46830492215075
426.6,"Pukalani","NWS","HydroNet-UaNet","MA",495.9096,20.8355007,-156.3307,NA,"PUKH1","15D2B52E",NA,NA,0,0,0,0,0,8.128,6.604,0,0,0,32.766,59.69,4.826,0,3.556,0,0,0,0,0,0,0,0.254,0,0,3.556,34.036,0,0,0
446,"KAILUA 446","EMI","COOP","MA",213,20.89012208,-156.2121892,"USC00512679",NA,NA,NA,NA,3.09633993231685,1.12353481763024,13.9885264097263,30.4938039157619,0.0656810274293399,0,21.8,0.525448219434719,2.56156006974426,1.13847114210856,36.9493734142007,87.894921163099,71.1,8.77365920231859,31.5221837750313,10.0294400231526,6.66144765160136,3.86655374014636,1.8,6.55272269805739,1.97196267626314,1.48413683750864,2.02605323480463,1.32032760976144,0,0,14.8665817465587,9.53117909190736,23.517527924081,8.31028731645622
457.1,"PUUKOLII 457.1","COOP","COOP","MA",128,20.93194,-156.67611,"USC00518407",NA,NA,NA,NA,0,0,0,6.4,0,2.5,0,0,0,0,6.9,57.2,3.6,0.5,3,0,0,0,0,0,0,0,0,0,0,0,0,90.9,6.9,0.5
462.4,"KAPALUA W.MAUI AIRPORT 462.4","KAPALUA W.MAUI AIRPORT 462.4","NWS","MA",73,20.9625,-156.6753,"USC00513317",NA,NA,NA,NA,0,0.5,0,10.7,1.8,0,3.6,0.5,0,0,1.5,25.4,56.4,1.5,1,4.6,1.8,0.3,0,0,0,0,0,0,0,0,21.1,57.2,5.1,8.1
466,"MAHINAHINA 466","PIONEER MILL","COOP","MA",257,20.94678808,-156.6555055,"USC00515715",NA,NA,NA,NA,0,2.5,0.8,24.4,3.6,14.7,0.5,0,0,0,9.4,50.8,54.4,3.8,19.6,4.3,1.3,3.3,0,0,0,0.5,0.5,0,0,0,0,52.8,26.2,1
474,"FIELD 46 474","MAUI PINE","COOP","MA",319,20.9951177,-156.6391163,"USC00510541",NA,NA,NA,NA,0,1.64893820099057,0.385201578250766,21.2755700923265,3.33606687037337,4.71871933357189,5.43757793998433,0.445183268956923,0,0,5.86166835131727,47.0756102819353,61.1819069852033,6.73582898871052,10.3278052050576,6.16614455750156,2.22861233290242,1.85606647165856,0.259282369931005,0,0,0.240750986406729,0.240750986406729,0,0,0,18.7867339499821,76.3522701332225,17.1562210310732,7.6934709299156
482,"WAIHEE VALLEY 482","WAILUKU SUGAR","COOP","MA",91,20.94012106,-156.5255102,"USC00519315",NA,NA,NA,NA,0.301373820581305,1.80431053294676,0.24338486050933,12.4740736309513,0.8,0,13,1.55138865541003,0,0,3.8,35.8,29.7,0,5.38432054775809,6.00776947162808,3.16424581358255,1.5,0,0,0,0,0.521619354326167,0,0,0,8.1,9.1,5.7306344472933,6.79373473898912
482.4,"KAHAKULOA MAUKA 482","NWS","COOP","MA",334,20.9539,-156.5342,"USC00512450",NA,NA,NA,NA,0.5,3.3,NA,NA,0,0,1.8,0,0,NA,2.87557855346572,27.0909768984402,22.4749165889294,0,NA,NA,NA,1.13509679742068,0,0,0,0,1,0,0,0,6.12952270607166,6.88625390435211,NA,NA
482.5,"Kahakuloa","Kahakuloa","HydroNet-UaNet","MA",335.28,20.9540997,-156.5342,NA,"KHKH1","781001B6",NA,NA,0.254,0.254,3.556,13.716,0,1.016,10.922,0,0,0,18.034,70.104,1.27,1.016,7.112,9.652,1.016,0.254,0,0,0,0,0,1.016,0,1.016,19.05,1.27,58.166,3.81
484,"WAIEHU CAMP 484","WAILUKU SUGAR","COOP","MA",98,20.91623388,-156.5088444,"USC00519275",NA,NA,NA,NA,0.0930067362951238,0.402036510010549,0.186013472590248,9.53364867717698,0.5,0,7.1,1.77853620717838,0,0,4.1,34.8,11.2,0,4.1151128321275,4.59160056053024,4.1,0.5,0,0,0,0,0.0930067362951238,0,0,0,7.6,10.7,4.37979261099297,5.19229580678013
485,"HAMAKUAPOKO 485","HC&S","COOP","MA",98,20.91345401,-156.3455169,"USC00511086",NA,NA,NA,NA,0.116589487402215,0.503976727775608,0.23317897480443,11.9509968484202,2.74703211920991,0.07772632493481,9.41101155805076,2.22950114132839,0,0,2.70114295482942,41.294962775339,49.0962322673664,5.00961480539327,5.15853920707007,5.75584497459685,1.97754150235529,1.95795675777682,0.22562097178626,0,0,0,0.116589487402215,0,0,0.07772632493481,16.7674636984051,60.3131779703,5.49033108551784,6.50885226885339
486.7,"HAIKU 3.2 SE","HAIKU 3.2 SE","CoCoRaHS","MA",416,20.92011989,-156.3071849,"US1HIMI0001",NA,NA,NA,NA,0.5,0.5,1,15.7,5.8,0.5,31,7.9,0,0,6.6,92.7,71.1,16.5,18.8,9.4,2.5,7.4,0,0,0,0,0.5,0,0,0.5,1.8,68.6,6.6,1
489,"Haiku","NWS","HydroNet-UaNet","MA",99.3648,20.9288998,-156.3225,"USC00510822","AIKH1","50A30568",NA,NA,3.302,1.27,3.81,10.16,0,7.62,10.922,0,0,0,26.67,31.242,40.64,4.064,19.05,3.81,0.254,0.254,0,0,0.762,0.508,0,0,0,0,9.906,0,18.796,1.778
490.7,"KUIAHA 490.7","COOP","COOP","MA",341,20.89306,-156.30306,"USC00514806",NA,NA,NA,NA,0.112154381101964,1.6289170018916,4.19377346686999,28.2792409872906,3.32359936361357,4.28990507715013,11.0159053775017,0.664086672210492,1.09350521574415,0.729003477162767,14.3422682745322,66.3273110352095,79.8115864404331,6.12695484416248,15.8381639507655,8.33436363214192,6.32322630930103,2.87095837248535,0.384201294279229,0.028038595275491,0.420578929132366,0.742522533335846,0.966831295539774,0.0560771905509821,0.028038595275491,0,22.3718767597438,75.4532491206382,19.0227684154084,8.69356299460449
492.2,"HALEHAKU 492.2","COOP","COOP","MA",210,20.91,-156.282,"USC00511016",NA,NA,NA,NA,3.18739012475081,1.15657319958688,9.59991299680829,20.9269980238593,0.0450749514562328,9.22393784688325,15.0436149463185,0.360599611649862,1.75792310679308,1.17194873786205,38.0358973854754,60.3196913893938,57.0449550666582,8.52405404449491,26.408663236506,7.07571571525925,6.85733250398359,1.89908784379799,0.411762299285509,0.0450749514562328,1.37006819159562,1.27397840604694,1.17194873786205,0.0901499029124655,0.0300499676374885,0,15.1514643548253,0.0450749514562328,20.452829761647,3.37712558621471
493,"HONOKOHUA 493","MAUI LAND&PINE CO","COOP","MA",38,21.00011804,-156.655505,"USC00511887",NA,NA,NA,NA,0,0.937346965846944,0.218969716630924,12.0942016266747,1.89640348979026,4.02356854309322,1.95893560279654,0.253066601375308,0,0,3.33209397453927,26.7603603559293,43.4358533660375,3.82901485406718,5.87089126020824,3.50517495954404,1.26686555447636,1.05509004192774,0,0,0,0.136856072894327,0.136856072894327,0,0,0,10.679410578038,43.4028204949761,9.75253755369088,4.37339108806864
494,"HONOLUA FIELD 49 494","MAUI LAND&PINE CO","COOP","MA",61,21.010978,-156.633839,"USC00511914",NA,NA,NA,NA,0,1.1138922303947,0.260211719815545,14.3720924221562,2.25358292066601,NA,NA,0.300730605971127,0,0,3.95967952574603,31.8005589916204,NA,2.13819748703722,6.9766483474231,4.16535956894293,1.50547422619632,1.2538117078218,NA,0,0,0.162632324884715,0.162632324884715,0,NA,NA,12.6908315719816,51.5775548309229,11.5893860048646,5.1971004665017
497,"NAKALELE FIELD 60 497","MAUI LAND&PINE CO","COOP","MA",104,21.02511528,-156.6005068,"USC00516645",NA,NA,NA,NA,0,1.40279537987018,0.448894521558457,13.6912829075329,2.02002534701306,NA,NA,0,0,0,5.27451062831187,28.504802118962,NA,2.13224897740267,10.9979157781822,2.41280805337671,0.729453597532492,1.85168990142863,NA,0,0,0.280559075974036,0.280559075974036,0,NA,NA,0,29.6270384228581,14.7012955810395,0.561118151948071
499.11,"LUA MAKIKA","RAWS","RAWS","KO",335.28,20.5625,-156.5630556,"USR0000HLUA","HLUA",NA,NA,NA,0,0,1.40815157925768,10.7238950420956,0.356717363247215,0,0,0,0.15168025506948,0,0,6.78602020595152,0,0,0,0,0.353920595162138,0,0,0,0,0,0,0,0,0.170398128800556,37.5895815441426,0.15168025506948,3.54845575874081,0.229542786005146
499.12,"KEALIALALO","RAWS","RAWS","KO",251.46,20.54361111,-156.6408333,"USR0000HKLL","KLLH1","32792006",NA,NA,0,0,0.694762715010702,1.26320493638307,0.126320493638336,0,0,0,0.189480740457432,0,0,1.45268567684058,0,0,0,0,0.442121727734032,0,0,0,0,0,0,0,0,0,23.1166503358102,0.189480740457432,1.45268567684058,0.286747520558914
499.13,"HAKIOAWA","RAWS","RAWS","KO",365.76,20.58027778,-156.5711111,"USR0000HHAI","HKIH1","3279159C",NA,NA,0,0,1.10000000000002,2,0.200000000000045,0,0,0,0.299999999999955,0,0,2.30000000000007,0,0,0,0,0.699999999999932,0,0,0,0,0,0,0,0,0,36.6,0.299999999999955,2.30000000000007,0.453999999999932
499.9,"KANELOA","RAWS","RAWS","KO",248.412,20.52222222,-156.5658333,"USR0000HKAN","KAOH1","32793370",NA,NA,0,0,1,11.4,0.300000000000011,0,0,0,0,0,0,6.59999999999999,0,0,0,0,0,0,0,0,0,0,0,0,0,0.199999999999989,22.4,0,2.80000000000001,0
511,"MAUNALOA 511","MOLOKAI RANCH CO","COOP","MO",314,21.13348648,-157.2121842,"USC00516190",NA,NA,NA,NA,NA,NA,NA,NA,1.3,0,1,NA,NA,NA,0,NA,NA,0,NA,NA,NA,0,0,0,0,NA,NA,NA,0.3,0.3,20.1,45.2,NA,NA
524,"MOLOKAI KAUNAKAKAI MOLOKAI AIRPORT","ALOHA AIRLINES","NWS","MO",141,21.15514996,-157.0924625,"USW00022534","HMK",NA,NA,NA,0.3,0.3,1,2.3,0,0,0.3,0,0,0,1.8,31.8,29.2,0,0,0,0,0,0,0,0,0,0,0,0,0.5,30.7,0,0,0
536,"KAUNAKAKAI 536","MOLOKAI RANCH","COOP","MO",3,21.08876308,-157.0216311,"USC00513541",NA,NA,NA,NA,0,0,0,0,0,0,0,0,0,0,0,7.9,53.1,0,0,0,0,0,0,0,0,0,0,0,0,0,10.4,5.8,0,0
536.5,"Kaunakakai Mauka","MOLOKAI GEN HOSP","HydroNet-UaNet","MO",28.3464,21.0946007,-157.0174,NA,"KACH1","50A0F2E2",NA,NA,0,0,0,0,0,0,0,0,0,0,6.858,22.86,36.068,0,0,0,0,0,0,0,0,0,0,0,0,0.254,13.716,0,0,0
536.6,"KAUNAKAKAI 3.5 ESE","KAUNAKAKAI 3.5 ESE","CoCoRaHS","MO",13,21.068,-156.963,"US1HIMI0002",NA,NA,NA,NA,0,3,0,0,0,0,0,0,0,0,0,7.1,75.2,0,0,0,0,0,0,0,0,0,0,0,0,7.1,24.9,15.2,0,0
538,"MOLOKAI 1","RAWS","RAWS","MO",833.0184,21.115,-156.9475,"USR0000HMLK","MLKH1","487016AC",NA,NA,0,0.600000000000023,0,1.20000000000005,0,2.09999999999991,6.30000000000007,0,0,0,44.6999999999999,113,41.2,0,0.200000000000045,0,0,0,0,0,0,0,0,0,0,4.59999999999991,53.4000000000001,0.199999999999932,0,0
541.2,"Puu ALII WEST","Puu ALII WEST","RAWS","MO",1159.764,21.14083333,-156.9022222,NA,"PAFH1","32D6062E",NA,NA,6.40000000000001,1.79999999999998,7.09999999999999,14.4,0.300000000000011,33.8,62.2,0.800000000000011,0.199999999999989,0,62.5,176.5,78.8000000000001,4.59999999999991,17,4,3.80000000000007,0.299999999999955,0,0,0.300000000000068,0,0,0.199999999999932,0,1.80000000000007,58.4,0,4.10000000000002,1.69999999999993
542.11,"Kamalo","NWS","HydroNet-UaNet","MO",8.8392,21.052,-156.871,"USC00513045","KMLH1",NA,NA,NA,0,0,0.5,1.016,0,0,0,0,0,0,NA,97.282,17.018,0,NA,NA,0.508,0,0,0,0,0,0,0,0,1.524,NA,0,0.254,0.254
550.3,"MAUNALOA 3.2 NNW","MAUNALOA 3.2 NNW","CoCoRaHS","MO",93,21.1804,-157.2319,"US1HIMI0006",NA,NA,NA,NA,0,4.6,NA,3,3,2.5,0,NA,0,0,NA,3.8,83.8,0,0,0,NA,0,0,NA,0,0,0,0.5,NA,0.5,13.2,73.9,0,0
553,"MAKAPULAPAI","RAWS","RAWS","MO",22.86,21.20333333,-156.9661111,"USR0000HMAK","MKPH1","FA9024CE",NA,NA,9.20000000000005,4.10000000000002,6,1.59999999999991,0,0,0.700000000000045,0,0,0,1.29999999999995,39.1,76.5,0,0,0.200000000000045,1.79999999999995,0,0,0,0,0,0,0,0,0,20.1,0.200000000000045,0,0.799999999999955
563,"KALAUPAPA 563","CIVIL AIR PATROL","COOP","MO",9,21.19014673,-156.9824624,"USC00512896",NA,NA,NA,NA,NA,NA,NA,NA,3,0,0,NA,NA,NA,0,NA,NA,NA,NA,NA,NA,4.1,0,0,NA,NA,NA,NA,0,0,3,14.2,NA,NA
672.1,"Lanai City","NWS","HydroNet-UaNet","LA",498.0432,20.8262997,-156.9182,"USC00515286","LANH1",NA,NA,NA,2,0.762,6.35,13.97,0,NA,6.858,0,0,0,5.08,16.256,0.254,0,1.016,0,0,0,0,0,3.048,0,0.254,0,0.254,NA,NA,NA,13.716,0.254
679,"LANAI 1","RAWS","RAWS","LA",387.096,20.87333333,-157.0063889,"USR0000HLAN","LNIH1","48702336",NA,NA,0,0,2.09999999999997,4.80000000000001,0,0,0,0,0,0,0,42.9,0.299999999999955,0,0.200000000000045,0,0,0,0,0,0,0,0,0,0,4.09999999999997,18.8,0,2.80000000000001,0
702.2,"HONOLULU OBSERV 702.2","USC&GEODETIC SURVEY","COOP","OA",2,21.313926,-157.999529,"USC00511918",NA,NA,NA,NA,3.8,NA,0.3,0.5,0,0,0,0,0,0,NA,NA,NA,NA,0.3,0,NA,0,0,0,NA,0,0,0,NA,NA,NA,0,0,0
702.7,"Kapolei-Kalaeloa AP","NWS","NWS","OA",15,21.31667,-158.06667,"USW00022551","HJR",NA,NA,NA,1.8,0.3,0,0,0.3,0,0,0,0,0,0,2.5,5.6,0,0,0,0.5,0,0,0,0,0,0,0.3,0,17,9.4,0,0,0
702.8,"PTWC","NWS","HydroNet-UaNet","OA",1.524,21.3150005,-157.9992,NA,"PTWH1",NA,NA,NA,2.54,1.27,0.254,0,0.508,0,0,0,0,0,0,27.8575902289871,18.542,0,0.923566272997296,0,1.06913246493561,0,0.254,0,0,0,0,0.433677067536972,0.254,9.906,22.86,0,0,0
703,"HONOLULU INTERNATIONAL AIRPORT","USWB","NWS","OA",2.1,21.324,-157.9294,"USW00022521",NA,NA,NA,NA,0,1.3,1,0.3,0,0,0,0,0,0,1,12.7,19.6,0,0.5,0,0,0,0,0,0,0,0,0,0,7.1,1.8,0,0,0
703.1,"HONOLULU FIRE STATION 703.1, HI US","COOP","COOP","OA",1,21.3287,-157.9298,"USC00511925",NA,NA,NA,NA,0,3,0,0.5,0.3,0,0,0,0,0,0,8.1,29.5,10.7,0.8,0,0.3,0,0,0,0,0,0,0,0,0,11.9,0.098564547173598,0,0
705,"BERETANIA PUMP STN 705","BWS","COOP","OA",6,21.305169,-157.8522571,"USC00510211",NA,NA,NA,NA,0.3,6.4,1,0.5,0.5,0,0,0,0,0,5.1,35.1,23.4,0,4.6,0.3,2,0,0,0,0,0,0,0,0,11.9,1.5,0,0,0
705.12,"Aloha Tower","NWS","HydroNet-UaNet","OA",38.1,21.3034,-157.8627,NA,"ALOH1",NA,NA,NA,0.08475964541522,4.572,0.254,0,0.508,0,0,0,0,0,7.62,23.368,19.812,0,4.064,0,1.27,0,0,0,0,0,0,0,0,13.208,1.79857090093418,0,0,0
706.5,"Niuhelewai HCC JD","J_Delay","PrivateObs","OA",2,21.32180556,-157.8694722,NA,NA,NA,NA,NA,0,4,2.3,0,0.3,0,0,0,0,0,2.4,38.2,29.7,0.9,15.8,0,2.8,0,0,0,0,0,0,0,0,10.9,1.4,0,0,0
707.2,"EWA KALAELOA AIRPORT","LYDECKER RC","STATE","OA",14,21.30489073,-157.8305905,"USW00022551",NA,NA,NA,NA,1.8,0.3,0,0,0.3,0,0,0,0,0,0,2.5,5.6,0,0,0,0.5,0,0,0,0,0,0,0.3,0,17,9.4,0,0,0
707.5,"HONOLULU 2.0 SW","CoCoRaHS","CoCoRaHS","OA",12,21.3004,-157.8293,"US1HIHN0023",NA,NA,NA,NA,0.3,5.3,3,3.3,5.1,0,0,0,0,0,0,20.3,60.2,18.3,3.8,1,4.1,1,0,0,0,0,0,0,0,0,21.1,0,0,0
709,"PUNCHBOWL CRATER 709","T MEM CEMETERY","COOP","OA",108,21.31016855,-157.846146,"USC00518316",NA,NA,NA,NA,2.8,3,2.5,3,0,0,0,0,0,0,0,9.9,59.9,14.5,5.1,1.5,1.8,0,0,0,0,0,0,0,0,0,17.8,0,0,0
711.6,"ManoaRGatKanewaiFld,Honolulu","USGS","USGS","OA",11.5824,21.29322222,-157.8127222,NA,NA,NA,NA,NA,0.518188852704605,4.79011475984116,0.424263376661077,1.29465124444024,0.813531441724819,0,0,0,0,0,2.16374322097149,38.6874880032852,37.4255803229819,0.30069987669714,2.81681368705764,0.346654341242055,3.3395661684541,0.159235352904304,0,0,0,0,0,0,0,15.5740771780037,10.0011624979298,0,0,0.138050779790324
711.7,"H-1RainGageatKapiolaniAve","USGS","USGS","OA",6.096,21.28944444,-157.8155556,NA,NA,NA,NA,NA,0.412469405280509,3.81284887913899,0.337706343431227,1.03052010102647,0.647557021332754,0,0,0,0,0,1.72230235149926,30.794574381955,29.7901175942473,0.23935192480857,2.24213519882292,0.275930887404723,2.65823717397179,0.126748599413641,0,0,0,0,0,0,0,12.3966973003679,7.96075316191029,0,0,0.10988604394214
712.1,"MANOA 712.1","BEAUMONT MRS J","COOP","OA",61,21.31044568,-157.8147571,"USC00516122",NA,NA,NA,NA,1.3,9.7,2,4.6,7.6,0,0,0,0,0,0,12.4,91.9,13.7,5.1,3.3,3,2,0,0,0,0,0,0,0,2,25.7,0.3,0,0
713,"UNIV OF HAWAII 713","UH MET DEPT","COOP","OA",24,21.29933514,-157.8167017,"USC00518815",NA,NA,NA,NA,1.3,6.9,0,3.6,2,0,0,0,0,0,0,30.7,53.8,1,1.5,0.5,5.3,0.3,0,0,0,0,0,0,0,0.8,27.7,0,0,0
715,"WAIALAE KAHALA","TINKER SPENCER","COOP","OA",15,21.27433592,-157.7880917,"USC00519185",NA,NA,NA,NA,0,2.5,0,2.3,0.8,0,0,0,0,0,0,5.1,35.6,13.5,0,1.5,0.5,0.5,0,0,0,0,0,0,0,0,38.9,1.3,0,1.8
716,"MANOA TUN 2 716","BWS","COOP","OA",198,21.32794416,-157.7914236,"USC00516130",NA,NA,NA,NA,6.40099524443405,7.24940515936829,20.9594814957055,26.8380191645746,14.8210846707861,4.33104559861705,2.38778577758473,3.82120666928927,0.876246380433319,0.115266555697191,4.44886234822364,92.0705571885335,73.4249907488099,0.837885935755726,5.89603637450106,0.572271327222497,3.19799235555861,0.437577679276244,0.123395340120359,0.76844370464794,0.711952165518468,1.12785308633293,3.4476358659686,0,0.408437040902651,30.1443600210646,7.2743513947574,14.3639219785145,1.01258653063574,8.04265774594005
717.2,"WAIKIKI 717.2","PURINTON J","COOP","OA",3,21.27183682,-157.8180917,"USC00519397",NA,NA,NA,NA,0,3,0,1,0.8,0,0,0,0,0,0,7.4,21.6,6.6,0.3,0.5,1.3,0,0,0,0,0,0,0,0,0,19.1,0,0,0
718,"PALOLO VALLEY 718","BWS","COOP","OA",302,21.32183297,-157.7717015,"USC00517664",NA,NA,NA,NA,2.3,2.8,22.9,20.3,35.8,9.1,0,9.7,1.5,0.3,3.8,84.3,71.4,0.3,3.6,0.3,2.8,0,0,2,0.5,1.3,2,0,0,35.3,11.2,16,1,11.2
720.6,"HONOLULU 2.7 SSE","CoCoRaHS","CoCoRaHS","OA",113,21.285,-157.7816,"US1HIHN0010",NA,NA,NA,NA,0,3.3,1,5.6,2,0,0,0,0,0,0,6.4,45.2,21.1,0.3,0.5,4.8,1,0,0,0,0,0,0,0,0,35.3,1,0,1
721,"WILHELMINA RISE 721","BWS","COOP","OA",335,21.29766804,-157.7853133,"USC00519980",NA,NA,NA,NA,5.3,5.6,6.1,3.8,0.8,0,0.8,0,0,0,1.3,44.5,45.2,0.3,2.8,0.8,3.6,0.3,0,0,0,0,0,0,0,26.2,3.3,0.8,0.3,0.5
721.4,"Palolo Fire Stn","NWS","HydroNet-UaNet","OA",59.436,21.2996006,-157.7944,"USC00517662","PFSH1","19014414",NA,NA,0,0,0,0,0,0,0,0,0,0,0,53.594,41.656,0,1.524,0.254,3.302,0.254,0,0,0,0,0,0,0,37.846,3.81,0,0,0.508
723.4,"PAIKO DRIVE 723.4","GRUBB DL","COOP","OA",3,21.28172556,-157.7282194,"USC00517540",NA,NA,NA,NA,4.6,0,0.8,1.8,0,0,0,0,0,4.8,0,106.7,0.3,0,0,0,0.5,0,0,0,0,0,0,0,0,27.9,0.5,0,0.5,0
723.8,"Niu Valley","NWS","HydroNet-UaNet","OA",19.812,21.2896996,-157.7332,"USC00516865","NIUH1","1900D38C",NA,NA,5.334,0.508,1.27,4.318,0.508,0,1.016,0,0,0,3.048,62.484,67.564,0,0.508,0.254,0.254,0,0,0,0,0,0,0,0,29.972,2.54,0.762,0.254,3.81
724.19,"HAWAII KAI GC 724.19","UNOAA-NWS","COOP","OA",9,21.29889,-157.66444,"USC00511308",NA,NA,NA,NA,4.66676835594203,8.382,0,1.27,0,0,0.508,0,0,0,0.762,66.04,111.76,0,0,0,0,0,0,0,0,0,0,0,0,9.144,7.1,0,0,0.508
724.21,"Kamehame","NWS","HydroNet-UaNet","OA",242.316,21.3085995,-157.6791,NA,"KMHH1","190046EE",NA,NA,4.572,4.572,0.508,1.524,0.254,0,0.254,0,0,0,3.302,51.816,80.518,0,0,0,0,0,0,0,0,0,0,0,0,20.828,14.224,1.524,0,2.286
728.2,"PALEHUA","RAWS","RAWS","OA",722.376,21.385,-158.1041667,NA,"PLHH1","4870F55E",NA,NA,1.09999999999997,6,1.80000000000001,0.5,1.60000000000002,0,0,0,0,0,0.699999999999932,26.2,24.4,0,2.30000000000007,0,1.19999999999993,0,0,0,0,0,0,0,0,12.2,29.1999999999999,4.60000000000002,0.200000000000045,0.299999999999955
740.5,"Kunia","NWS","HydroNet-UaNet","OA",85.0392,21.3869991,-158.0358,NA,"KUNH1",NA,NA,NA,1.778,0.508,0,0.254,0.254,0,0,0,0,0,0.508,53.34,36.83,0,2.032,0,0.762,0,0,0,0,0,0,0,0.762,24.13,12.954,8.636,0,0
741,"EWA PLANTATION 741","EWA PLANTATION","COOP","OA",12,21.3401713,-158.0339215,"USC00510507",NA,NA,NA,NA,2.92874846643678,NA,0.43628986914756,0.7271497819126,0.44154478711706,0,0,0,0,0,0,7.83741997132781,103.431866382171,3.09081350981942,0.43628986914756,0,NA,0.165579295168897,0,0,0,0,0,0,0,5.29853744540472,53.316533044385,4.19467547761207,0,0
742.4,"HONOULIULI PHB","FWS","RAWS","OA",1.524,21.35666667,-158.0205556,NA,"HOFH1","327BF39A",NA,NA,4.30000000000007,0.799999999999955,0,0,0.200000000000045,0,0,0,0,0,0,22.1,21.9,0,0,0,0,0,0,0,0,0,0,0,0,26.4,20.5,0.799999999999955,0,0
750,"WAIPAHU 750","OAHU SUGAR","COOP","OA",18,21.38683459,-158.0072536,"USC00519738",NA,NA,NA,NA,0.3,NA,NA,NA,0.8,NA,NA,NA,NA,NA,0,7.1,93.7,2.8,NA,NA,NA,0.3,0,0,0,NA,NA,NA,0,4.8,48.3,7.6,NA,NA
752.6,"WAIAWA PHB","FWS","RAWS","OA",1.524,21.38694444,-157.9811111,NA,"WWFH1","3274C092",NA,NA,3.79999999999995,1,0,0.200000000000045,0.5,0,0,0,0,0,0,87.1999999999999,43.4000000000001,0,1,0,0.799999999999955,0,0,0,0,0,2,0,0,17,12,5,0,0
764.6,"AIEA HEIGHTS 764.6","G FOWLER","COOP","OA",238,21.39488776,-157.91031,"USC00510123",NA,NA,NA,NA,0.8,18,0.5,6.1,4.1,0,0.8,0,0,0,0,10.2,142,14,2.3,4.8,4.1,1.3,0,0,0,0,0,1,0,0.5,15.7,1.3,6.1,0
764.7,"AIEA 0.7 ENE","CoCoRaHS","CoCoRaHS","OA",175,21.393,-157.9186,"US1HIHN0014",NA,NA,NA,NA,3,15.7,0.5,4.1,5.6,0.3,0.3,0,0,0,0.3,8.6,176.3,6.6,2.5,4.1,2.5,1.5,0,0,0,0,0,0.3,0,0,20.3,2,6.6,0.3
770,"MOANALUA 770","ROXBURGH J","COOP","OA",6,21.34794527,-157.8950332,"USC00516395",NA,NA,NA,NA,0,8.6,1.5,1,2.3,0,0,0,0,0,0,4.8,96,10.2,3.8,2.5,0,0,0,0,0,0,0,0,0,0,12.7,0.3,0,0
771.11,"N.HalawaValleyRGattunnel","USGS","USGS","OA",335.28,21.40488889,-157.8504444,NA,"TNLH1","DD75A524",NA,NA,24.638,16.256,22.606,43.942,2.794,0.762,9.906,0,0,0,4.064,71.12,76.962,3.302,5.842,0,5.588,0,0,0,0.762,2.032,2.794,0,0,31.496,3.81,21.336,0.508,6.096
771.9,"NHalawaRainGagenrHonolulu","USGS","USGS","OA",210.312,21.382,-157.9033333,NA,NA,NA,NA,NA,3.85837900137455,5.54190205990821,1.18639326294232,5.79357933011562,1.82468302453883,0.0715787089103882,0.185531653005831,0,0,0,0.905900458349316,57.533637871447,63.2052794749187,3.71578773450939,3.43701850254765,1.75739829822848,3.95486593234438,0.301488936134475,0,0,0,0,0.447605703263762,0.364382932256274,0,8.76495753621236,5.65366202800529,5.68440151741676,1.48625756307985,0.794810195993912
772,"MoanaluaRaingagenrHonolulu","USGS","USGS","OA",103.058976,21.37823611,-157.8700306,NA,NA,NA,NA,NA,11.5928031309966,8.84517910636884,13.3578433799891,23.4325181870555,1.31983563187867,0.141275817882483,4.28226351134586,0,0.104788342345441,0,2.25843343588545,117.973755360681,74.6742110088992,1.09047304922998,5.67580248572354,1.53345321680595,5.19570165858125,0.118243901631831,0,0.209576684690883,0.209576684690883,0.802224258822877,1.71493401463333,0.207125548341593,0,25.678283390455,2.21418755570415,9.84905994732408,0.350852502573366,3.76481383620435
772.1,"N.HalawaRaingagenrAiea","USGS","USGS","OA",97.536,21.39295833,-157.8908639,NA,NA,NA,NA,NA,6.57342879176943,3.1781370995186,3.50728853900737,9.34007951261719,1.24741500994804,0.157185429748415,1.02203801563039,0,0,0,1.41364347842705,67.8920213664481,41.1695306125843,0.85545123086524,3.78984270773947,0.707104087683925,3.87384024160931,0,0,0,0.0786183088946453,0.209648823719054,0.779573722499071,0.145401590489336,0,12.7429809784541,2.60219048012057,8.10977271708998,0.130979326783533,1.50135601409318
772.3,"MoanaluaRGNo.1atalt1000","USGS","USGS","OA",304.8,21.39338889,-157.8401111,NA,"MOGH1","1689664A",NA,NA,22.606,18.288,26.67,59.944,2.794,0,9.906,0,0.508,0,1.778,83.566,91.694,1.27,3.556,1.27,3.556,0.254,0,1.016,1.016,1.016,2.794,0,0,28.194,2.794,23.114,1.016,5.842
772.5,"Moanalua Stream","USGS","HydroNet-UaNet","OA",72.2376,21.3736,-157.8801,"USC00516400","MOAH1","1900B66A",NA,NA,9.144,3.556,2.286,7.112,0.508,0.254,0,0,0,0,1.27,120.142,62.484,1.016,5.334,2.286,4.826,0,0,0,0,0,0.508,0.254,0,20.32,1.524,2.032,0.254,1.524
772.6,"MoanaluaRaingagenrKaneohe","USGS","USGS","OA",350.52,21.38823333,-157.8486389,NA,NA,NA,NA,NA,11.9764660896816,14.9923995034794,30.1341187299568,40.6457754523991,2.08431417893735,0.109495632483493,9.95794117465171,0.182492720805822,0.337746729574156,0,3.97845083771598,119.180848974506,91.5930587542165,1.43535965584696,6.0575778270923,0.49763065440433,5.21741153540595,0.175189714140459,0,0.310508017536669,0.602496370825984,1.84554620024425,3.87414239479352,0.207058342239785,0.291988353289315,34.9137067270748,4.06856803832654,21.5314764063715,0.420003650020162,7.09594091074792
773,"KAPALAMA 773","KAMEHAMEHA SCH","COOP","OA",188,21.33933391,-157.8567005,"USC00513268",NA,NA,NA,NA,0.801927751805999,11.600075537713,0.802873092819347,3.6499102019865,5.1,0.5,0.3,0,0,0,0.3,27.7,102.9,8.58975933119011,2.98700046687207,2.56760264387428,3.48045759792578,0.5,0.3,0,0,0,0,0.251722745625433,0.5,0.3,14.5,0.5,1.53550874831514,0
775,"NUUANU RES 5 775","BWS","COOP","OA",125,21.339125,-157.835905,"USC00516933",NA,NA,NA,NA,3.95718363596963,7.96452022591492,19.3069447732143,16.2539256669869,1.99266175988985,0.102508482178595,4.92211396454749,0.350836779951649,0.0518861807063998,0,3.13020818381568,57.1601461117735,52.8500167324146,0.813291769860092,6.24799656457171,0.948319972105529,3.9904693149659,0.238861639028276,0,0,0.274198538632391,1.03872740118691,2.31047816672694,0.167152306284668,0.275462417866595,25.3499915055329,2.72757760407885,9.09465394444677,0.44715247432039,7.07191383539068
777,"KALIHI RES SITE 777","BWS","COOP","OA",277,21.37516437,-157.8222555,"USC00512960",NA,NA,NA,NA,9.9,7.6,9.4,23.6,0.3,1.8,0,0,0.5,0,3.6,58.4,62.7,0,1.5,0.5,0.5,0.3,0.3,0,0.5,0,3,0,0,20.3,1.8,8.9,0,1.3
777.3,"Wilson Tunnel","NOAA-NWS","HydroNet-UaNet","OA",314.5536,21.3771,-157.8166,NA,"WITH1",NA,NA,NA,6.31660137459213,14.7763727964332,19.7210557786719,22.8988243789008,2.61414793844268,0.85136525328203,5.20775545459504,0.448510052418601,0.297069553875886,0,3.67907085611855,64.2729087147838,88.5905139519982,0.584758942733835,5.39116293101931,1.54101552822644,3.82776785820469,0.17607229194268,0,0.198046369250591,0.118359552559333,0.809937588454233,8.70259841053235,0.195408659876718,0.257226145530257,39.4884370586095,2.22957018962105,13.2455931446023,0.811521844936401,6.7991800138601
780.5,"TANTALUS 2 780.5","NEWMAN N","COOP","OA",404,21.32711168,-157.8239234,"USC00518738",NA,NA,NA,NA,1.87046726700233,15.9734535961954,7.71793553243799,12.7660194991279,3.85847275323587,0.0835140508892013,2.70560777589434,0.0835140508892013,0.0556760339261342,0,1.33622481422722,39.117609958522,122.610376296722,10.9638479074222,5.14792975268639,3.76221505591198,4.72145127909095,1.23699771052019,0,0,0.185586779753781,0.371173559507561,1.28054878030109,0.73739810837655,0.361894220519872,7.66225949851186,13.5536495058896,4.99513000053424,5.0548888003583,2.83947773023284
781,"KANEOHE MAUKA 781","STATE HOSPITAL","COOP","OA",61,21.40849568,-157.8105878,"USC00513113",NA,NA,NA,NA,5.23639502440932,10.430293566507,7.36927470148119,27.2267951723447,8.78832617681193,2.46521192052193,0.463439563403085,2.52504988306983,0.63325432949654,0.0670688013779786,1.71112137490089,34.9977287399904,73.996863550047,0.423560773226505,1.44901220406172,0.899717081757416,1.20907937961327,0.250044587933694,0.0717986020094304,0.447125342519857,0.231445672312348,0.290631472637907,1.45030494009298,2.88758497197307,0.106947591554558,12.7501343647803,18.3351467140241,16.7582790604096,8.38722882659119,3.10022277096422
781.11,"LulukuRaingageatalt","USGS","USGS","OA",67.056,21.39184444,-157.809475,NA,NA,NA,NA,NA,8.04364343932671,19.05,15.811496444637,25.4,2.286,2.032,2.54,0.254,0.762,0,2.54,52.324,102.108,0.254,1.524,1.524,1.016,0.254,0,0.508,0,0,17.78,0,0.508,38.862,9.00366422850034,14.224,1.778,1.524
781.13,"KANEOHE 0.8 SW, HI US","CoCoRaHs","CoCoRaHs","OA",20,21.4039,-157.8017,"US1HIHN0027",NA,NA,NA,NA,5.8,19.6,2,22.6,2.8,0.3,1.5,0.3,0,0,0,1.3,116.8,40.1,0.8,0.5,0.8,0.3,0,0,1,0,1.8,4.8,0,0.8,39.9,11.4,18.8,0.8
781.7,"LULUKU 781.7","NWS","COOP","OA",84,21.3873,-157.8098,"USC00515655",NA,NA,NA,NA,NA,NA,NA,NA,NA,NA,0.3,0.3,0.8,0,NA,NA,NA,0.5,2.8,NA,NA,0,0,0.5,0,NA,NA,0,NA,NA,NA,NA,2,NA
781.9,"RBKamooaliiRaingagenrKaneohe","USGS","USGS","OA",59.484768,21.38628889,-157.7928083,NA,NA,NA,NA,NA,3.18309733129759,9.689924353645,16.6615250935108,16.5754874796054,1.14190184620076,0.758055068315019,3.31624087294139,0.209771142580404,0.380633948733587,0,1.99823963420099,47.1668590877843,56.4510297205676,0.533054465290315,1.90519350090224,0.587192262161836,1.36131147623762,0.0854314030765915,0,0.170862806153183,0.198943583206099,0.447623062213723,7.173859714598,0.0746038437022872,0.369806389359282,22.3467492377029,2.78521016488539,10.6529942768691,0.672623665238428,2.40255245891749
782.3,"Nuuanu Upper","NWS","HydroNet-UaNet","OA",248.412,21.3502007,-157.8184,"USC00516938","NUUH1","156097FE",NA,NA,7.112,11.938,25.4,27.432,1.778,0,8.636,0,0,0,4.572,130.81,81.026,1.016,7.62,0,6.858,0.254,0,0,0,2.286,3.302,0.254,0,33.02,3.048,15.24,0,6.604
783,"NUUANU RES 4 783","BWS","COOP","OA",320,21.35266525,-157.807534,"USC00516928",NA,NA,NA,NA,6.4,13.2,33.5,32.3,1.5,0.3,9.9,0.5,0.5,0,4.6,118.9,88.9,1.8,5.6,0.3,4.1,0,0,0,0.8,1.8,4.8,0.3,0.8,37.3,5.6,23.6,0.3,7.6
784,"PAUOA FLATS 784","BWS","COOP","OA",549,21.33516641,-157.8105899,"USC00517810",NA,NA,NA,NA,4.6,9.7,26.4,29.7,3,0.3,7.6,0.3,0.3,0,4.8,113.5,64.3,2.3,12.4,0.8,6.1,1,0,0,1,2,4.6,0,1.3,26.2,7.1,14.5,2,10.2
785.4,"Manoa Lyon Arbo","NWS","HydroNet-UaNet","OA",151.7904,21.3330002,-157.8024,"USC00516128","MNLH1",NA,NA,NA,6.604,16.002,40.894,20.066,5.08,0.254,6.858,1.5,0,0,5.588,18,103.886,0.762,10.668,4.064,5.8,0,0,0,0.508,0.5,3.302,0.508,0.254,61.468,3.556,13.208,0.508,18.034
787.1,"MAUNAWILI 787.1","HSPA","COOP","OA",127,21.351,-157.7668,"USC00516222",NA,NA,NA,NA,4.53869798437091,13.6188783724161,15.5437703287564,18.5534083312671,0,0.57836443882519,0.5,1.5,0,0,2.18719343395099,55.8053664875147,77.0535767308636,0.5,0,0.5,0,0,0,0,0,0,2.8,0,0.220657428635554,29.0233377757606,7.75929803575745,9.62962812063228,0.8,2.88520212182581
787.2,"Maunawili","NWS","HydroNet-UaNet","OA",127.1016,21.3509998,-157.7668,NA,"MAUH1","19007374",NA,NA,6.858,16.764,13.97,21.59,1.524,0,2.032,1.524,0,0,1.524,59.436,112.014,0,0.508,0,0.508,0,0,0,0,0,2.794,0,0,39.37,20.574,18.288,1.27,2.794
788,"ST STEPHENS SEMINARY","ST STEPHEN SEMIN","COOP","OA",143,21.3666,-157.7785,"USC00518601",NA,NA,NA,NA,2.9846191878348,11.3339540650392,8.52967010886002,15.519344250425,0.260653062987295,0.843619265826921,0.3,1.5,0.3,0,2.05425702391749,34.7215660821108,64.873831228095,0.290367156900319,0.541159610976942,0.5,0,0,0,0,0,0,6.9,0,0.200978073955555,23.3474606134655,4.80484347721115,7.26324797436901,1,2.5
788.1,"PALI GOLF COURSE 788.1","C&C PARKS & RECR","COOP","OA",146,21.37183016,-157.7839226,"USC00517656",NA,NA,NA,NA,NA,NA,NA,2.61390168371413,4.6,0.8,2.5,0,NA,NA,0.3,3.3,116.6,28.2,7.49318482664719,NA,NA,NA,0.522780336742827,0,0,NA,NA,NA,0,1.3,47.8,32,NA,NA
788.2,"St Stephens Seminary","NWS","HydroNet-UaNet","OA",142.9512,21.3666992,-157.7786,NA,"STVH1","19005598",NA,NA,2.286,18.542,12.192,17.526,0.762,0,2.032,1.524,0,0,2.794,39.878,100.33,0.508,1.016,0.254,0.254,0,0,0,0,0,6.858,0,0.254,35.56,12.954,7.366,0,3.302
790.11,"Olomana Fire Stn","NWS","HydroNet-UaNet","OA",45.1104,21.3777008,-157.7507,"USC00517052","OFSH1","19011468",NA,NA,2.286,12.446,8.636,8.382,0.254,0,0.254,0,0,0,1.778,33.02,87.376,0,0.762,0,0,0,0,0,0,0,0,0,0,24.384,13.97,4.318,0,0.762
793.1,"WAIMANALO EXPERIMENTAL FARM","CoCoRaHS","CoCoRaHS","OA",38,21.3727,-157.725,"US1HIHN0022",NA,NA,NA,NA,2.5,8.1,0.3,5.3,0.8,0,1.8,0,0,0,0,1.8,61,18.8,0,0,0.5,0,0,0,1.3,0,0,0,0,1.3,2.5,0.8,17.8,10.2
795.1,"WAIMANALO EXP F 795.1","HAES","COOP","OA",18,21.33516407,-157.7105906,"USC00519523",NA,NA,NA,NA,1.3,3,4.3,6.9,0,0,0,0,0,0,0,5.8,121.4,14.7,NA,NA,NA,NA,NA,0,0,NA,NA,NA,0,0,38.1,20.1,NA,NA
795.3,"Waimanalo Nonokio","NWS","HydroNet-UaNet","OA",20.1168,21.3356991,-157.7116,NA,"WMLH1","224185AC",NA,NA,6.604,3.302,6.096,2.286,0.508,0,0,0,0,0,4.572,39.37,86.868,0,0.254,0,0.762,0,0,0,0,0,0,0,0,24.13,17.526,2.54,0.254,0
798,"WAIANAE 798","CAPITAL INVESTMENT","COOP","OA",3,21.44683495,-158.1855845,"USC00519231",NA,NA,NA,NA,0,2.3,5.1,14.5,0,0,0,0,0,0,0,0.8,20.8,0,0,0,0,0,0,0,0,0,0,0,0,0.5,16.5,2,0,0
799,"WAIAWA PHB","RAWS","RAWS","OA",453.8472,21.48,-158.1072222,NA,"SCSH1","328FC12E",NA,NA,7.33803807440183,18.291794453618,1.81045678570711,0.229030754698965,1.09672998261216,0,0,0,0,0,1.45967145892252,71.2099935940937,43.917713538764,0,4.56778228097573,0,1.07637287940876,0,0,0,0,0,2.71842953904011,0,0,12.9408268652429,57.5178701097123,34.2200645760391,0.0916123018796066,0.281063653218826
800.3,"MAKAHA CTRY CLUB 800.3","Alan Mair","COOP","OA",80,21.47833333,-158.1963889,"USC00515758",NA,NA,NA,NA,NA,NA,NA,NA,0,0,0,0,0,0,0,0,0,0,0,0,0,0,0,0,0,0,0,0,0,0,0,NA,NA,NA
801.1,"Waianae Kawiwi","MT VIEW DAIRY","HydroNet-UaNet","OA",19.812,21.4566994,-158.18,NA,"WAIH1",NA,NA,NA,NA,3.048,11.684,0,0,0,NA,0,0,NA,0,NA,NA,NA,NA,NA,NA,NA,NA,NA,NA,NA,NA,NA,NA,NA,NA,NA,NA,NA
803.2,"WAIANAE VALLEY","RAWS","RAWS","OA",291.6936,21.48055556,-158.1552778,"USR0000HWVA","WNVH1","487005DA",NA,NA,1.30000000000001,1,6.29999999999995,0,0,0,0,0,0,0,0.5,40.2,23.6,0,4.79999999999995,0,0.799999999999955,0,0,0,0,0,0,0,0,1,16.3000000000001,4.5,0,0
804,"Lualualei","US VY","HydroNet-UaNet","OA",35.9664,21.4211006,-158.1352,"USC00515647","LUAH1","8170406C",NA,NA,0.8,0.254,12.192,0.254,0.254,0,0,0,0,0,0,13.462,17.272,0,0,0,0,0,0,0,0,0,0,0,0,1.27,18.5608627401357,3.302,0,0
810.1,"WHEELER ARMY AIR FIELD 810.1","COOP","NWS","OA",255,21.48722,-158.02806,"USW00022508","WAFH1","B14101B2",NA,NA,1.378694804007,2.91646977770708,0.954481018158656,0.424213785848339,0.265133616155189,0,0,0.062798216621698,0.272125605360692,0,1.21961463431385,3.87095079586574,37.2247597081886,0,0.265133616155189,0.104663694369497,0.115824939852748,0,0,0,0,0,10.1281041371282,0,0,2.32622706170279,29.1116710538398,25.4528271508982,0,0.530267232310379
820.6,"Mililani","NWS","HydroNet-UaNet","OA",226.7712,21.4638004,-157.9991,"USC00516261","MITH1",NA,NA,NA,2.286,0.762,0.508,3.302,1.524,0.254,0,0.254,0,0,1.778,99.314,39.37,1.27,6.604,0.254,0.508,0,0,2.54,0,0,1.27,0,2.032,37.084,27.432,9.652,0,0
821.3,"SFKaukonahuaRainGage,nrWaawa","USGS","USGS","OA",262.23468,21.48880556,-157.9960556,NA,NA,NA,NA,NA,3.8543768389557,1.2847922796519,1.23421943431892,7.20409528599027,2.5695845593038,0.176469927961088,0,0.176469927961088,0,0.493844116777613,3.6029735313246,162.571593459578,84.5281503484099,1.63042397527297,8.58673036730397,0.176469927961088,5.97445961238029,0,0,1.88816030880529,0,0,2.6229843156956,0.249358111822509,1.41175942368871,42.7957010467699,30.4805042949589,19.1209473740298,0,1.12576558335184
824.2,"Waipio","NWS","HydroNet-UaNet","OA",124.968,21.4199009,-158.0058,NA,"PECH1",NA,NA,NA,1.524,0.508,0,0.508,1.27,0,0,0,0,0,0.254,84.582,41.91,0.762,3.81,0,1.27,0,0,0,0,0,0.762,0,0,29.21,29.464,10.922,0,0
828,"SCHOFIELD EAST","RAWS","RAWS","OA",381,21.49944444,-157.9933333,"USR0000HSCH","SCEH1","325AB384",NA,NA,3.12685503976198,1.04228501325399,1.0012578996863,5.84430702889638,2.08457002650799,0.143160854962242,0,0.143160854962242,0,0.400629992842437,2.92290463939269,131.885860560782,68.5732827800757,1.32267799362667,8.59258350429132,0.143160854962242,4.84676769536815,0,0,1.53176604783303,0,0,2.12789046567942,0.202291239605154,1.14528683969794,34.7179217521697,24.7272444940805,15.5118280229464,0,0.913274942999095
832.2,"KipapaRaingagenrWaawa","USGS","USGS","OA",210.312,21.47027778,-157.9708333,NA,NA,NA,NA,NA,3.13428711353061,1.04476237117687,1.0036377422045,5.8581980856972,2.08952474235374,0.143501127223454,0,0.143501127223454,0,0.401582231313,2.92985195310644,132.199333821378,68.7362713707517,1.32582180435527,8.61300680938701,0.143501127223454,4.85828774813469,0,0,1.53540683006279,0,0,2.13294814782694,0.202772056079335,1.14800901778763,34.8004411373906,24.7860175113257,15.5486973528919,0,0.915445662991258
834.13,"Waiawa CF","NWS","HydroNet-UaNet","OA",235.6104,21.4440994,-157.9669,"USC00519257","WAWH1",NA,NA,NA,0,0,0,0,0,0,0,0,0,1.016,2.54,101.854,63.754,0.762,7.26361397160246,0,4.572,0,0,0.254,0,0,2.286,0.254,0,22.606,16.764,5.08,0,0.762
