"SKN","Station.Name","Observer","Network","Island","ELEV.m.","LAT","LON","NCEI.id","NWS.id","NESDIS.id","SCAN.id","SMART_NODE_RF.id","X2018.07.01","X2018.07.02","X2018.07.03","X2018.07.04","X2018.07.05","X2018.07.06","X2018.07.07","X2018.07.08","X2018.07.09","X2018.07.10","X2018.07.11","X2018.07.12","X2018.07.13","X2018.07.14","X2018.07.15","X2018.07.16","X2018.07.17","X2018.07.18","X2018.07.19","X2018.07.20","X2018.07.21","X2018.07.22","X2018.07.23","X2018.07.24","X2018.07.25","X2018.07.26","X2018.07.27","X2018.07.28","X2018.07.29","X2018.07.30","X2018.07.31"
2.1,"KAHUKU MAUKA","COOP","COOP","BI",957,19.1089,-155.7467,"USC00512566",NA,NA,NA,NA,1.41108685643099,0,2.17090285604768,0,0,0,3.90762514088582,0,0,0,0,0,0,0,0,0,0,0,0,0,0,0,0,0,0,0,0,0,0,0,0
2.32,"SOUTH KONA 2 2.32","COOP","COOP","BI",647,19.10778,-155.78944,"USC00518652",NA,NA,NA,NA,1.3,0,2,0,0,0,3.6,0,0,0,0,0,0,0,0,0,0,0,0,0,0,0,0,0,0,0,0,0,0,0,0
2.34,"MILOLII 2.34","COOP","COOP","BI",280,19.186302,-155.886763,"USC00516304",NA,NA,NA,NA,0,0,22.4,0,0,0.8,0,1.3,0,10.2,0,0,1,0,0,0,0,0,0,0.8,1.3,0,0,0,0,0.5,0,0.3,0,0,0
2.36,"KAPUA 2.36","COOP","COOP","BI",533,19.14472,-155.84944,"USC00513376",NA,NA,NA,NA,0,0,2,2.3,0,0,0,2.8,0,0,0,0,0,0,0,0,0,0,0,0,0,0,0,0,0,0,0,0,0,0.5,0
3.22,"HAWAIIAN OCEAN VIEW 4.7 NNE","HAWAIIAN OCEAN VIEW 4.7 NNE","CoCoRaHS","BI",1273,19.135,-155.747,"US1HIHI0035",NA,NA,NA,NA,0.8,0,16.3,0,0,0.8,0,0,11.2,0,0,0,0,0,0,0,0,0,0,0,0,0.5,0,0,0,0,0,0,0,0,0
3.23,"CAPTAIN COOK 2.9 SSE","CAPTAIN COOK 2.9 SSE","CoCoRaHS","BI",238,19.4594,-155.8938,"US1HIHI0019",NA,NA,NA,NA,0,0,0,7.6,0.3,0.3,0,1.5,NA,NA,NA,NA,NA,NA,NA,NA,NA,NA,NA,NA,NA,NA,NA,NA,NA,NA,NA,NA,NA,NA,NA
3.9,"LOWER KAHUKU CS","LOWER KAHUKU CS","RAWS","BI",953.7192,19.10083333,-155.6697222,NA,"LKHH1","32D620C2",NA,NA,0,4.80000000000001,3.29999999999995,0,0.200000000000045,14.8,9.40000000000003,3,1.30000000000001,0.199999999999989,0,0.5,0.5,0.800000000000011,0,0,0,1.5,0,1.09999999999997,3.30000000000001,0.199999999999989,5.80000000000001,0.300000000000011,0.800000000000011,0.699999999999989,0,0.5,0,1.30000000000001,0.299999999999955
4.12,"NAALEHU 4.6 WSW","NAALEHU 4.6 WSW","CoCoRaHS","BI",391,19.0424,-155.6354,"US1HIHI0001",NA,NA,NA,NA,2.96313595823348,0.515005868881667,2.65074197836058,0.924877715326495,0,0,3.40182757567538,0.924877715326495,4.88335433692389,0.992415011662751,0.110985325839179,0,0,0.184975543065299,0.369951086130598,0,0,1.68241623353116,0,0.295960868904478,0.184975543065299,0.665911955035076,0.369951086130598,1.77576521342687,0.665911955035076,1.22083858423097,0.295960868904478,0,0.369951086130598,0,0.295960868904478
4.13,"NAALEHU 5.0 WSW","NAALEHU 5.0 WSW","CoCoRaHS","BI",436,19.0424,-155.643,"US1HIHI0010",NA,NA,NA,NA,0.334666320483756,0.892443521290016,1.11555440161252,0,0,0,3.34666320483756,0,0,0.55777720080626,0,0,0,0,0,0,0,1.67333160241878,0,0,0,0,0,0,0,0,0,0,0,0,0
4.14,"NAALEHU 4.7 WSW, HI US","CoCoRaHs","CoCoRaHs","BI",393.18,19.0421,-155.6371,"US1HIHI0057",NA,NA,NA,NA,NA,0,3,0.5,0,0,3,0,0.5,0.5,0,0,NA,0,0,0,0,5.6,0,0,0,1.3,0,0.8,0.8,1.3,0,0,0,0,0
5.1,"Kamaoa Puueo 5.1","COOP","COOP","BI",317,19.01361,-155.66194,"USC00513054",NA,NA,NA,NA,0.237563140828354,0.633501708875611,0.791877136094513,0,0,0,2.37563140828354,0,0,0.395938568047257,0,0,0,0,0,0,0,1.18781570414177,0,0,0,0,0,0,0,0,0,0,0,0,0
6,"KIOLAKAA A&F 6","STATE DIV FTRY","COOP","BI",587,19.07032619,-155.6355484,"USC00514625",NA,NA,NA,NA,0.343949942271459,0.917199846057224,1.14649980757153,0,0,0,3.43949942271459,0,0,0.573249903785765,0,0,0,0,0,0,0,1.7197497113573,0,0,0,0,0,0,0,0,0,0,0,0,0
6.2,"NAALEHU 5.7 W","NAALEHU 5.7 W","CoCoRaHS","BI",679,19.0732,-155.6632,"US1HIHI0012",NA,NA,NA,NA,7.6,0.3,5.8,2.5,0,0,5.1,2.5,13.2,2,0.3,0,0,0.5,1,0,0,2.5,0,0.8,0.5,1.8,1,4.8,1.8,3.3,0.8,0,1,0,0.8
9.2,"Nene Cabin","Nene Cabin","RAWS","BI",710.4888,19.34805556,-155.1258333,NA,"AHMH1","32D64524",NA,NA,0.5,24.9,16.3,0,0,7.30000000000007,2.79999999999995,4.80000000000007,2.59999999999991,0,0,0,0,0.700000000000045,0,0,0,0,0,0,0.799999999999955,0,0,0,0,0,0,0.5,0,0,0
12.15,"SEA MOUNTAIN 12.15","SEA MOUNTAIN","COOP","BI",21,19.13310292,-155.5152744,"USC00518600",NA,NA,NA,NA,0.259100925023572,0.690935800062858,3,0,0,0,0,2.3,0,0,0,0,0,0,0,0,0,0,0,0,0,0,0,0,0,0,0,0,0,0,0
14,"NAALEHU 14","KAU SUGAR","COOP","BI",206,19.06032754,-155.5855501,"USC00516588",NA,NA,NA,NA,0.3,0.8,1,0,0,0,3,0,0,0.5,0,0,0,0,0,0,0,1.5,0,0,0,0,0,0,0,0,0,0,0,0,0
21,"Pahala","KAU SUGAR","HydroNet-UaNet","BI",346.8624,19.2042999,-155.4872,"USC00517421","PPLH1","B16084B2",NA,NA,0,1.016,0,0,0,12.7,0.762,0,0,0,0,0,0,0,0,0,0,0,0,3.048,0.254,0,0,0,0,0,0,0,0,0,0
21.3,"PAHALA MAUKA 21.3","COOP","COOP","BI",332,19.20667,-155.48861,"USC00517437",NA,NA,NA,NA,0.173076749882331,1.17373812025285,0.8,0,0,0.3,1.50994505949886,1.02425087751204,0,0.3,0,0,0,0,0,0,0,0,0,0,0.11870002009444,0,0,0,0,0,0,0,0,0,0
21.4,"HAWAIIAN OCEAN VIEW 1.7 NNE, HI US","CoCoRaHs","CoCoRaHs","BI",733.03,19.0908,-155.7552,"US1HIHI0059",NA,NA,NA,NA,1.3,0,3.6,0.5,0,0,3.6,1.3,0.3,0,0,0,0,NA,NA,NA,NA,NA,NA,NA,0,0.8,NA,NA,NA,NA,NA,NA,NA,NA,0
23,"KAHUKU","RAWS","RAWS","BI",1796.4912,19.23222222,-155.78,NA,"KRCH1","32639544",NA,NA,0,10.7,4,0,0,0.300000000000011,0.5,1.80000000000001,0,0,0,0,0,0.199999999999989,0,0,0,0,0,0.5,0.300000000000011,0,0,0,0,0,0,1.5,0.300000000000011,0,0
24.1,"OPIHIHALE 2 24.1","TRUMAN LORNA","COOP","BI",396,19.27032215,-155.8738768,"USC00517166",NA,NA,NA,NA,0,0,1,10.2,8.1,0,0,0.8,0,0.5,1.8,0.5,0,0,0,NA,NA,0,0,0,3,0,0,4.8,0,0,0,2,2.8,1.5,0
26.2,"KEALAKEKUA 26.2","GREENWELL ESTATE","COOP","BI",442,19.48975723,-155.9122125,"USC00513977",NA,NA,NA,NA,0,0,5.43051613292609,0.117243265760852,9.67652284437087,0.163087463669172,4.25808347531758,0,28.3728703141261,1.1298412077015,3.75101166439096,0,0.434899903117792,0.506298970970323,0,5.86216328804258,0.506298970970323,1.47630546300395,0.351729797282555,1.83330080226661,1.87589225217363,0,1.3590621972431,4.40336151906764,0,0,2.69659511249959,6.21389308532514,5.86216328804258,0,0
27,"HONAUNAU 27","TANAKA S","COOP","BI",332,19.4403158,-155.8788789,"USC00511665",NA,NA,NA,NA,NA,NA,0.5,0,17.8,0.3,0.5,NA,NA,1,6.9,0,0.8,0.5,NA,NA,0.5,2.5,0,1,0,NA,2.5,8.1,0,0,0,0,NA,NA,NA
27.6,"Honaunau No. 2","NWS","HydroNet-UaNet","BI",398.0688,19.4629002,-155.8824,NA,"HAUH1","15D12742",NA,NA,0,0.762,30.734,0.254,0.508,0.254,4.318,0,2.286,3.556,0.254,1.778,0,17.272,2.286,4.572,2.794,0,1.016,1.524,5.08,0.254,0,0,0,0,1.016,2.54,6.858,0,0
28,"NAPOOPOO 28","KONA EXP STATION","COOP","BI",122,19.46864784,-155.9055458,"USC00516697",NA,NA,NA,NA,NA,NA,NA,NA,NA,NA,NA,NA,NA,NA,NA,NA,NA,NA,NA,NA,NA,NA,NA,NA,NA,NA,NA,NA,0,0,NA,NA,NA,NA,NA
29.12,"Kealakekua","NWS","HydroNet-UaNet","BI",537.972,19.5181007,-155.9159,NA,"KLEH1","81708572",NA,NA,0,0,11.176,0.254,0,0,8.636,0,30.734,1.27,0,0,0,0.508,0,6.35,0.508,0.254,0.762,2.794,4.064,0,0,0,0,0.508,5.842,13.462,6.35,0,0
34,"Kapapala Ranch","NWS","HydroNet-UaNet","BI",638.556,19.2754993,-155.4514,"USC00513300","KAYH1","B16097C4",NA,NA,0,4.826,0,0,0,8.382,0.762,0,0,0.254,0,0,0,0,0,0,0,0,0,0,0,2.54,0,0,0,0,0,0,0,0,0
36.3,"KAPAPALA RANCH","KAPAPALA RANCH","RAWS","BI",1081,19.25811,-155.441781,NA,"KPRH1","AA10E258",NA,NA,0,1,0,0,0,9,0,0,0,0,0,0,0,0,0,0,0,1,0,0,0,0,0,0,0,0,0,0,0,0,0
38.9,"KAELAKOMO","KAELAKOMO","RAWS","BI",29.5656,19.29277778,-155.1075,NA,"KMOH1","32807432",NA,NA,0,0,1,0,0,6,2,0,0,0,0,0,0,0,0,0,4,NA,0,0,0,0,1,NA,0,0,0,0,1,NA,1
39,"Mauna Loa Observatory","NWS","ESRL/GMD","BI",3397,19.5362,-155.5763,"USC00516198","MOBH1",NA,NA,NA,NA,NA,6.1,NA,NA,0,NA,NA,NA,0,0,0,0,NA,NA,NA,0,0,0,0,NA,NA,NA,0,0,0,0,NA,NA,NA,0
39.1,"Mauna Loa Upper","NWS","STATE","BI",3341,19.53863295,-155.5722206,NA,NA,NA,NA,NA,NA,NA,4.77583970275938,NA,NA,0,NA,NA,NA,0,0,0,0,NA,NA,NA,0,0,0,0,NA,NA,NA,0,0,0,0,NA,NA,NA,0
39.2,"MAUNA LOA 5 NNE","MAUNA LOA 5 NNE","USCRN","BI",3398,19.5354,-155.576,"USW00021514","MLBH1","CD07379A",NA,NA,0,5.2,0,0,0,0,0,0,0,0,0,0,0,0,0,0,0,0,0,0,0,0,0,0,0,0,0,0,0,0,0
43.3,"PUHE CS","PUHE CS","RAWS","BI",34.126,20.025,-155.8211111,NA,"PHRH1","32D61558",NA,NA,0,0,0,0,0,0,0,0,0,0,0,0,0,0,0,0,0,0,0,0,0,0,0,0,0,0,0,0,0.5,0,0
48,"PALI 2","RAWS","RAWS","BI",847.344,19.3175,-155.2922222,"USR0000HPAL","PLIH1","FA900222",NA,NA,0,0,0,0,0,17,13,0,0,0,0,0,0,0,0,0,0,0,0,0,0,0,0,0,0,0,0,0,0,0,0
49,"KEAUMO","RAWS","RAWS","BI",1682.496,19.47361111,-155.3588889,"USR0000HKMO","HKMO",NA,NA,NA,1,0,0,0,1,14,3,0,0,0,0,0,0,7,0,0,0,3,0,0,0,0,0,0,0,0,0,0,0,0,1
54,"HAWAII VOLCNS NP HQ 54","HAW VOL NATL PARK","COOP","BI",1210,19.429741,-155.257146,"USC00511303",NA,NA,NA,NA,1.54142378839869,18.3162767540784,10.3448113066267,3.43449262209743,10.1358761587614,31.0417773352851,15.1291648287694,5.41464178303564,4.999141186203,0.792672437976289,3.90904018110913,1.32179817677654,0.941393370238545,13.4874203300034,1.81958080216384,0.0522996316799192,5.76224310795564,34.849246224468,1.62723396594252,2.06307918740908,7.22472461324922,0.83654074051599,0.691442868402851,0.348395887369507,7.23956563671092,2.75666734005372,0.453546755856491,2.84282123380056,0.619043051728496,7.15888644520983,6.73673064117296
54.2,"Glenwood","HELBUSH XL","HydroNet-UaNet","BI",802.2336,19.5076008,-155.1707,"USC00510744","GLNH1",NA,NA,NA,0,20.32,5.842,8.382,15.494,28.194,23.368,4.064,2.032,1.016,6.35,1.778,4.572,28.194,1.016,0.254,9.652,48.26,2.794,3.048,10.414,0.762,1.016,0.254,0.508,0,1.778,2.794,0,9.652,6.858
54.8,"Thurston","Thurston","HavoNet","BI",1202,19.41528,-155.23833,NA,NA,NA,NA,NA,1.18392709833144,8.29268249341491,8.22542709468085,3.4936266709323,12.1907631443767,37.0582860719924,18.0811204834293,3.0979304949369,3.39197406906943,0.719670270427944,3.51291247078113,0.785870196987849,0,4.826,1.524,0,2.794,18.034,0.762,1.016,2.286,0.254,0.254,0,3.81,1.27,0.254,2.286,0.508,9.144,4.572
54.9,"Ola a","Ola a","HavoNet","BI",1040,19.47833,-155.215,NA,NA,NA,NA,NA,1.85799663797529,22.0780170161096,10.0400586874152,5.16605229152925,17.8848515754009,37.4170415429058,18.236345902271,6.52668416332925,6.02584933918673,0.955469051314966,5.91090270617271,2.58445659598183,1.13473382860693,16.2574249967551,2.1932806788047,0.0630407682559404,6.94567477312649,42.0064766149093,1.96143024434652,2.48678800919828,8.70851620608463,1.00834689013249,0.833449265875866,0.419948357024792,8.72640523303717,3.32282315115752,0.546694785618552,3.42667106510233,0.746180198807216,8.62915639875046,8.12029954153463
55.3,"VOLCANO 4.4 S","VOLCANO 4.4 S","CoCoRaHS","BI",1158,19.4338,-155.2417,"US1HIHI0040",NA,NA,NA,NA,NA,NA,NA,NA,NA,NA,NA,NA,NA,NA,NA,NA,NA,NA,NA,NA,NA,NA,0.3,0,2.5,0.5,0.8,0,0,0,0,0,0,8.4,NA
55.4,"GLENWOOD NO 2 55.4","COOP","COOP","BI",671,19.52194,-155.14389,"USC00510746",NA,NA,NA,NA,2.33895435355987,33.8090090175945,11.3487535841256,8.10654448573265,18.6414213311797,30.8015763456045,34.7921297075326,9.75037350494731,6.74335319458924,2.80580312308426,8.16742940615194,7.06198563068803,7.86568760813501,25.2361573404465,8.76722498987792,0.626467106479705,13.5570711471848,50.3034018177752,4.13660338829634,4.28841146193379,19.3375875214643,6.03603699783204,2.82549377807885,7.14761488698589,5.75348218770859,6.54735189911941,14.5604357264881,2.66967854199959,4.77021352650128,14.9149358841509,15.0245331500693
63,"KALOKO-HONOKOHAU","RAWS","RAWS","BI",7.62,19.67277778,-156.0202778,NA,"KHOH1","FA667668",NA,NA,0,0,49.5,0,0,1.80000000000001,3.80000000000001,0.199999999999989,0,0,0,1.30000000000001,0,0,0,1.80000000000001,0,0,0,0,0,0,0,0,0,0,0,0,25.6,0.600000000000023,2.69999999999999
65.4,"PAHOA 2.1 E","PAHOA 2.1 E","CoCoRaHS","BI",137,19.5043,-154.9165,"US1HIHI0003",NA,NA,NA,NA,0,34.5,108.41183207743,6.54914992379158,1.5,4.8,11.9,1.3,102.9,71.1,1.8,0.5,0,95.3,110.5,0.8,1.3,7.1,0.3,2.8,11.2,2.3,2.3,1.3,4.6,5.3,0,1,5.8,50.8,19.6
65.6,"KURTISTOWN 6.6 SSE, HI US","CoCoRaHs","CoCoRaHs","BI",339.63,19.5021,-155.029,"US1HIHI0055",NA,NA,NA,NA,0.3,0.5,22.4,3.8,6.9,10.9,14,5.1,2.8,0.5,2.5,0.8,0.3,3.8,69.3,3.3,1.3,33.8,2,0.5,12.7,3.6,7.1,5.1,2.5,31.2,2.3,3.3,9.9,6.6,3.8
67.14,"PAHOA 3.0 SSE, HI US","CoCoRaHs","CoCoRaHs","BI",284.69,19.4573,-154.9338,"US1HIHI0056",NA,NA,NA,NA,3.3,51.8,279.4,3.6,24.1,NA,182.1,4.8,152.4,55.4,0.5,0.3,0,31.2,5.1,0.5,0,32.8,0.5,1.3,3.8,0.5,7.6,25.9,1.5,54.4,0.5,1,32.3,25.7,82
67.7,"PAHOA 2.7 SSE","PAHOA 2.7 SSE","CoCoRaHS","BI",259,19.4654,-154.927,"US1HIHI0051",NA,NA,NA,NA,5.8,56.1,347.2,3.6,13.7,1.8,47.8,3.8,234.2,93.2,0.5,0.3,0.3,26.2,11.4,0.8,0.3,34,0.5,1.3,2.5,1,11.4,20.6,1.3,50.5,0.5,0.8,7.9,37.8,82.6
68.14,"HONOKOHAU HARBOR 68.14","COOP","COOP","BI",9,19.67944,-156.02333,"USC00511880",NA,NA,NA,NA,NA,NA,NA,20.1,0,0,0.5,2.3,0,0,0,0,0,0,1,1.5,0,0,0,0,0,0,0,0,0,0,0,0,0,28.2,4.6
68.21,"KAILUA KONA KE AHOLE AIRPORT","KAILUA KONA KE AHOLE AIRPORT","NWS","BI",27,19.73556,-156.04889,"USW00021510","HKO",NA,NA,NA,0,0,13.7,0,0,0.3,6.1,0,0,0,0,0,0,0,0,0,0,0,0,0,0.3,0,0,0,0,0,0,0,11.4,0,0
69.25,"Palamanui","Hilo Forest Service","HIPPNET","BI",297,19.73756,-155.99582,NA,NA,NA,NA,NA,0,0,14.22,0,0,2.794,14.732,0.254,0,0,0,1.524,0.254,0,0,0,0,0,0,0,1.016,0,0,0,0,0,0,0.762,0.762,0,0
69.26,"KALAOA 2.2 ESE","KALAOA 2.2 ESE","CoCoRaHS","BI",398,19.7189,-155.9859,"US1HIHI0038",NA,NA,NA,NA,NA,NA,NA,NA,NA,NA,NA,NA,NA,NA,NA,NA,NA,NA,NA,NA,NA,NA,2.3,NA,NA,NA,NA,NA,2.8,NA,NA,3.3,NA,2.5,NA
69.27,"KALAOA 1.7","KALAOA 1.7","CoCoRaHS","BI",304.5,19.7238,-155.9926,"US1HIHI0006","","",NA,NA,2.5,0,2.3,10.2,25.4,0,1,13.7,1.3,1.3,0,0.3,0.5,0,0.5,0,0,0.5,0,0,0,0.8,0,0,0.5,0,0,0.8,0,1.8,0
70.16,"Waiaha Stream","NWS","HydroNet-UaNet","BI",460.5528,19.6331997,-155.9486,NA,"WIHH1","9321011E",NA,NA,0.254,0.254,23.368,0,0,0,42.164,0,9.398,2.54,0.254,1.016,0.254,2.54,0,4.826,2.286,0,7.874,0,5.08,0,0.254,0.254,0,1.016,0,12.446,1.016,0,1.778
70.7,"Puuwaawaa","Hilo Forest Service","HIPPNET","BI",1659,19.72544,-155.87389,NA,NA,NA,NA,NA,0.254,1.016,2.286,0.254,0.254,4.318,29.464,2.286,0,0,0.254,0.254,3.556,0,0.254,0,0.762,0,0.254,0,17.018,0,0,0,0.508,0,0,0,2.794,0,0
73.29,"Kainaliu Upper","NWS","HydroNet-UaNet","BI",713.232,19.5310993,-155.9066,NA,"KNUH1",NA,NA,NA,0,0,5.266939423471,0.113711692122271,9.38504893524245,0.158174982054648,4.12982250224829,0,27.5182294935896,1.09580840079352,3.6380245872569,0,0.421799952145728,0.491048354335622,0,5.68558460611355,0.491048354335622,1.43183654257767,0.341135076366813,1.77807855352714,1.81938707395634,0,1.3181248504554,4.2707245154755,0,0.151615589496361,2.61536891881223,6.02671968248036,5.68558460611355,0,0
73.34,"Kainaliu","SCAN","SCAN","BI",416,19.53333333,-155.9333333,NA,NA,NA,2096,NA,0,0,0,8.636,0.254,0,0,12.7,0,9.906,1.27,0,0,0,0,0,2.794,0.254,0,0.508,0.762,2.286,0,0.254,0.254,0,0.254,2.032,3.048,6.604,0
74.8,"KEALAKEKUA 4 74.8","COOP","COOP","BI",433,19.5106,-155.9217,"USC00513987",NA,NA,NA,NA,0,0,6.17881757503617,0.133398876516632,11.009905495635,0.185560204982613,4.84482880986985,0,32.282528117025,1.28552839919187,4.2678847146001,0,0.494827213286968,0.576064761337619,0,6.6699438258316,0.576064761337619,1.67973391803841,0.400196629549896,2.08592165829166,2.13438202426611,0,1.54633504152177,5.01012553453055,0,0.177865168688843,3.06817415988254,7.0701404553815,6.6699438258316,0,0
75.1,"PTA KIPUKA ALALA","RAWS","RAWS","BI",1641.348,19.66694444,-155.7077778,"USR0000HPTK","PKAH1","32666200",NA,NA,0.199999999999989,0,1.80000000000001,0.199999999999989,0,0,2.09999999999997,0,0,0,0,0,0,0,0,0,0,0,0,0,1.80000000000001,0,0,0,0,0,0,0,0,0,0
79,"KULANI CAMP 79","DEPT SOCIAL SVC","COOP","BI",1576,19.54863532,-155.3005575,"USC00515011",NA,NA,NA,NA,2.03464937008213,3.60593413179574,12.5644891951211,2.3767670814233,7.88938435085164,42.8824936448178,18.4585778257697,4.92371588965571,5.64731214522754,1.01155219734996,3.79775939125388,2.45686290338673,0.856565385281072,12.5294295176563,4.12760975699685,0,4.38956285542154,32.1976960063485,3.19589882019238,9.28262673233913,13.5560559385684,2.92765933430152,0.712007200311742,1.75686519369428,10.2442456274766,17.0606666116386,0,2.71102618564998,3.23419153517255,5.79711324829027,13.9260245878567
79.6,"Kulani NWR","NWS","HydroNet-UaNet","BI",1623.3648,19.5543995,-155.3089,NA,"KNWH1",NA,NA,NA,0.762,4.826,4.826,2.54,8.636,51.308,24.638,2.032,3.302,0,0.508,0.508,0.508,18.034,0.254,0,2.54,20.574,0.254,0.508,3.302,0.254,0,0.254,0.254,0,9.398,1.27,0,5.588,4.318
83,"QuarryRainGageatSaddleRd","USGS","USGS","BI",1286.256,19.68586111,-155.2942222,NA,"SDQH1","DDF6B6E4",NA,NA,2.794,15.24,30.226,5.842,35.306,89.408,34.036,14.478,12.7,0.254,11.176,1.524,0,30.988,5.588,0,14.478,96.266,4.064,5.588,22.098,3.048,2.032,1.524,29.972,11.938,0,7.62,2.286,10.414,19.304
85.2,"Waiakea Uka","NWS","HydroNet-UaNet","BI",303.8856,19.6585999,-155.1277,"USC00519084","WKAH1",NA,NA,NA,3.556,49.784,5.588,6.35,21.336,35.052,16.51,2.794,0.508,2.286,6.35,6.604,8.128,11.176,4.318,1.016,14.986,32.258,0.508,2.286,13.208,0.762,3.556,5.588,1.524,0,1.27,3.302,0,20.574,1.778
87,"HILO INTERNATIONAL AIRPORT 87","NWS","HydroNet-UaNet","BI",11.6,19.7191,-155.053,"USW00021504","HTO",NA,NA,NA,2.794,4.318,2.794,2.032,9.398,11.938,17.78,0,1.524,0.254,0.508,5.842,6.858,14.478,0,4.572,6.604,13.208,0,6.096,16.256,0,3.81,1.016,4.318,0,1.016,1.27,0,12.954,0
87.5,"HILO 5 S","HILO 5 S","USCRN","BI",189,19.645,-155.0827,"USW00021515",NA,NA,NA,NA,4.28820150248887,21.8045344719654,5.44120511817875,4.10386872465157,13.5289100842391,22.4682592182072,18.6230224209279,2.60654037043109,1.07398543953299,1.34394426637697,2.83623827047907,6.21233051563911,7.33318629639022,16.9,6.4,0,13,17.6,0.2,2.1,15.3,1.3,5.2,0.5,35.1,0.7,0.4,2.7,5.9,16,2.9
87.8,"HILO 0.4 SW","HILO 0.4 SW","CoCoRaHS","BI",107,19.692,-155.0925,"US1HIHI0039",NA,NA,NA,NA,0.3,3,13.2,5.3,3.6,13,14,15,3.6,1.5,1.8,3.6,0.3,5.1,15.7,2,3.8,0.3,12.4,4.6,9.7,12.2,0.3,3.8,7.1,23.6,0.3,2.3,9.7,5.1,11.9
87.9,"IPIF","Hilo Forest Service","HIPPNET","BI",111,19.69748,-155.0954,NA,NA,NA,NA,NA,5.334,8.382,6.604,3.048,6.604,15.494,15.748,4.572,0.762,1.27,1.27,4.318,4.826,17.78,0.508,2.794,7.366,26.416,1.27,2.032,13.462,2.286,3.81,2.032,22.606,0.762,0.508,7.366,2.54,12.7,0.762
88.1,"KAUMANA 88.1","HILO SUGAR","COOP","BI",343,19.68362898,-155.1405634,"USC00513510",NA,NA,NA,NA,1.6572542628937,31.4962820990024,10.190783406574,9.06149867587942,15.329685967056,28.106427413915,29.1459063729342,4.71907877672658,5.83358404268826,2.36119563757068,6.6218097291348,7.70230217232857,5.17801797844255,15.5091734342636,8.55145937319517,0.909567503973419,15.5573366612994,54.9785588463873,3.33132979601645,3.24557885473469,19.2450280251589,5.43789850820768,3.36124647589827,5.8505706614582,7.06223814308468,5.71923384929787,13.9739439739376,3.82833299589109,4.16687037591702,20.7476538329348,12.7637538462631
88.2,"WAIAKEA SCD 88.2","SHINICHI KANESHIRO","COOP","BI",287,19.65529741,-155.1205634,"USC00519025",NA,NA,NA,NA,1.66176624101217,31.5820326919113,10.21852845015,9.08616917132574,15.3714219934432,28.1829489159678,29.2252579213007,4.73192676309575,5.84946633917239,2.36762413999706,6.6398380192237,7.72327217050054,5.1921154554193,15.5513981264775,8.57474125482113,0.912043858246321,15.5996924809036,55.1282414026819,3.34039954921097,3.25441514564201,19.2974238145577,5.45270352613934,3.37039767912014,5.86649920507164,7.08146552700666,5.73480482024674,14.0119889081706,3.8387558713028,4.17821494046548,20.8041406148365,12.7985039623758
89.11,"Piihonua","NWS","HydroNet-UaNet","BI",296.8752,19.7098007,-155.1395,"USC00518053","PIIH1",NA,NA,NA,0,21.59,5.588,11.43,11.176,26.67,17.272,0,9.906,0.762,4.318,4.826,0.254,22.606,2.794,1.016,16.256,65.024,1.778,1.524,13.97,2.032,2.794,1.778,4.826,0,28.956,2.54,0,24.892,5.08
89.13,"KAIWIKI HOMESTEAD 89.11, HI US","COOP","COOP","BI",379.67,19.7509,-155.1362,"USC00512802",NA,NA,NA,NA,0.5,6.9,22.9,19.6,16.8,20.8,38.4,2.8,1,3,8.1,8.9,0.8,3.6,26.7,3,5.8,52.6,19.6,22.4,17.8,4.3,3,2.8,7.1,25.1,1.8,4.1,5.8,4.3,25.4
89.2,"AMAUULU 89.2","HILO SUGAR","COOP","BI",390,19.73529295,-155.1455638,"USC00510150",NA,NA,NA,NA,4.11160026623825,6.35429132055002,4.11160026623825,2.99025473908236,13.8299281682559,17.5677465921089,26.1647289669707,0,2.24269105431177,0.373781842385295,0.74756368477059,8.59698237486179,10.092109744403,21.3055650159618,0,6.72807316293531,9.71832790201767,19.4366558040353,0,8.97076421724708,23.9220379126589,0,5.60672763577943,1.49512736954118,6.35429132055002,0,1.49512736954118,1.86890921192648,0,19.06287396165,0
91,"MOUNTAIN VIEW 91","PU SUGAR","COOP","BI",463,19.5487,-155.1101,"USC00516552",NA,NA,NA,NA,4.3,29.5114784708515,5.46009187983934,8.47776016442271,15.318676839099,28.8514335223535,18.2008456374169,7.6,9.1,2.3,5.41619915954519,4.32254824542829,4.05710367013296,23.9,2.65789369181185,1,13.3046602513654,47.1538427297228,1.60463708290036,2.16449259277571,12.1661513874551,1.8,2.4124597350885,7.9,2.31097509290295,0,26.9,0,0,18.0928738973411,4.35741336101219
91.11,"PUNA MACADAMIA O 91.11","COOP","COOP","BI",244,19.61861,-155.08667,"USC00518315",NA,NA,NA,NA,2.2984580883282,20.2338003218095,25.9,3.12534687776933,6.62542798788935,17,18.7238750241821,5.21230650448922,6.13732858058359,5.6,0,4.6,0,10.0874947975391,5.49361733786279,0.568623135720357,2,24.9,5.6,2,12.3633657148704,3.40462121194471,1.56314633218538,0.8,0,43.2,7.71846688307384,1.70281296228033,2.67687541304561,9.95367235032473,9.9
91.12,"HAWAIIAN BEACHES 91.12","COOP","COOP","BI",88,19.533,-154.917,"USC00511300",NA,NA,NA,NA,1.59540667153252,10.6962031914327,7.05276072371251,1.50882809302782,5.65817163588625,8.22773848783855,17.2159636129788,2.39909735803968,4.48513153234648,1.31010099758756,0.903861949542598,2.91287524247054,3.72698713405249,29.8217553034491,24.9128333969353,1.93123603333889,5.72176813384739,14.3719821427178,1.58521945155002,11.2864371965078,15.1547234426721,6.21779451232313,5.7870837076005,3.75569900584168,6.76860670623619,13.6062921899912,0.722115479671007,1.33003871384051,2.73375921720285,49.1142684716254,5.87706845603589
91.14,"KURTISTOWN 91.14","COOP","COOP","BI",223,19.59,-155.083,"USC00515102",NA,NA,NA,NA,3.22149739123642,3.61907470123167,11.925807379312,2.93211308407418,5.51418150350948,14.4141170568824,39.4153281781007,6.3741459035526,5.79385710496329,1.72552996784733,2.74041359538143,6.37703769164534,4.71220860010896,16.9626124249814,8.50023164311027,2.59864686186614,5.50687385378828,26.9679075113475,3.94325698052133,16.5120643612724,17.6812563490053,4.5868581831056,3.72828841356824,3.28147405885887,8.86203350063056,24.4145530460919,11.5725175789299,1.73824533801173,5.2602908600419,12.2988706896121,16.6325534294945
91.15,"Mountain View","Mountain View","HydroNet-UaNet","BI",346.5576,19.5674992,-155.0841,NA,"MTVH1",NA,NA,NA,4.318,5.08,4.318,4.064,14.986,25.4,28.956,7.62,9.144,0.254,2.032,2.286,1.524,23.876,4.826,0.762,13.716,20.066,0.254,4.064,9.906,2.032,1.778,5.334,2.794,0,2.54,3.81,0,17.272,5.842
91.16,"MOUNTAIN VIEW 4.5 NNE, HI US","CoCoRaHs","CoCoRaHs","BI",482.19,19.5808,-155.1216,"US1HIHI0060",NA,NA,NA,NA,0,1,28.2,30.2,8.4,20.8,21.1,17.8,NA,NA,1,6.1,5.1,7.4,22.1,1.8,2.5,NA,NA,3.6,7.6,20.1,0.8,7.6,3.3,NA,NA,NA,NA,NA,NA
91.17,"PAHOA BEACON 91.9, HI US","COOP","COOP","BI",148.5,19.5407,-154.9728,"USC00517460",NA,NA,NA,NA,NA,NA,NA,0.5,NA,NA,NA,NA,NA,NA,0.5,0,NA,NA,NA,NA,NA,NA,NA,NA,NA,NA,NA,5.3,0,0,26.7,0,NA,NA,NA
91.8,"S GLEWNWOOD 91.8","COOP","COOP","BI",694,19.488,-155.149,"USC00518638",NA,NA,NA,NA,3.38092269459338,38.6924980289829,7.1587262057174,11.1151909510771,20.0843164800738,37.8271131281884,23.8631278553919,6.07611903562476,4.978916243777,2.36423568816041,7.10117846221327,5.66729280037972,5.31926843024986,26.0896606767446,3.48476429377308,0.964508010635811,17.4437394270403,61.823400975347,2.10383960358608,2.83786613613553,15.9510405093517,1.40371870360748,3.16297584470763,5.91076859637428,3.0299193351324,0,12.9814743182505,2.47707431653449,0,23.7215661120793,5.71300445177471
91.9,"Pahoa Beacon","NWS","HydroNet-UaNet","BI",187.1472,19.5149994,-154.9644,NA,"PHAH1",NA,NA,NA,1.524,24.892,5.334,0.254,6.35,10.16,5.334,0.254,2.794,2.032,0.508,0.254,1.016,66.802,57.658,1.016,7.62,6.35,0.762,1.524,13.462,9.398,11.176,4.572,8.636,0,1.016,0.254,0,109.474,1.016
92,"KEAAU 92","PU SUGAR","COOP","BI",87,19.62918887,-155.0333418,"USC00513872",NA,NA,NA,NA,1.00369481484235,2.3702165626894,11.4,2,0.3,7.73533997762933,25.8140191579295,2.81380839492192,8.1,1.3,1.5,2.3,4.7184673907193,6.0393557570124,5.56700026676425,1.70461224171755,1.8,20.8,3.6,23.9,11.5798678135345,3.00404057219495,1.73633442345049,4.49651556812804,5.8,37.6,0.926905698512293,2.99222887394787,3.44508736357162,11.4,15.2
92.5,"KiholoRainGage","USGS","USGS","BI",283.96692,19.82580556,-155.8925833,NA,"KIRH1","DD60236E",NA,NA,0,0,0,0,0,0.508,0,17.78,0,0,0,1.524,0.254,0.254,0,0,0,0,0,0,0.508,0,0,0,0,0,0,0,0,0,0
93.11,"KAPOHO BEACH 93.11","ARRUDA GENVIEVE","COOP","BI",4,19.48892483,-154.8200037,"USC00513368",NA,NA,NA,NA,0.0715698117507162,10.8710794081945,6.29814343406303,2.52880001519197,1.300376057995,4.5142811235542,6.84279519645892,3.96115712892403,31.1483662862761,21.2867652839093,0.959264850887986,1.00601718000406,0.0715698117507162,29.2690878722986,36.2721428329528,0.712619180730858,1.28921749023062,2.16151784548638,3.04652654909355,1.92160863855227,5.61091001343833,3.58753109724162,0.748595231129874,1.28921749023062,3.0478697168586,7.19026057774165,0.0715698117507162,0.843060768079762,4.02137207228726,16.1701178017018,8.60836987473413
93.12,"PUUANAHULU","RAWS","RAWS","BI",830.58,19.83277778,-155.7697222,NA,"PULH1","48703040",NA,NA,0,0,0,0,0,0,8.60000000000002,0,0,0,0,0,0,0,0,0,0,0,0,0,0,0,0,0,0,0,0,0,0,0,0
93.13,"Mamalahoa","Hilo Forest Service","HIPPNET","BI",636,19.80256,-155.85062,NA,NA,NA,NA,NA,3.302,0,0,0,0,0,3.556,13.97,0,0.254,0,12.446,1.778,0,0.254,0,0,0,0,0,1.27,0,0,0,0,0,0,0,2.54,0,0
93.61,"PAHOA 4.7 NE, HI US","CoCoRaHs","CoCoRaHs","BI",53.95,19.5473,-154.8988,"US1HIHI0065",NA,NA,NA,NA,0,1.5,13.2,0.3,0,3,18.5,0.8,5.6,0,0.5,0,0.3,NA,0.5,1.5,7.1,11.9,0,2,15.7,2.5,0,1.8,1.3,13.7,0.3,0.5,4.3,1.5,0.3
94,"KAUPULEHU LAVA FLOW","RAWS","RAWS","BI",372.1608,19.80333333,-155.9180556,NA,"KPLH1","4870E628",NA,NA,0,0,2,0,0,0.800000000000011,3.59999999999999,2,0,0,0,0,0,0.199999999999989,0,0,0,0,0,0,0.600000000000023,0,0,0,0,0,0,0,0.199999999999989,0,0
94.5,"PUU WAAWAA","RAWS","RAWS","BI",708.9648,19.795,-155.8452778,"USR0000HPUW","PWWH1","487046D0",NA,NA,2.79999999999995,0,0,0,0,0,4,9.20000000000005,0,0,0,0.5,1.69999999999999,0.300000000000011,0,0,0.299999999999955,0,0,0,0.700000000000045,0,0,0,0,0,0,0,1.29999999999995,0,0
95.11,"WAIKOLOA VILLAGE 2.7 ENE","WAIKOLOA VILLAGE 2.7 ENE","CoCoRaHS","BI",265,19.9465,-155.7883,"US1HIHI0047",NA,NA,NA,NA,NA,0,0,0,0,0,0,0,0,0,0,0,0,0,0,0,0,0,0,0,0,0,0,0,0,0,0,NA,0,0,0
95.6,"WAIKOLOA","RAWS","RAWS","BI",297.7896,19.92416667,-155.7936111,NA,"WKVH1","4870C0C4",NA,NA,0,0,0,0,0,0,0,3.59999999999997,0,0,0,0,0,0,0,0,0,0,0,0,0,0,0,0,0,0,0,0,1.5,0,0
95.8,"WAIKOLOA 95.8","BOISE CASCADE","COOP","BI",268,19.93389178,-155.7877744,"USC00519142",NA,NA,NA,NA,NA,0,0,0,0,0,0,0,0,0,0,0,0,0,0,0,0,0,0,0,0,0,0,0,0,0,0,NA,0,0,0
95.9,"WAIKOLOA BEACH RT 95.9","COOP","COOP","BI",24,19.91278,-155.87778,"USC00519144",NA,NA,NA,NA,0,0,0,0,0,0,0,0,0,0,0,0,0,0,0,0,0,0,0,0,0,0,0,0,0,0,0,0,0,0,0
98.1,"PUUKOHOLA HEIAU 98.1","ROSE FUJIMORI","COOP","BI",43,20.02666416,-155.81944,"USC00518422",NA,NA,NA,NA,0,0,0,0,0,0,0,0,0,0,0,0,0,0,0,0,0,0,0,0,0,0,0,0,0,0,0,0,0,0,0
98.2,"PUHO CS","PUHO CS","RAWS","BI",29.5656,19.42194444,-155.9075,NA,"PERH1","32D6803A",NA,NA,0,0,1,0,0,0,0.5,0,0,0,0,0,0,0.699999999999989,0,0,0,0,0,0,6.10000000000002,0,0,0,0,0,0,0.299999999999955,1.30000000000001,0,0
98.91,"HOLUALOA 0.95","COOP","COOP","BI",527.3,19.6225861,-155.927558,"US1HIHI0067",NA,NA,NA,NA,1,NA,0,39.6,0.5,NA,0.5,26.7,0.5,0.3,0,1.8,NA,3.6,4.6,0.8,2.3,4.3,NA,1.8,NA,4.3,NA,0.5,NA,NA,0.5,6.4,NA,NA,0
99,"PTA WEST","RAWS","RAWS","BI",1307.592,19.77166667,-155.7022222,"USR0000HPTW","PKWH1","32667176",NA,NA,0,0,2,0,0,0.5,4.09999999999999,0,0,0,0,0,0,0,0,0,0,0,0,0,0,0.299999999999983,0,0,0,0,0,0,0,0,0
100,"Waikii","PARKER RANCH","STATE","BI",1417,19.82,-155.6508,NA,NA,NA,NA,NA,0,0,1.778,0,0,0,0,0,0,0,0,0,0,0,0,0,0,0,0,0,0,0,0,0,0,0,0,0,0,0,0
101.1,"PTA KEAMUKU","RAWS","RAWS","BI",1025.9568,19.90222222,-155.6786111,NA,"PKMH1","328FB7BE",NA,NA,0,0,0,0,0.300000000000011,0,0,0,0,0,0,0,0,0,0,0,0,0,0,0,0,2,0,0,0,0,0,0,0,0,0
102.8,"AUHMOA","RAWS","RAWS","BI",2001.9264,19.83638889,-155.6130556,NA,"AHMH1","4870D3B2",NA,NA,0,0,3.59999999999997,0,0,1.5,4.30000000000001,0,0,0,0,0,0.5,0,0,0,0,0,0,0,3.30000000000001,0.300000000000011,1.19999999999999,0,0,0,0,0,0,0,0
103.3,"Mana House","Mana House","SCAN","BI",1288,19.96,-155.54,NA,NA,NA,2097,NA,0,0,0.254,9.652,0.254,25.908,18.034,3.302,0.254,0,0,21.59,14.224,0,0,0,0,0,2.54,0.762,1.524,31.242,18.796,0,4.826,13.208,0.254,0,6.604,0.254,0
104.1,"Silversword","Silversword","SCAN","BI",2835,19.77,-155.42,NA,NA,NA,2101,NA,0,0.762,0,1.016,0,0.254,16.764,3.556,0,0,0,0,0,0,5.334,0.254,0,0.762,15.748,0,0,1.016,0,0,0,0,0,0,0,0,0.762
107.4,"PTA EAST","RAWS","RAWS","BI",1959.864,19.68277778,-155.5452778,"USR0000HPTA","PTAH1","3266D18E",NA,NA,0,0.199999999999989,0,0,0.300000000000011,3,0,0.799999999999955,0,0,0,0,0,0.800000000000011,0,0,0,1.5,0,0,0,0,0,0,0,0,0,0,0,0,0
109,"PTA RANGE 17","RAWS","RAWS","BI",1734.312,19.74583333,-155.6261111,NA,NA,"3279630C",NA,NA,0,8.70000000000002,2.29999999999998,0,0,0,0,0,0,0,0,0,0,0,0,0,0,0,0,0,0,0,0,0,0,0,0,0,0,0,0
113.2,"PUU MALI","RAWS","RAWS","BI",2165,19.92666,-155.44,NA,"PMLH1","3181742E",NA,NA,0,0,0,0,0,2.30000000000007,0,0,2.79999999999995,0,0,0,0,0,0,0,0,0,0,0,0,0,0,0,0,0,0,0,0,0,0
125.12,"Pua Akala","SCAN","SCAN","BI",1949,19.8,-155.3333333,NA,NA,NA,2098,NA,0,2.54,2.032,4.826,0.508,8.382,49.784,9.652,0.508,1.524,0,0,0.254,0.254,16.764,0.254,0,2.794,36.322,0,0,8.382,0.254,0,0,4.572,0.762,0,1.016,1.016,5.08
127.5,"Laupahoehoe","Hilo Forest Service","HIPPNET","BI",1145,19.93217,-155.29129,NA,NA,NA,NA,NA,2.032,3.81,13.97,1.778,17.78,114.046,14.478,1.016,0.508,0,14.224,2.794,2.794,8.636,0.762,0,4.572,48.768,1.778,1.016,14.986,0.508,0,0,15.494,0.508,0,1.016,2.032,1.27,6.604
128.1,"Hakalau","Hilo Forest Service","HIPPNET","BI",1665,19.83873,-155.30797,NA,NA,NA,NA,NA,2.00270374886413,3.68668305388456,10.7900179793954,1.32278087860063,11.5780664285634,55.9765935130759,11.5350177646311,2.66584350208339,3.04033764875416,0.0435497752448898,4.48527849452049,0.765941012562172,0.504642361092833,11.8849984860939,1.09572479023108,0,3.69366346299339,37.265651661981,1.0179324518864,1.14160136851224,10.7365750796046,0.614350459501011,0.348398201959119,0.261298651469339,9.47953621394285,2.13859259307215,0,1.87554743544503,1.14450846842701,2.01492367644632,6.04476541381664
129,"HAKALAU","RAWS","RAWS","BI",1950.72,19.82111111,-155.3305556,"USR0000HHAK","HKUH1","8374D370",NA,NA,3,1,8,0,6,52,8,0,2,0,0,0,0,13,0,0,1,31,0,0,11,0,0,0,4,0,0,1,1,0,4
132.2,"Spencer","Hilo Forest Service","HIPPNET","BI",454,19.96358,-155.25014,NA,NA,NA,NA,NA,1.27,3.302,23.114,11.938,31.75,43.942,21.59,0.508,0,0,27.178,22.352,21.336,4.572,0,0,8.382,56.896,3.81,3.556,27.178,1.524,0,3.048,30.226,3.048,1.524,10.414,1.524,6.096,1.016
132.3,"POHAKUPUKA","COOP","COOP","BI",82,19.9522,-155.185,"USC00518067",NA,NA,NA,NA,1.39720843447413,1.04972169943952,6.38295185757349,1.16143304642349,3.77741571592889,20.2763303774734,34.7950617659294,6.44295661337111,6.39761459783329,2.77350565627703,4.03339795083404,9.25445733174471,4.95244292854028,4.81315039311621,5.74172005268173,0.281175455207013,1.92358628669351,16.9803955640498,5.84499213809291,4.89315976032334,15.7969829983038,10.1336146451027,3.00491292954514,2.00452543050423,4.85071707129137,13.9741443163575,1.16676066100856,2.67587973145216,4.73349014476145,3.14975155121127,11.5574363787029
132.4,"KAPEHU MAUKA 132.4","COOP","COOP","BI",335,19.95,-155.217,"USC00513329",NA,NA,NA,NA,2.18228644970505,1.63955025186375,9.96947127158229,1.81403113301672,5.45275640221237,12.4832929302631,32.6131310459132,10.0631921240078,9.99237286492726,22.2398721724245,6.29972556505935,20.1770993539726,7.60102720912004,10.7853924585033,8.96793746717044,0.439165246034933,3.00443096728774,26.5215169302957,9.12923714663483,7.40087071513289,24.6731561969094,13.5753688445037,27.1852009885272,3.13084903951713,7.5762884583618,21.8260819469556,1.82235228312675,4.17943088153936,7.39319284642965,2.19193363868287,16.4416983265089
132.5,"KIHALANI 132.5","COOP","COOP","BI",302,19.97278,-155.23944,"USC00514459",NA,NA,NA,NA,1.98780180049994,2.25759690038247,10.677528767291,4.16998867478384,12.9331560016513,22.2810029644808,21.2105167860363,5.34206961583944,7.03259833593442,16.6047948977288,11.5285678270356,20.3883900101105,11.0671855105852,9.62569272706372,2.90606022765206,0.343235459958904,3.64500741352832,29.2495048019255,6.52079801774423,5.65437236508425,21.9410315915436,9.65035308725184,3.26406767067273,1.35874067982449,11.6867301156485,13.6079443774076,1.87483045133744,5.41273691064145,3.05833311401003,3.26665809558324,5.81501418996616
133.1,"LAUPAHOEHOE 133.1","BARNARD EW","COOP","BI",140,19.98027372,-155.2305601,"USC00515427",NA,NA,NA,NA,1.17118061222286,0.879907157929455,5.92496103638485,1.01631139696411,2.52191098482608,6.69948285597376,17.5026824686647,5.40067300253119,7.16332190531638,11.7766434180577,2.83136783282698,10.1253763055995,4.07928835442433,5.78826053945438,4.81287618983135,0.235689417302532,1.32006605502806,14.5288049931983,4.74163699687409,10.0482833389206,13.241489074027,5.85176719479255,3.35849952934221,1.68025132327363,3.56038879982678,19.5609375260118,0.978012608256162,2.24299995962765,3.96774865432237,4.29084774308729,8.16706272145601
133.3,"Laupahoehoe","NWS","HydroNet-UaNet","BI",499.872,19.9792,-155.2372,NA,"LPHH1","B159741A",NA,NA,0.984584297520893,15.9129777507277,6.78839734340436,6.15496950732246,12.9745774727772,28.702,32.512,0.681203640850121,2.33616924085827,0,7.42874745220816,6.68601510312461,5.7845651890696,7.62,0,0.441557474050901,8.37987402486196,32.1266224799081,1.22529581908455,1.49272943475117,11.0381602815696,7.366,1.37393301021873,2.14589816285092,7.10689929355036,0.574922800368054,7.07123432160649,3.22786320963019,0.287461400184027,11.0633206277035,1.70761182520257
137.4,"WAILEA 137.4","WAILEA 137.4","COOP","BI",61,19.8875,-155.12528,"USC00519432",NA,NA,NA,NA,0.25820843925164,2.65453913324159,12.1854704686857,5.42091515779756,1,13.6234916121638,32.2828876952213,3.96023550490825,1.27613729537805,3.85200419868617,3.87454679233016,19.3,0.3,2.55425435384409,12.2276866009557,0.950128757331694,3.44365745290933,27.6956863963683,10.7268486885873,10.7,11.4865961313231,7.20357283360286,0.8,2.91514677066028,5.89465247261024,14.1188275993462,1.48673798174344,3.96667780440852,5.34106585091558,6.1,3.6
138.2,"KAHUNA FALLS 138.2","COOP","COOP","BI",424,19.86139,-155.16361,"USC00512595",NA,NA,NA,NA,0.3,5.6,16.8,2.8,15.5,40.6,64.8,3.8,1.5,11.4,3.8,11.2,20.8,7.6,12.7,1.5,5.1,40.6,22.9,4.6,12.2,11.0018916118076,1.94702215320056,2,6.4,21.8,5.1,10.2,5.1,6.4,24.1
138.3,"HONOMU 2.8 SW","HONOMU 2.8 SW","CoCoRaHS","BI",385,19.8494,-155.15,"US1HIHI0014",NA,NA,NA,NA,0.389932825003718,4.00874559448096,18.4018575753187,8.1863813890508,11.4049287622937,20.5734815877508,48.7519216442321,5.98053968562955,1.92715552644822,5.81709445079782,5.85113709188264,9.34679879201656,8.80764224840178,3.85730078714361,18.4656101612701,1.43483455280313,5.20043063987311,41.8245711420308,16.1991235633159,10.2394252974626,17.3464542527928,10.8784573938319,1.64453269636333,4.40230156256137,8.90179460331277,21.3215119827598,2.24519362318969,5.99026850801406,8.06579715912664,3.81553957604551,26.4716713399541
140.1,"PAPAIKOU MAUKA NO 2 140","MAU KEA SUGAR","COOP","BI",427,19.78695738,-155.1388973,"USC00517724",NA,NA,NA,NA,0.3,0,12.7,2.5,2.3,1.5,34.3,8.6,2.5,2.5,4.6,6.4,3.8,0.5,13.2,0,3.8,26.7,5.6,3.8,17.3,10.2,1.3,6.4,10.2,14,0,3,10.2,0.8,23.6
140.5,"KAUKU 140.5","COOP","COOP","BI",457,19.835,-155.149,"USC00513473",NA,NA,NA,NA,0.234982365383115,12.9151098822974,14.1706447672542,7.91058504110262,11.9082667897665,27.8173989537129,45.8402683189409,5.14196652681505,6.69845579982896,5.30427299193,5.54840706666688,9.07831770880662,8.75261058668577,14.3251784414877,11.6038371710984,1.01843128355177,11.7321318021803,58.825662286586,11.0425101423065,4.02251059715066,19.0101931256254,6.00541312584465,3.71203575702844,4.46204163177887,9.19849565327582,13.556409965901,16.5208275763485,6.04172924164354,6.29556864547286,15.2325272898483,21.2525686822362
144.1,"PAPAIKOU 144.1","MAU KEA SUGAR","COOP","BI",61,19.78362447,-155.0922318,"USC00517711",NA,NA,NA,NA,0.953883686137167,2.25258801612584,7.4,1.7037869154576,0.898484872000132,5.8,24.532927125113,2.67416537790265,3.41166593899141,1.3,2.5,3.60108836634784,0.970728698205979,5.73963603896623,5.29072249518569,1.62001614885244,2.5,23.1,2.5,9.05890758746231,11.0051848745381,2.99831675423034,1.65016402965871,7.6,6.4,6.9,0,2.84373124762606,3.27411538331442,5.40831108317224,22.1
144.11,"PEPEEKEO 0.2 SSE","PEPEEKEO 0.2 SSE","CoCoRaHS","BI",178,19.8313,-155.1077,"US1HIHI0002",NA,NA,NA,NA,1.27618555645246,16.9210483709635,9.23995369732147,3.36223347047548,4.42587998397422,20.412306401538,29.6687768449963,4.28094697238906,1.23540974470475,3.97014064583715,4.2083786097017,10.8431585367723,5.80262265992376,5.34085263251249,8.08835869340508,0.649671481349988,6.97715398156257,27.0498678911088,6.860340740701,5.73316242379155,12.0037268566336,3.28324540179039,1.7769866153819,4.10988823930123,4.92904549270135,8.96469651663547,1.52039501949271,4.17598238435127,4.16318645189031,3.69046549105324,13.5414871386424
144.12,"PAPAIKOU 1.1 N","PAPAIKOU 1.1 N","CoCoRaHS","BI",108,19.8095,-155.0988,"US1HIHI0011",NA,NA,NA,NA,2.28566321983706,4.75666977720431,11.4405834288203,2.80932205517356,5.23035073483631,17.1724999106288,35.1179745799839,5.82012074021129,1.57103727137161,4.34078212985928,3.10859108779152,12.8140669033298,6.85733725342852,9.15562759052106,8.15039289498653,1.49038800829869,5.5662691129876,30.3613811648474,8.41857779616905,6.77525156687321,14.57107273656,5.19092128085594,2.27691319654581,3.57631305033893,14.1659169651338,10.8944555789407,1.52390157568803,6.60792268450571,5.9208741113622,4.36126351435444,16.0028576153969
147.1,"MIDDLE PEN 147.1","KAHUA RANCH","COOP","BI",421,20.10027112,-155.8322151,"USC00516270",NA,NA,NA,NA,0,0,0,0,0,0,0,0,0,0,0,0,0,0,0,0,0,0,0,0,0,0,0,0,0,0,0,0,0,0,0
147.2,"KOHALA RANCH","KOHALA RANCH","RAWS","BI",328.8792,20.08305556,-155.8325,NA,"KHRH1","4870B654",NA,NA,0,0,0,0,0,0,0,0,0,0,0,0,0,0,0,0,0,0,0,0,0.599999999999994,0,0,0,0,0,0,0,0,0,0
176.3,"Kahua Ranch HQ","KAHUA RANCH","HydroNet-UaNet","BI",987.552,20.1249008,-155.7884,NA,"KASH1","15D293C2",NA,NA,0,0,0.508,0,5.334,30.226,4.826,0.254,0,0,1.27,0.254,7.366,1.016,0,0,1.27,12.7,0.254,0.508,4.318,6.604,2.032,0,0.254,0,0,1.524,0.254,0.254,0.254
178.12,"PONOHOLO RCH 178.11","PONOHOLO RCH 178.11","COOP","BI",762,20.12554592,-155.7774941,"USC00518101",NA,NA,NA,NA,0,0,0,0,0,29.7,10.7,0,16.5,0,0,0,0,0,0,0,0,0,41.1,0,0,0,19.1,0,0,0,0,0,5.8,0,0
185.7,"KawainuiRainGagenearKamuela","USGS","USGS","BI",1237.488,20.08533333,-155.6811667,NA,"KWSH1","DDF6A592",NA,NA,0.254,4.572,19.304,5.588,36.068,141.732,29.21,1.778,1.016,0.254,39.116,14.986,52.07,13.462,0,2.032,8.382,51.054,8.89,5.588,52.832,33.528,1.27,7.874,40.64,6.858,8.89,11.176,3.302,6.604,0.254
189,"Waimea Plain","SCAN","SCAN","BI",927,20.01666667,-155.6,NA,NA,NA,2099,NA,0,0,0,0.254,0.508,3.556,20.574,0,0,0.254,0,7.874,0.762,6.858,0,0,0.254,0.762,1.27,0.762,0,2.54,6.35,0,0,4.064,0.508,0.254,0,0,0.508
191.1,"LALAMILO FLD OF 191.1","DOWALD","COOP","BI",799,20.01083015,-155.6763867,"USC00515260",NA,NA,NA,NA,NA,NA,0,NA,NA,8.6,NA,NA,NA,0,0,0,0,NA,NA,NA,0,1,0.5,0,NA,NA,NA,0,0,0.5,NA,NA,NA,NA,0
192.7,"Kamuela Upper","NWS","HydroNet-UaNet","BI",948.5376,20.0319996,-155.6667,"USC00513080","KUUH1","817075F6",NA,NA,0,3.81,5.334,2.032,8.89,55.88,7.874,0,0,0,16.002,2.032,25.4,0,0,0,2.794,12.7,3.048,3.556,12.192,12.192,0.508,3.302,6.35,2.54,1.524,2.032,0,1.524,0
199,"KUKUIHAELE HIC 199","HONOKAA SUGAR","COOP","BI",299,20.11526922,-155.5822202,"USC00514928",NA,NA,NA,NA,3.85102397409066,0,0,0,0,0,0,10.7828671274538,16.6877705543929,34.915950698422,6.54674075595412,27.9841075450588,0,16.3026681569838,0,0,0,7.83041541398434,0.385102397409066,8.85735514040852,27.7273726134528,13.3502164435143,7.44531301657528,0,3.20918664507555,19.2551198704533,0.64183732901511,0,3.59428904248462,0,0
201.3,"Kamuela 1","NWS","HydroNet-UaNet","BI",877.824,20.0394993,-155.6084,NA,"KMUH1","81706680",NA,NA,0,1.016,1.524,1.016,6.604,33.02,1.016,0,0,0,17.526,0.762,21.844,0,0,0,0.762,1.524,2.032,1.016,9.144,20.828,1.016,0.762,7.112,2.286,1.016,0.762,0.254,0,0
206.1,"KUKUIHAELE 206.1","COOP","COOP","BI",226,20.12167,-155.57417,"USC00514927",NA,NA,NA,NA,0.794701806939394,0,2.87053918718053,1.30750172941919,4.78761983972119,25.7721441023904,14.7436343650849,4.22987665191042,3.44370783007071,7.20529638291717,2.73655434649286,21.4908074239779,3.50051383605376,3.77427572174202,0,0,0,2.91659127721762,0.446940076953123,2.4895326498509,18.4771463836548,8.28036961715621,10.8985660788603,1.04518461289688,6.76394999687413,9.12701469631611,1.31249744474982,1.48348783766009,2.90558623353689,0,0
214,"HAINA 214","HONOKAA SUGAR","COOP","BI",140,20.09193527,-155.4738903,"USC00510840",NA,NA,NA,NA,2.81068672806261,0,0,0,0,0,0,7.86992283857531,12.1796424882713,25.4835596677677,4.77816743770644,20.424323557255,0,11.898573815465,0,0,0,5.71506301372731,0.281068672806261,6.464579474544,20.2369444420508,9.74371399061705,5.43399434092105,0,2.34223894005218,14.0534336403131,0.468447788010435,0,2.62330761285844,0,0
215,"HONOKAA TOWN 215","HONOKAA SUGAR","COOP","BI",326,20.08026947,-155.4672231,"USC00511856",NA,NA,NA,NA,0,0,6.9,2,0,24.6,25.1,2.8,0,0,2.3,24.9,5.1,0.8,0,0,0,2,0,1.3,20.3,3.8,32.5,0,2.5,15,0,0,6.1,0,0
215.5,"Honokaa","NWS","HydroNet-UaNet","BI",591.9216,20.0656,-155.49,NA,"HNKH1","B15047DC",NA,NA,0.859876958091236,0,2.11194091700216,0.612156787536859,0,7.52952848670337,7.68256768358758,3.26467498520706,3.72613348506202,7.79621775336054,2.16577113442249,13.8697912336302,1.56099980821899,3.88500850426764,0,0,0,2.36057326898904,0.0859876958091235,2.3756189155088,12.404505491756,4.14400468436965,11.609976583117,0,1.48176011616377,8.89056069698262,0.143312826348539,0,2.66963002953924,0,0
216.6,"HONOKAA 2.5 SSW","HONOKAA 2.5 SSW","CoCoRaHS","BI",757,20.0417,-155.4777,"US1HIHI0033",NA,NA,NA,NA,0.3,0.3,2,7.1,0.3,60.2,37.1,0.8,0,0.3,0.5,61.7,2.8,50,0,0,0.3,0,0.5,5.1,11.4,14.7,46,0,1.8,17.3,0.3,0,0.8,0.3,0
216.8,"KALOPA 216.8","COOP","COOP","BI",396,20.06111,-155.43528,"USC00512982",NA,NA,NA,NA,0.966409631288678,0,2.37359545885981,2.21432145901308,0,15.8437808378685,14.9898914303297,4.24464387616396,4.1877750689176,8.76211399035068,3.459983937948,23.2698175125477,2.90539414617946,5.11698412450215,0,0,0,3.22853035201832,0.296814441854848,3.37054847192775,17.2441983840911,6.50902223243161,18.0777292173866,0,2.36594688960751,13.0947272046522,0.161068271881446,0,4.32652760446453,0,0
216.9,"HONOKAA 2.7 ESE","HONOKAA 2.7 ESE","CoCoRaHS","BI",333,20.0606,-155.43,"US1HIHI0034",NA,NA,NA,NA,0,0,0,6.1,0,29.5,25.4,2.3,0,0,4.1,30.7,4.6,3,0,0,0,2.3,0.8,2.8,13.2,7.4,20.1,0,2.8,12.4,0,0,5.3,0,0
217,"PAAUHAU 217","PAAUHAU SUGAR","COOP","BI",122,20.08360173,-155.4372236,"USC00517204",NA,NA,NA,NA,2.62204539473685,0,0,0,0,0,0,7.34172710526319,11.3621967105264,23.7732115789475,4.45747717105265,19.0535298684211,0,11.0999921710527,0,0,0,5.3314923026316,0.262204539473685,6.03070440789476,18.8787268421053,9.08975736842109,5.06928776315792,0,2.18503782894738,13.1102269736843,0.437007565789476,0,2.44724236842106,0,0
217.2,"PAAUHAU MAUKA 217.2","COOP","COOP","BI",341,20.07306,-155.44722,"USC00517209",NA,NA,NA,NA,0,0,2.5,3.00730152933234,0.0572774225360108,22.6247423173774,20.8,3.3,0,0,2,23.6,5.6,0.5,0,0,0,2,1,0.8,9.0282710063711,3.96002320576965,14.076699916425,0.0954623708933513,1.22138487910446,8.20630125152198,0.0572774225360108,0,2.80268414000658,0,0
221,"PAAUILO 221","HAMAKUA MILL","COOP","BI",244,20.03860487,-155.3688913,"USC00517312",NA,NA,NA,NA,3,0,0,0,0,0,0,8.4,13,27.2,5.1,21.8,0,12.7,0,0,0,6.1,0.3,6.9,21.6,10.4,5.8,0,2.5,15,0.5,0,2.8,0,0
221.7,"PAAUILO 2.4 SW","PAAUILO 2.4 SW","CoCoRaHS","BI",613,20.019,-155.3988,"US1HIHI0050",NA,NA,NA,NA,0,0,2.5,7.1,0.3,56.6,32.8,1.5,0.3,0,0.3,72.1,1,25.9,0.5,0,0,1.3,1,4.3,7.1,8.4,10.4,0.5,0.3,10.7,0.3,0,1.3,0,0
222,"KUKAIAU 222","HAMAKUA MILL","COOP","BI",256,20.02693892,-155.3422253,"USC00514815",NA,NA,NA,NA,4.28481322155951,0,0,0,0,0,0,11.9974770203666,18.5675239600912,38.8489732088062,7.28418247665117,31.1363094099991,0,18.1390426379353,0,0,0,8.71245355050434,0.428481322155951,9.85507040958687,30.8506551952285,14.854019168073,8.28397222834839,0,3.57067768463293,21.4240661077976,0.714135536926585,0,3.99915900678888,0,0
223,"OOKALA 223","LAUPAHOEHOE SUG","COOP","BI",131,20.01527222,-155.2838932,"USC00517131",NA,NA,NA,NA,3.72611401693525,2.39830217772396,1.55184258558609,1.12861278951716,5.21983415151684,6.63060013841329,9.87536190827511,6.08796000777766,10.2683024613176,19.8544709095887,3.97841463067287,19.0444675043324,3.8090681646204,17.2457818513545,0,2.5393787764136,3.66799156593076,11.7570017089381,0.217427143134916,8.38666266065455,24.6836566218512,7.53747429534377,6.31974041428639,0.564306394758578,4.21019503718159,10.8713571567458,0.926684966650105,0.705382993448222,2.02932000259255,7.19490653317187,0
249.1,"MAKENA GOLF CRS 249.1","MAKE GC","COOP","MA",30,20.6420893,-156.4388486,"USC00515842",NA,NA,NA,NA,NA,NA,0,0,0,0,4.3,NA,NA,0,0,0,NA,NA,NA,NA,0,0,NA,NA,NA,NA,NA,0,0,0,0,0,0,NA,NA
250,"ULUPALAKUA RANCH 250","ULUPALAKUA RANCH","COOP","MA",579,20.648174,-156.398497,"USC00518760",NA,NA,NA,NA,NA,NA,42.7,NA,NA,0,NA,NA,NA,0,0,0,7.1,NA,NA,NA,0,0,0,0,NA,NA,NA,0,0,1.5,0,NA,NA,NA,0
250.2,"Ulupalakua Ranch","NWS","HydroNet-UaNet","MA",581.5584,20.6487999,-156.3981,NA,"ULUH1","8170531A",NA,NA,0,41.91,0.762,0,0,0,0,11.938,0,0,0,6.604,0.254,0,0,0,0,0,0,0,2.286,0.508,0.508,0,1.524,0,0,1.27,0.508,0,0
253,"AUWAHI HN-141","HaleNet","HaleNet","MA",1166,20.64422222,-156.3420556,NA,NA,NA,NA,NA,NA,NA,NA,NA,NA,NA,NA,NA,NA,NA,0,3.302,NA,NA,NA,0,NA,NA,NA,NA,NA,NA,NA,NA,NA,NA,NA,NA,NA,0,NA
255,"KepuniGulchRainGage","USGS","USGS","MA",225.552,20.6195,-156.2518889,NA,"KPNH1","F000D4EA",NA,NA,0,0,0,0,0,0,0,0,0,0,0,0,0,0,0,0,0,0,0,0,0,0,0,0,0,0,0,0,0,0,0
256,"WAIOPAI RANCH 256","HALEAKALA RANCH","COOP","MA",67,20.63014664,-156.2038592,"USC00519765",NA,NA,NA,NA,NA,NA,0,NA,NA,0,NA,NA,NA,NA,NA,NA,0,NA,NA,NA,NA,NA,NA,0,NA,NA,NA,NA,NA,NA,NA,NA,NA,0,NA
258.6,"OHE'O 258.6","HALEAKALA TL PK","COOP","MA",24,20.662925,-156.04248,"USC00517000",NA,NA,NA,NA,3,0,8.4,0,1,7.1,7.1,8.1,0,0,0,1.8,3.3,2.8,0.8,0.3,7.6,5.1,0.8,0,2.8,2.8,7.6,0.8,5.1,11.9,3.6,0,4.06501133610256,1.3,6.9
266,"KAUPO GAP","RAWS","RAWS","MA",1228.344,20.68416667,-156.1519444,"USR0000HKAU","KPGH1","FA45A6E0",NA,NA,0.0525967559650839,0.736354583511174,0.858735367686723,0.157790267895252,1.78369615286275,2.34581756236493,11.4412596440954,4.22714744429214,0,0,0,0.262983779825419,0.262983779825419,2.83918988288559,1.01652563558197,0,0.68375782754609,4.13514220440672,0,0,0.94674160737151,0.157790267895252,0.68375782754609,0.105193511930168,0.999338363336594,1.3149188991271,0,0,1.05193511930168,1.15712863123185,0.999338363336594
267,"KULA HOSPITAL 267","KULA SATORIUM","COOP","MA",916,20.70013977,-156.3555187,"USC00515004",NA,NA,NA,NA,15.7,0,11.4,0,0,0,0,2.3,5.8,12.7,0,0,2.3,0,0,0,0,0,0,0,0,2.3,2.8,0,0,2.5,0.5,0,0,0.8,0
267.2,"POLIPOLI SPRINGS 267.2","BD OF A&F","COOP","MA",1875,20.67847493,-156.3288532,"USC00518070",NA,NA,NA,NA,NA,NA,NA,NA,NA,NA,NA,NA,NA,NA,NA,NA,NA,NA,NA,NA,NA,NA,NA,NA,NA,NA,NA,NA,NA,NA,NA,NA,NA,NA,78.7
267.8,"KULA 1","KULA 1","RAWS","MA",1998.5736,20.68305556,-156.3216667,NA,"KLFH1","AA10F12E",NA,NA,0.299999999999955,0,0,0,0,0,6.60000000000002,17,5.10000000000002,0,0.199999999999932,0.800000000000068,0.299999999999955,0.200000000000045,0,0,0,0,0,0,3.79999999999995,0.799999999999955,0,0,4.60000000000002,0,0,0,0,0,0
276,"BIG BOG HN-164","HaleNet","HaleNet","MA",1650,20.72655556,-156.09225,NA,NA,NA,NA,NA,0.508,16.252,14.478,18.288,36.326,51.308,68.584,25.908,0.508,1.016,4.572,11.176,26.162,NA,NA,NA,NA,NA,NA,NA,NA,NA,NA,NA,39.878,NA,NA,NA,NA,NA,NA
277,"HORSHOE PU'U HN-163","HaleNet","HaleNet","MA",1930,20.73630556,-156.1071389,NA,NA,NA,NA,NA,2.27324159138152,9.97873507331346,8.49001307642077,6.52633361639249,21.2045592882818,27.9195962419183,47.5973258077998,11.7211082758519,1.1789985919817,0.424347894166855,1.47009977606981,7.85381994489309,12.2232486688258,30.2091896053524,5.49044335296248,4.74623007495517,11.0542399925602,37.6109082758379,0,6.32830676660689,22.6888953199708,0.96890176816985,8.15376605786533,1.70065230654772,16.835328268405,8.07418140141542,1.05471779443448,1.3183972430431,6.45934512113233,20.5529315122852,6.13637786507572
278,"TREE LINE HN-162","HaleNet","HaleNet","MA",2195,20.73422222,-156.1228889,NA,NA,NA,NA,NA,0.379083478654806,7.85941839904621,8.83154007308494,4.48873658554889,23.7363928138413,29.7974500184033,39.0686348892243,24.5694319125164,0.224419388137123,0.178548532344873,1.95220193225176,9.56218296759868,10.5740323561093,15.7690427722254,5.36295808883013,1.62174146357624,21.564617754748,42.406065574368,1.82445914652327,1.92581798799678,35.191735934873,12.2508963353103,3.32002628951537,1.4775806862882,28.8669646894283,11.1719219925094,1.41902378062921,3.4462006100995,17.5124955826669,10.9827277925474,5.72559151890966
278.1,"Lakes - Subalpine","Lakes - Subalpine","Little HaleNet","MA",2228,20.73492113,-156.1234398,NA,NA,NA,NA,NA,0.351512085511517,7.28778938654834,8.18920697991032,4.16226305640432,22.0100041556062,27.6302302491845,36.2271059048306,22.782454888429,0.208096980204016,0.165562390617181,1.81021492938843,8.86670896054547,9.80496480340379,19.4640258481469,3.3152672844955,1.0025262791634,14.0781704608677,49.3833060043376,1.12784206405883,1.19049995650654,29.9759644978616,7.57324505496174,2.05237004634065,0.913409135092128,26.7674207179264,6.9062459324163,0.877210494267976,2.877748117161,11.5732342209483,6.78929007873236,6.52895869841789
278.11,"Puu Alaea - Cloud forest","Puu Alaea - Cloud forest","Little HaleNet","MA",1993,20.745673,-156.1425145,NA,NA,NA,NA,NA,0.250965534404094,5.20318940203171,5.84676541936875,2.97168892716976,15.7142604275183,19.7268765029917,25.8647010104625,16.2657592776406,0.148572899758998,0.118204908312032,1.29242087502949,6.33047466760842,7.00035171797512,10.4396167841866,3.55045186228125,1.07364534723578,14.2764750345886,28.0741881619625,1.20785101564026,1.27495384984249,23.2980684013019,8.11048995495788,2.19796487818608,0.978206245957652,19.1108650939216,7.39617401190962,0.93943967883131,2.28149636287604,11.5938389830369,7.27092132701787,3.7905269320143
278.12,"Puu Alaea - Forest line","Puu Alaea - Forest line","Little HaleNet","MA",2033,20.74567736,-156.1424321,NA,NA,NA,NA,NA,0.285310620603908,5.91525525980401,6.64690581631655,3.37836991866535,17.8647853202329,22.42653514559,29.4043320113728,18.4917577830627,0.168905369160804,0.134381463291415,1.46929100368968,7.19681154793345,7.95836248130066,11.8682971772823,4.03633760570766,1.22057565018116,16.2302364020875,31.9161914661288,1.3731476064538,1.44943358459012,26.4864510986784,9.22042513903471,2.49876033754949,1.11207553569253,21.7262214637205,8.40835377034148,1.06800369390851,2.59372325663496,13.180476766606,8.26596002952912,4.30926738190065
278.2,"Lakes - Forest line","Lakes - Forest line","Little HaleNet","MA",2182,20.735063,-156.1222481,NA,NA,NA,NA,NA,0.23519464404516,4.87621649807877,5.4793496441221,2.78494543522959,14.7267627662853,18.4872225911841,24.2393409195992,15.2436049536152,0.139236450760247,0.110776810054225,1.21120403397566,5.93266218654436,6.56044358604655,14.7555064917634,2.75337829611099,0.753115548962853,16.4528559507319,25.8966030812828,0.878129186244875,1.37287471614919,20.3603468846911,12.6416820316385,1.49672535595023,0.611156615235501,17.9099218696806,6.06172374826192,0.669267503229718,2.41339097463657,21.5279750372159,6.27162842358223,2.45054915277649
278.3,"Lakes - Cloud forest","Lakes - Cloud forest","Little HaleNet","MA",2143,20.73575551,-156.1214124,NA,NA,NA,NA,NA,0.407367399163396,8.44582001705182,9.49047297694547,4.8236471683582,25.5073965249228,32.020677236508,41.9835974919395,26.4025897742643,0.241163615971005,0.191870274863666,2.09785830446946,10.2756301056905,11.3629749174595,22.5568619510492,3.84206366404485,1.16182782831338,16.3151934798405,57.230319406523,1.30705630685255,1.37967054612213,34.7391489460128,8.77663462630998,2.37849189930984,1.05854995908064,31.0207671645384,8.00364926109784,1.0165993497742,3.33502264717106,13.4122225630904,7.86810910786859,7.56641103918058
278.4,"Lakes - Alpine","Lakes - Alpine","Little HaleNet","MA",2304,20.73450891,-156.1273482,NA,NA,NA,NA,NA,0.345356491947987,7.16016740343809,8.0457995926434,4.08937452501161,21.6245703526223,27.1463764231255,35.5927056974847,22.3834941173688,0.204452836845275,0.162663102575455,1.7785148888287,8.71143732449971,9.6332626607971,19.1231765938264,3.25721113564894,0.98497028446038,13.8316369872061,48.5185176425271,1.10809157001793,1.1696522127967,29.451032748061,7.44062424208835,2.01642944467158,0.897413737993162,26.2986762010948,6.78530544484281,0.861848998902833,2.82735369683352,11.3705665773137,6.67039769342854,6.41462517249645
278.5,"Frisbee - Alpine","Frisbee - Alpine","Little HaleNet","MA",2320,20.73857613,-156.1365744,NA,NA,NA,NA,NA,0.225571665398333,4.64330004445051,4.35501597475443,3.40095070328922,9.76467556092323,13.0574415667028,23.4426382379652,7.78565916175984,0.0825525971846733,0.165105194369347,0.74297337466206,2.53125247913111,4.96655409607897,13.443792412084,4.86264831926444,0,3.71849577355516,21.1668220956217,0,0,5.14868645569176,0.85811440928196,3.71849577355516,0.57207627285464,9.19774117505639,7.150953410683,0,0,5.7207627285464,6.29283900140104,5.43472459211908
278.6,"Frisbee - Subalpine","Frisbee - Subalpine","Little HaleNet","MA",2191,20.74071537,-156.1350318,NA,NA,NA,NA,NA,0.273731321079444,5.67518528879504,6.377141889565,3.24125915458001,17.1397450124961,21.5163567330338,28.2109604959494,17.7412718682702,0.162050363705124,0.128927606681754,1.40965999316399,6.90472975876537,7.63537323295027,11.3866236680024,3.87252329686974,1.17103872437097,15.5715340787921,30.6208764165726,1.31741856491734,1.39060848519052,25.4115014527013,8.84621521932757,2.39734842961879,1.06694207485481,20.8444652033655,8.06710167601581,1.02465888382459,2.4884572892883,12.6455485959241,7.9304869691973,4.13437624871952
278.7,"Frisbee - Forest line","Frisbee - Forest line","Little HaleNet","MA",2135,20.74195056,-156.1342138,NA,NA,NA,NA,NA,0.358409903912719,7.43079968351001,8.34990604240506,4.24394028994617,22.4419125249988,28.1724258620748,36.9380003748429,23.2295212711545,0.212180524521409,0.168811266976252,1.84573727517604,9.04070283087613,9.99737032637645,14.9090673242855,5.07048553032786,1.5332986923994,20.3885766924487,40.093422012901,1.72496102894932,1.82079219722429,33.2725307357039,11.5827853906066,3.13896640295541,1.39699982092355,27.2926851819124,10.5626536457471,1.34163635584947,3.25825972134872,16.5574397526595,10.383777279861,5.41334250022682
278.71,"Frisbee - Cloud forest","Frisbee - Cloud forest","Little HaleNet","MA",2087,20.73622225,-156.1341472,NA,NA,NA,NA,NA,0.35057001313651,7.26825769663235,8.16725943959243,4.15110795476039,21.9510160930518,27.5561796611515,36.13001520125,22.7213966139915,0.20753926846535,0.165118673996987,1.80536345045472,8.84294567639892,9.7786869402522,14.5829450321236,4.95957326951658,1.49975917760228,19.9425951149137,39.2164148599343,1.68722907480257,1.78096402340271,32.5447243777649,11.3294224914365,3.07030436688805,1.36644172001491,26.6956825084937,10.3316052009761,1.312289280402,3.18698825240485,16.1952608123529,10.1566415929566,5.29493055492992
278.8,"Puu Alaea - Alpine","Puu Alaea - Alpine","Little HaleNet","MA",2320,20.74402239,-156.1421477,NA,NA,NA,NA,NA,0.239450099424314,4.1339314453738,5.19471508931913,1.05333460688726,14.3372839368929,17.1697524859984,22.3214483917717,16.5382582069588,0.111661436204772,0,0.949122207740559,6.27784584443868,4.93790860998142,5.79062776015534,1.96935821877708,0.595527659758782,7.91884935639377,15.5721399238268,0.66996861722863,0.707189095963554,13.5146215273909,4.49871190222041,1.21916318410747,0.542589671641962,18.0605856698393,4.10249642661,0.521086702288934,1.26549627698741,6.43084964226256,4.03302149384554,2.10252262433488
278.9,"Puu Alaea - Subalpine","Puu Alaea - Subalpine","Little HaleNet","MA",2075,20.74489428,-156.1421289,NA,NA,NA,NA,NA,0.280760333055373,5.82091558083195,6.5408973799385,3.32448985439466,17.5798680955328,22.0688646760724,28.935375876683,18.1968412636121,0.166211575300111,0.132238275288547,1.44585795887308,7.08203291857012,7.83143822720615,17.6141805177874,3.28680702140106,0.899021205242201,19.6403678119158,30.9137095175844,1.04825449489579,1.63885008569896,24.3048807326206,15.0908319872346,1.78669506329541,0.72955970378971,21.3797199742427,7.23609836168249,0.798928767586363,2.88095188809524,25.6987205894703,7.48666914654055,2.92530894610841
279,"POHAKAU PALAHA HN-161","HaleNet","HaleNet","MA",2460,20.73061111,-156.1413056,NA,NA,NA,NA,NA,0.254,3.556,3.556,0.762,6.858,8.382,21.84,6.35,0,0,0,1.27,1.27,11.938,4.318,0,3.302,18.796,0,0,4.572,0.762,3.302,0.508,4.826,6.35,0,0,5.08,5.588,4.826
280.1,"OheoGulchRGatdamnearKipahulu","OheoGulchRGatdamnearKipahulu","USGS","MA",128.016,20.66836111,-156.0522222,NA,NA,NA,NA,NA,2.02515287562462,1.79898152128507,7.10961326877699,0.385496040275372,4.10168242765595,8.72920470579012,15.5376111493937,8.3334333302334,0,0,0,1.78048591777865,2.72881301554507,7.00294192123817,2.31748329650503,0.725280131934587,11.1660861092701,17.8082029648322,1.01087405185617,0.711118366192639,14.1748729733776,5.70384794567095,4.42917527165565,0.882787365862361,5.66578705414983,9.1408872874587,2.04130531046295,1.90879140399077,9.6998709049778,4.60335201217597,5.02240771925184
307.2,"POHAKEA BRIDGE 307.2","WAILUKU SUGAR","COOP","MA",50,20.81346495,-156.5071787,"USC00518060",NA,NA,NA,NA,NA,NA,0,NA,NA,0.51658168826839,NA,NA,NA,0,0,0.767752089313125,0,NA,NA,NA,0.299462888665166,0.0691068204611922,0,0,NA,NA,NA,0,0.422217987007164,4.64549184993404,0.0691068204611922,NA,NA,NA,0
311.2,"Kealia Pond NWR","Kealia Pond NWR","RAWS","MA",3.6576,20.7975,-156.4772222,NA,"KPDH1","32B2C438",NA,NA,0,0,0,0,0,0,0.700000000000017,0,0,0,0,0,0,0,0,0,0,0,0,0,0,0.299999999999983,0.800000000000011,0,0,0,0,0,0,0,0
311.5,"Kihei 2","NWS","HydroNet-UaNet","MA",54.5592,20.7061005,-156.437,NA,"KHIH1","93202508",NA,NA,0,0,0,0,0,0,0,3.048,0,0,0,0,0,0,0,0,0,0,0,0,0,0,2.286,0,0,0,0,0,0,0,0
324.6,"KULA AG HN-119","HaleNet","HaleNet","MA",965,20.75788889,-156.3200278,NA,NA,NA,NA,NA,1.27,0,0,0,0.762,0.254,6.35,0,0.254,0,0,0,0,0,0,0,0,0,0,0,2.032,0.762,0,0,0,0,0,0,0.762,0.254,0
324.7,"Kula Branch Stn","NWS","HydroNet-UaNet","MA",944.88,20.7577991,-156.3217,"USC00515000","KBSH1","93220610",NA,NA,1.016,0,0,0,0.254,0.254,4.826,0.254,0,0,0,0,0,0,0,0,0,0,0,0,1.778,0.762,0,0,0,0,0,0,0.254,0,0
328.4,"PU'U PAHU HN-106","HaleNet","HaleNet","MA",960,20.75763889,-156.2775,NA,NA,NA,NA,NA,0.610704744884628,0.102104426184871,0.102104426184871,0,1.29063528328333,1.43423861857901,6.8521711840583,4.73204776509198,1.40397009628144,0,0.0508662360041298,0.203464944016606,0.0762993540062092,0.0508662360041585,0,0,0,0,0,0,1.97466374876156,0.524108178543628,0,0,1.16992342809539,0,0,0,0.320643234527052,0.106881078175684,0
333,"UKULELE 333","HALEAKALA RANCH","COOP","MA",1595,20.79179801,-156.2521891,"USC00518744",NA,NA,NA,NA,NA,NA,0,NA,NA,0,NA,NA,30.5,NA,NA,NA,0,NA,NA,NA,NA,NA,NA,0,NA,NA,NA,NA,NA,NA,NA,NA,NA,43.2,NA
337,"south rim","south rim","CraterNet","MA",2898,20.703948,-156.241101,NA,NA,NA,NA,NA,0,0,0.2,0,0,0.6,9.4,6.6,0,0,0,0,0,0,0,0,0,0.2,0,0,0,0,0,0,0,0,0,0,0,0,0
337.1,"Sliding Sands","Sliding Sands","CraterNet","MA",2697,20.714563,-156.2394,NA,NA,NA,NA,NA,0,0.0837884204251315,0.230988673410898,0,0.997660946176722,1.77441538683455,11.397948095419,8.7564130418189,0,0,0,0,0,0,0.167576840850263,0,0,0.846695344337954,0,0,0,0,0,0,0,0,0,0,0,0,0
337.11,"Pohaku Palaha","Pohaku Palaha","CraterNet","MA",2461,20.7300298,-156.140176,NA,NA,NA,NA,NA,0,5,3.2,0.6,7.8,14,26,6,0,0,0,2,1.2,13.6,5.6,0,4,26,0,0,3.4,0.2,4.4,0.4,5.2,7.2,0,0,6,7,5.6
337.12,"Puu Alaea","Puu Alaea","CraterNet","MA",2282,20.73782363,-156.1453106,NA,NA,NA,NA,NA,0,5.6,4.2,0.2,11.6,26.6,21.8,6.6,0,0,0,2.8,4.6,6.6,2,0,2.8,11.6,0,0,7.8,0.6,1.2,0,2.6,2,0,0.2,4.4,2,1.8
337.13,"Paliku","Paliku","CraterNet","MA",1927,20.71236611,-156.1437572,NA,NA,NA,NA,NA,0.4,2.4,7,0.4,7,6.8,28,4.8,0,0,0,0.6,1.2,12.8,5.2,0.8,11.6,24.4,0,0,3.2,0.2,2.4,0.4,7.4,5.6,0,0.8,7.8,6.2,7
337.2,"Puu o Pele","Puu o Pele","CraterNet","MA",2424,20.709651,-156.224485,NA,NA,NA,NA,NA,0,0,0,0,0.4,0.2,6.4,2.8,0,0,0,0,0,0,0,0,0,0.2,0,0,0,0,0,0,0,0,0,0,0,0,0
337.3,"Lava lake","Lava lake","CraterNet","MA",2270,20.718443,-156.212261,NA,NA,NA,NA,NA,0,0,0.2,0,0.2,0.8,5,2,0,0,0,0,0,0.6,0.2,0,0,0.2,0,0,0,0,0,0,0,0,0,0,0,0,0
337.4,"Silversword loop","Silversword loop","CraterNet","MA",2186,20.731704,-156.205387,NA,NA,NA,NA,NA,0,0,0.6,0,2.4,3.2,6.6,2.6,0.2,0,0,0,0,0.4,0.2,0,0,0.6,0,0,0,0,0,0,0,0,0,0,0,0,0
337.5,"Leleiwi","Leleiwi","CraterNet","MA",2722,20.74337371,-156.2288651,NA,NA,NA,NA,NA,0,1,1.4,0,5.4,10.4,17.4,10.8,0,0,0,2.2,1.4,0.6,0.8,0,0,1.4,0,0,7.2,0,0,0,0.2,0.6,0,0,0.4,0,0
337.6,"Puu Nole","Puu Nole","CraterNet","MA",2261,20.717807,-156.188007,NA,NA,NA,NA,NA,0,0,0.2,0,0.6,1.6,5,0.8,0,0,0,0,0,0.6,0.8,0,0,1.2,0,0,0,0,0,0,0,0,0,0,0,0.2,0
337.7,"Hanakauhi","Hanakauhi","CraterNet","MA",2645,20.73567887,-156.1754875,NA,NA,NA,NA,NA,0,1,1.4,0,4,11.2,11,15.4,0,0,0,0.8,0.6,1.8,0.8,0,0.4,3.8,0,0,2.6,0,0,0,1,0.6,0,0,0.8,0.4,0
337.8,"Aloha Park","Aloha Park","CraterNet","MA",2455,20.73555054,-156.1587809,NA,NA,NA,NA,NA,0,0,0,0,0,0,10,3.8,0,0,0,0.6,1.4,0,0,0,0,0,0,0,0,0,0,0,0.2,2,0,0,0,0,0
337.9,"Laie","Laie","CraterNet","MA",2051,20.7229056,-156.1544823,NA,NA,NA,NA,NA,0,2.2,1.8,0,3.4,6.4,17.6,0.6,0,0,0,0,0,6.4,1.6,0,1.8,11.2,0,0,0.2,0,0.8,0,1.6,1.6,0,0,2.8,1,1.4
338,"HALEAKALA RANGER STATION 338","HAWAII T PARK","COOP","MA",2143,20.75846738,-156.2455233,"USC00511004",NA,NA,NA,NA,0,1.8,0,0,0,0,15.2,16.5,3.8,0,0,0,0,0,0,0,0,0,0,0,0,2.3,0,0,0,0,0,0,0,0,0
338.4,"HALEAKALA SUMMIT 338","SMITHSONIAN INST 1","COOP","MA",3037,20.71667,-156.26667,"USC00511008",NA,NA,NA,NA,0,0,0,0,0.3,NA,NA,0,0,0,0,0,0,0,0,0.3,0.3,0,0,0,0,1.8,0,0.3,0.5,0,0,0,0,0,0
339.4,"PARK HQ HN-151","HaleNet","HaleNet","MA",2120,20.75980556,-156.2481667,NA,NA,NA,NA,NA,0,0.508,0.508,0,4.826,6.604,12.446,2.032,0,0,0,0,0,0,0,0,0,0,0,0,0.762,0,0,0,0,0,0,0,0,0,0
339.5,"NENE NEST HN-152","HaleNet","HaleNet","MA",2590,20.73819444,-156.2458333,NA,NA,NA,NA,NA,0,0.254,0.508,0,2.794,4.572,16.764,9.144,0,0,0,0,0,0,0.508,0,0,0.762,0,0,0,0,0,0,0,0,0,0,0,0,0
339.6,"SUMMIT HN-153","HaleNet","HaleNet","MA",2990,20.71036111,-156.25675,NA,NA,NA,NA,NA,0,0,0,0,0.254,0.254,9.652,12.192,0,0,0,0,0,0,0,0,0,1.778,0,0,0,0,0,0,0,0,0,0,0,0,0
348.5,"WestWailuaikiRainGagenrKeanae","USGS","USGS","MA",472.44,20.81436111,-156.1429722,NA,"WWKH1","DD5E710A",NA,NA,0.508,10.668,15.494,3.048,49.53,58.928,51.562,60.706,0.508,0,4.318,25.654,19.558,12.192,3.556,4.064,46.482,63.246,4.572,4.826,77.724,28.956,0.762,2.54,71.12,13.462,3.556,8.636,32.258,14.732,3.302
350,"PAAKEA 350","EMI","COOP","MA",390,20.81179461,-156.1171956,"USC00517194",NA,NA,NA,NA,NA,NA,NA,NA,NA,25.8912045295758,NA,NA,NA,NA,0,4.36368615667008,8.43645990289549,NA,NA,NA,NA,18.4729380632367,4.36368615667008,0,NA,NA,NA,NA,NA,5.52733579844877,2.61821169400205,NA,NA,NA,1.89093066789037
353,"Hana AP","NWS","HydroNet-UaNet","MA",19,20.7946,-156.0157,"USC00511125","HNAH1","B150314C",NA,NA,2.3,9.7,0.5,0.3,8.4,4.3,25.1,5.6,0,0.8,NA,4.1,0.5,0.3,5.6,0.5,5.1,1.5,0,0.5,12.7,3,1.3,0.3,13,6.9,0,0,5.1,6.6,1.8
355,"HANA AIRPORT 355","HAWN AIRLINES","COOP","MA",24,20.792,-156.017,"USC00511125",NA,NA,NA,NA,2.3,9.7,0.5,0.3,8.4,4.3,25.1,5.6,0,0.8,NA,4.1,0.5,0.3,5.6,0.5,5.1,1.5,0,0.5,12.7,3,1.3,0.3,13,6.9,0,0,5.1,6.6,1.8
361.1,"Lahainaluna","NWS","HydroNet-UaNet","MA",238.0488,20.8909,-156.6556,NA,"LAHH1","81700366",NA,NA,0,0,0,0,0,0,0,0,0,0,0,0,0,0,0,0,0,0,0,0,0,0,NA,0,0,0,0,0,1.27,0,0
364,"WAHIKULI 364","PIONEER MILL","COOP","MA",177,20.89679257,-156.6621736,"USC00518955",NA,NA,NA,NA,0,0,0,0,0,0.773811324817954,4.72024908138952,0.193452831204489,0,0,0,0,0,0.116071698722693,0,0,0,0.193452831204489,0,0,0,0,0.50297736113167,0,0,0,0,0,0,0.696430192336159,0
380,"PuuKukuiRainGageatalt","BALDWIN PKRS","USGS","MA",1759,20.89083333,-156.6008333,"USC00514887","PKKH1","DD73556E",NA,NA,2.032,17.018,17.018,4.318,44.958,131.572,112.014,34.798,0.508,0.254,0.762,14.224,35.56,50.8,3.302,0.508,46.482,51.562,0.762,3.556,35.814,46.736,0.762,0,25.654,8.89,0.508,6.096,88.138,10.668,0.508
386,"WAILUKU 386","WAILUKU SUGAR","COOP","MA",55,20.89345755,-156.4971783,"USC00519484",NA,NA,NA,NA,NA,NA,0.319766313802555,NA,NA,1.0179523914762,NA,NA,NA,0,0,3.00791298622304,0.199853946126597,NA,NA,NA,1.39935885483742,0.276808825087113,0,0,NA,NA,NA,0,0.98433623318237,4.36393312039378,0.156896457411154,NA,NA,NA,0
386.6,"Wailuku","NWS","HydroNet-UaNet","MA",146.9136,20.8831005,-156.5124,NA,"WUKH1","9321D776",NA,NA,0,0,0,0,1.524,1.524,6.096,0,0,0,0,1.27,0,0,0,0,0.254,0,0,0,4.064,2.54,0.254,0,8.382,0,0,0,0,0,0
390,"WAIKAPU 390","WAILUKU SUGAR","COOP","MA",130,20.8491,-156.5092,"USC00519376",NA,NA,NA,NA,NA,NA,0,NA,NA,1.3,NA,NA,NA,0,0,0.3,0,NA,NA,NA,0,0,0,0,NA,NA,NA,0,0.3,15.2,0,NA,NA,NA,0
390.4,"Waikapu Country Club","NWS","HydroNet-UaNet","MA",145.9992,20.8346996,-156.5135,NA,"WCCH1","9320E016",NA,NA,0,0,0,0,0,0,0,0,0,0,0,0,0,0,0,0,0,0,0,0,0,0,0,0,0,0,0,0,0,0,0
396,"PUUNENE 396","HC&S","COOP","MA",18,20.8717927,-156.4538466,"USC00518543",NA,NA,NA,NA,NA,NA,0,NA,NA,0.691511732238295,NA,NA,NA,0,0,0.159579630516529,0,NA,NA,NA,0,0,0,0,NA,NA,NA,0,0.159579630516529,8.08536794617083,0,NA,NA,NA,0
398,"KAHULUI AIRPORT","NOAA-NWS","NWS","MA",12,20.8887,-156.41,"USW00022516","HOG",NA,NA,NA,0,0,0,0,0.3,1.8,2,0,0,0,0,0,0,0,0,0,0.5,0,0,0,0,0.8,1,0,0.5,0,0,0,0,0,0
400,"SPRECKELSVILLE 400","HC&S","COOP","MA",20,20.897526,-156.41427,"USC00518688",NA,NA,NA,NA,NA,NA,NA,NA,NA,NA,NA,NA,NA,NA,NA,NA,NA,NA,NA,NA,0.471246814679003,0.0599300976173645,0,0,0.185201845054375,0.692921185063391,3.26451537478339,0,0.577701213500554,4.02861509456307,0.0599300976173645,0,0,0,0
406,"PAIA 406","HC&S","COOP","MA",50,20.9051221,-156.3738494,"USC00517566",NA,NA,NA,NA,0.26173134445215,0,0.527409900459606,0,0.337098764797681,2.36744009824088,7.52917801342278,9.53260964350354,0.494464966843978,0,0,1.18206515614984,0.081798651064716,4.49191762035553,0.285974607882234,0,1.00718124275264,2.55759718718764,0,0,0.805981178293737,2.43195888064809,9.57092453244741,0,0.517289123924942,3.31254662822617,0.0824523453116718,0,0,5.89761403904798,0.271789115882368
410,"KEAHUA 410","HC&S","COOP","MA",120,20.85846016,-156.3805162,"USC00513910",NA,NA,NA,NA,NA,NA,NA,NA,NA,NA,NA,NA,NA,NA,NA,NA,NA,NA,NA,NA,0.398049558578786,0.0918575904412583,0,0,NA,NA,NA,0,0.561217064663193,6.17484185933684,0.0918575904412583,NA,NA,NA,0
423,"HALIIMAILE 423","MAUI PINE","COOP","MA",326,20.86679262,-156.3405177,"USC00511075",NA,NA,NA,NA,0.285570961253816,0,0.557143975651365,0,0.200460875290519,5.00589988152688,9.84719010107501,8.82544305585107,0.260599137877674,0,0,0.111204314165134,0,3.24180439881217,0.200460875290519,0,0.697466588354728,6.10453700429141,0.100230437645259,0,0.586262274189594,1.76898143840365,7.65164200896089,0.260599137877674,0.260599137877674,3.15674406961463,0,0,0,4.65016589618152,0.296544837773691
426.6,"Pukalani","NWS","HydroNet-UaNet","MA",495.9096,20.8355007,-156.3307,NA,"PUKH1","15D2B52E",NA,NA,0,0,0,0,0.762,10.922,4.572,33.528,0,0,0,0,0,0,0,0,0,0,0,0,0,0.254,0.254,0,0,0,0,0,3.302,0,0
446,"KAILUA 446","EMI","COOP","MA",213,20.89012208,-156.2121892,"USC00512679",NA,NA,NA,NA,1.79158515459195,5.20967322091222,9.06014784996861,0.750155182960766,19.5928620141473,17.8,28.1193380801173,14.9087103812592,0.0875747032391199,0,0,3,5.8,4.15659702362201,1.23221081628703,0.848527974695637,14.6818447080459,12.7,3,0,23.3184774648801,13.7877711362944,3.87893089068652,0.832354446282741,20.8423623979856,3.8,1.8,2.57021537788663,14.0715180534404,11.4948555557898,1.3
457.1,"PUUKOLII 457.1","COOP","COOP","MA",128,20.93194,-156.67611,"USC00518407",NA,NA,NA,NA,0,0,0,0,0,2,12.2,0.5,0,0,0,0,0,0.3,0,0,0,0.5,0,0,0,0,1.3,0,0,0,0,0,0,1.8,0
462.4,"KAPALUA W.MAUI AIRPORT 462.4","KAPALUA W.MAUI AIRPORT 462.4","NWS","MA",73,20.9625,-156.6753,"USC00513317",NA,NA,NA,NA,0.5,0,0.8,0,0,2.8,9.1,3.3,0,0,0,0.3,0,2.8,0,0,0.8,7.1,0,0,0.5,0.5,7.1,0,0,3,0,0,0,4.18164163062613,0.8
466,"MAHINAHINA 466","PIONEER MILL","COOP","MA",257,20.94678808,-156.6555055,"USC00515715",NA,NA,NA,NA,0.5,0,1.3,0,1,14.5,0,36.6,1.3,0,0,0,0,10.2,1,0,2,16,0.5,0,2,7.9,21.6,1.3,1.3,10.2,0,0,0,10.7,0
474,"FIELD 46 474","MAUI PINE","COOP","MA",319,20.9951177,-156.6391163,"USC00510541",NA,NA,NA,NA,0.685934255363651,0,1.33824579498857,0,0.481501972813458,8.88055115506476,8.10233549501599,20.5611817800883,0.625952564657495,0,0,0.61021059080111,0.835465414222126,7.40434642885604,0.481501972813458,0,1.67529717595799,11.1798038217601,0.592637940822827,0,1.40818721458384,4.24904885418324,16.722045031959,0.625952564657495,0.625952564657495,5.60232038303577,0.259282369931005,0,0,10.304142218208,0.662121642948665
482,"WAIHEE VALLEY 482","WAILUKU SUGAR","COOP","MA",91,20.94012106,-156.5255102,"USC00519315",NA,NA,NA,NA,0.26956172339423,0,0.8,0,0.81602324824597,1.5,17.9219379947674,4.58848816025147,0.405641434182217,0,0,3.6,0.5,4.15432780187574,0.162256573672887,0,1.8,0.3,0,0,0.80868517018269,0.80868517018269,5.7416647082971,0,0.5,6.6,0,0,NA,NA,0
482.4,"KAHAKULOA MAUKA 482","NWS","COOP","MA",334,20.9539,-156.5342,"USC00512450",NA,NA,NA,NA,0,0,0,0,1.3,1.13509679742068,NA,0.3,0,0,0,2.72423231380963,0.378365599140226,0,0,NA,1.36211615690481,0,0,0,NA,NA,0,0.3,0.378365599140226,4.99442590865098,0,0,NA,NA,0
482.5,"Kahakuloa","Kahakuloa","HydroNet-UaNet","MA",335.28,20.9540997,-156.5342,NA,"KHKH1","781001B6",NA,NA,0,0,0,0,1.27,1.524,12.954,0.254,0,0,0,1.778,3.048,0,0,2.032,1.27,0,0,0,10.16,6.858,1.016,0,8.89,6.604,0,0,0,2.032,0
484,"WAIEHU CAMP 484","WAILUKU SUGAR","COOP","MA",98,20.91623388,-156.5088444,"USC00519275",NA,NA,NA,NA,0.309029773715425,0,0,0,0.279020208885371,0.8,13.6973265920375,5.10881880426089,0.465033681475619,0,0,3,0,4.76258633602741,0.186013472590248,0,1.3,0.3,0,0,0.61805954743085,0.61805954743085,8.77644557351807,0,1.5,3.3,0.3,NA,NA,NA,0
485,"HAMAKUAPOKO 485","HC&S","COOP","MA",98,20.91345401,-156.3455169,"USC00511086",NA,NA,NA,NA,0.387387240373393,0,1.2027670216085,0,0.349768462206645,5.49618242186601,17.170415281308,6.40420887073749,0.582947437011075,0,0,0.919621473800507,0.851363028984756,5.97018583540321,0.23317897480443,0,1.45780130354023,7.88872076470676,0.56405242946565,0,1.2253689593162,3.69741503019747,14.5511013778845,0.544688117312823,0.544688117312823,3.03878985289685,0.33843145767939,NA,NA,NA,0.864242304032543
486.7,"HAIKU 3.2 SE","HAIKU 3.2 SE","CoCoRaHS","MA",416,20.92011989,-156.3071849,"US1HIMI0001",NA,NA,NA,NA,0,0,2.5,0,1.5,11.7,43.4,16.5,2.5,0,0,2.5,0.8,16.3,1,0,NA,NA,NA,NA,NA,NA,NA,NA,NA,NA,NA,0,0,19.2264426932322,NA
489,"Haiku","NWS","HydroNet-UaNet","MA",99.3648,20.9288998,-156.3225,"USC00510822","AIKH1","50A30568",NA,NA,0.254,3.81,2.54,0.254,11.938,7.874,17.78,0.508,0,0,0,2.286,3.302,0.762,0.254,0,3.302,11.938,0.254,0.508,9.652,8.382,0,0,6.858,2.54,0.254,0.254,4.318,9.398,0
490.7,"KUIAHA 490.7","COOP","COOP","MA",341,20.89306,-156.30306,"USC00514806",NA,NA,NA,NA,0.733682918934552,1.17762100157062,3.03235129559567,0.336463143305893,5.94318171547477,12.7670343100453,13.6957928030441,27.0127547820826,0.674429518331199,0,0.476656119683348,3.73610035929392,3.39695378444588,8.66029636415126,0.868195970610888,0.448617524407857,6.78601886493339,15.9372101219939,1.14503020542422,0.53273331023433,9.97089933781485,7.39385730176925,16.6031238618064,0.898738280535128,8.46915900491771,4.93580463089656,0.776741628136104,1.09720008306713,6.00699494289482,12.0396040561626,1.34562510712688
492.2,"HALEHAKU 492.2","COOP","COOP","MA",210,20.91,-156.282,"USC00511016",NA,NA,NA,NA,0.321464542829841,5.36286755992241,5.06271843800395,0.772214057392169,19.661403610082,15.8239666764576,25.3422399398315,11.2355426778744,0.0901499029124655,0,0.510849449837305,5.10920506969977,5.64536401840162,2.8575415896513,0.862363960304634,0.721199223299724,11.2558064354165,17.6355124374379,1.38137967622889,0.879368905002116,22.5828914624675,12.7719275832839,0.135224854368698,0.450749514562328,18.8664816855143,4.00402184939436,0.986671606155265,1.76386298942929,9.65686771353695,11.1729888614044,0.688033462104663
493,"HONOKOHUA 493","MAUI LAND&PINE CO","COOP","MA",38,21.00011804,-156.655505,"USC00511887",NA,NA,NA,NA,0.389922674269635,0,0.760732351725743,0,0.273712145788654,5.38599908163721,4.6058121450306,11.6881041049418,0.355825789525251,0,0,0.151839960825185,0,4.209036854746,0.273712145788654,0,0.952330853777801,7.97294007214784,0.136856072894327,0,0.800490892952616,2.41539255310568,9.5057280885643,0.355825789525251,0.355825789525251,4.31026349529612,0,0,0,5.85743991987721,0.404906562200492
494,"HONOLUA FIELD 49 494","MAUI LAND&PINE CO","COOP","MA",61,21.010978,-156.633839,"USC00511914",NA,NA,NA,NA,0.463362930855843,0,0.904013014254064,0,0.325264649769431,NA,5.47329702867452,13.8895081809706,0.42284404470026,0,NA,NA,NA,5.00179082108651,0.325264649769431,0,1.13169826909267,NA,NA,NA,0.95125990550999,2.87032133914963,11.2960910398097,0.42284404470026,0.42284404470026,NA,NA,0,0,6.96066350506582,NA
497,"NAKALELE FIELD 60 497","MAUI LAND&PINE CO","COOP","MA",104,21.02511528,-156.6005068,"USC00516645",NA,NA,NA,NA,0.280559075974036,0,0.729453597532492,0,0.561118151948071,NA,0,20.5369243612994,0.729453597532492,0,NA,NA,NA,5.72340514987032,0.561118151948071,0,1.12223630389614,NA,NA,NA,1.12223630389614,4.43283340038976,12.1201520820783,0.729453597532492,0.729453597532492,NA,NA,0,0,6.00396422584436,NA
499.11,"LUA MAKIKA","RAWS","RAWS","KO",335.28,20.5625,-156.5630556,"USR0000HLUA","HLUA",NA,NA,NA,0,0.255597193200857,0.423198553916393,0.15168025506948,0.404480680185346,0.425995322001412,0.252800425115838,1.92128323088037,0,0,0,0,0.505600850231675,0,0,0,0,0,0,0,5.35463497914974,0.271518298846913,0,0,0.252800425115838,0.303360510138988,0,0.252800425115838,0.101120170046329,0,0
499.12,"KEALIALALO","RAWS","RAWS","KO",251.46,20.54361111,-156.6408333,"USR0000HKLL","KLLH1","32792006",NA,NA,0,0,0.315801234095768,0.189480740457432,0.505281974553236,0,0.315801234095768,2.40008937912784,0,0,0,0,0.631602468191536,0,0,0,0,0,0,0,5.30546073280889,0.126320493638336,0,0,0.315801234095768,0.3789614809149,0,0.315801234095768,0.1263204936383,0,0
499.13,"HAKIOAWA","RAWS","RAWS","KO",365.76,20.58027778,-156.5711111,"USR0000HHAI","HKIH1","3279159C",NA,NA,0,0,0.5,0.299999999999955,0.800000000000011,0,0.5,3.80000000000001,0,0,0,0,1,0,0,0,0,0,0,0,8.39999999999998,0.200000000000045,0,0,0.5,0.599999999999966,0,0.5,0.199999999999989,0,0
499.9,"KANELOA","RAWS","RAWS","KO",248.412,20.52222222,-156.5658333,"USR0000HKAN","KAOH1","32793370",NA,NA,0,0.300000000000011,0.199999999999989,0,0,0.5,0,0,0,0,0,0,0,0,0,0,0,0,0,0,1.30000000000001,0.199999999999989,0,0,0,0,0,0,0,0,0
511,"MAUNALOA 511","MOLOKAI RANCH CO","COOP","MO",314,21.13348648,-157.2121842,"USC00516190",NA,NA,NA,NA,NA,NA,NA,0,0,0.8,NA,NA,NA,0.3,0,0,NA,NA,NA,NA,NA,0,0,0,NA,NA,NA,NA,NA,NA,NA,NA,NA,NA,NA
524,"MOLOKAI KAUNAKAKAI MOLOKAI AIRPORT","ALOHA AIRLINES","NWS","MO",141,21.15514996,-157.0924625,"USW00022534","HMK",NA,NA,NA,0,0,0.5,0,0,0.3,7.4,0.3,0,0,0,2.8,0,0,0,0,0.3,0,0,0,0,0.5,1.5,0,0.3,0.5,0,0,0,0,0
536,"KAUNAKAKAI 536","MOLOKAI RANCH","COOP","MO",3,21.08876308,-157.0216311,"USC00513541",NA,NA,NA,NA,0,0,0,0,0,0,0,4.8,0,0,NA,0,0.5,0,0,0,0,0,0,0,0,0,0,0,0,0,0,0,0,0,0
536.5,"Kaunakakai Mauka","MOLOKAI GEN HOSP","HydroNet-UaNet","MO",28.3464,21.0946007,-157.0174,NA,"KACH1","50A0F2E2",NA,NA,0,0,0,0,0,0,5.334,0,0,0,0,0.762,0,0,0,0,0,0,0,0,0,0,0,0,0,0,0,0,0,0,0
536.6,"KAUNAKAKAI 3.5 ESE","KAUNAKAKAI 3.5 ESE","CoCoRaHS","MO",13,21.068,-156.963,"US1HIMI0002",NA,NA,NA,NA,0,0,0,0,0,0,0,4.3,0,0,0,0,0,0,0,0,0,0,0,0,0,0,0,0,0,0,0,0,0,0,0
538,"MOLOKAI 1","RAWS","RAWS","MO",833.0184,21.115,-156.9475,"USR0000HMLK","MLKH1","487016AC",NA,NA,0,0,0.199999999999989,0,0.800000000000011,7.60000000000002,14.5,0,0,0,0,1,0,0,0,0,0.799999999999955,0.200000000000045,0,0,0,0,0.299999999999955,0,0,0,0,0,0,0,0
541.2,"Puu ALII WEST","Puu ALII WEST","RAWS","MO",1159.764,21.14083333,-156.9022222,NA,"PAFH1","32D6062E",NA,NA,1,0,4,0,9,51,43,3,0,0,0,7,4,2,1,1,6,11,0,0,7,15,3,0,5,8,0,0,2,3,0
542.11,"Kamalo","NWS","HydroNet-UaNet","MO",8.8392,21.052,-156.871,"USC00513045","KMLH1",NA,NA,NA,0.508,0,1.016,0,1.27,1.778,26.162,0,0,0,0,0,0.254,0,0,0,NA,1.778,0,0,0,0,0,0,NA,1.27,0,0,0,0.508,0.3
550.3,"MAUNALOA 3.2 NNW","MAUNALOA 3.2 NNW","CoCoRaHS","MO",93,21.1804,-157.2319,"US1HIMI0006",NA,NA,NA,NA,0,0,2.3,0,0,1.8,2.5,NA,NA,0,NA,0,NA,1.3,NA,0,0,0,0,0,0,0,10.2,NA,0,0.3,NA,0,0,0,0
553,"MAKAPULAPAI","RAWS","RAWS","MO",22.86,21.20333333,-156.9661111,"USR0000HMAK","MKPH1","FA9024CE",NA,NA,0,0,2.60000000000002,0,1.5,3.29999999999995,13.7,0,0,0,0,2.59999999999991,0.700000000000045,0,0,0,0,1,0,0,2.60000000000002,4.60000000000002,6.59999999999991,0,0,2.20000000000005,0,0,0,0.799999999999955,0
563,"KALAUPAPA 563","CIVIL AIR PATROL","COOP","MO",9,21.19014673,-156.9824624,"USC00512896",NA,NA,NA,NA,NA,NA,0.8,NA,NA,6.6,NA,NA,NA,0,0,0,3.3,NA,NA,NA,3.6,0,0,NA,NA,NA,NA,NA,2.8,NA,NA,NA,NA,NA,0
672.1,"Lanai City","NWS","HydroNet-UaNet","LA",498.0432,20.8262997,-156.9182,"USC00515286","LANH1",NA,NA,NA,0,0,2.286,NA,0.762,0,2.032,0,4.064,0,0,9.652,0,1.27,0.3,0.254,2.286,0.254,0,0,0,3.302,NA,0,NA,NA,0.254,NA,54.6,0.254,0.254
679,"LANAI 1","RAWS","RAWS","LA",387.096,20.87333333,-157.0063889,"USR0000HLAN","LNIH1","48702336",NA,NA,0,0,0.699999999999989,0,0.5,0,2.10000000000002,0,0,0,0,0,0,0.5,3.30000000000001,0,0.699999999999989,0,0,0,0,0,1.59999999999997,0,0,3.30000000000001,0,0,0,1.69999999999999,0
702.2,"HONOLULU OBSERV 702.2","USC&GEODETIC SURVEY","COOP","OA",2,21.313926,-157.999529,"USC00511918",NA,NA,NA,NA,0,0,0,0,0,0,0,0,0,0,NA,0,0,0,0,0,0,0,0,0,0,NA,NA,0,0,0,0,0,0,0,0
702.7,"Kapolei-Kalaeloa AP","NWS","NWS","OA",15,21.31667,-158.06667,"USW00022551","HJR",NA,NA,NA,0,0,0.5,0,0,0,0,0,0,0,0,0,0,0,0,0,0,0,0,0,0,0,5.1,0,0,0,0,0,0,0,0
702.8,"PTWC","NWS","HydroNet-UaNet","OA",1.524,21.3150005,-157.9992,NA,"PTWH1",NA,NA,NA,0,0,0,0,0,0,0,0,0,0,0.254,0,0,0,0,0,0,0,0,0,0,0,11.43,0,0,0,0,0,0,0,0
703,"HONOLULU INTERNATIONAL AIRPORT","USWB","NWS","OA",2.1,21.324,-157.9294,"USW00022521",NA,NA,NA,NA,0,0,0,0,0.3,0,0.8,0,0,0,0,0,0,1.5,0,0,0,0,0,0,0,0,3,0,0,0,0,0,0,0.3,0
703.1,"HONOLULU FIRE STATION 703.1, HI US","COOP","COOP","OA",1,21.3287,-157.9298,"USC00511925",NA,NA,NA,NA,0,0.41339289297072,0.673340659641687,0,0,0,1.5,1.52840791304715,1.05845208514839,0,0,0,0,2.3,1.42900218797261,0.650473751672456,0,0,0,0,0,0,1.36413366775782,5.8,0,0,0,0,0,1.60699657804347,1.3
705,"BERETANIA PUMP STN 705","BWS","COOP","OA",6,21.305169,-157.8522571,"USC00510211",NA,NA,NA,NA,0,0,0.5,0.5,0.3,5.3,1.8,0.3,0.8,0,0,0,0,2.3,1,0,0,1,0,0,0,0,2,0,0,0,0,0,0.5,0.8,0
705.12,"Aloha Tower","NWS","HydroNet-UaNet","OA",38.1,21.3034,-157.8627,NA,"ALOH1",NA,NA,NA,0,0,0.254,0,0.254,2.54,1.27,0,0.254,0,0,0,0,1.27,0.254,0,0,0.508,0,0,0,0,2.62651971740789,0,0,0,0,0,0,0,0
706.5,"Niuhelewai HCC JD","J_Delay","PrivateObs","OA",2,21.32180556,-157.8694722,NA,NA,NA,NA,NA,0,0,0,0,0,6.2,3.4,0,0,0,0,0,0,6,0,0,1.1,0.3,0,0,0,0,3.8,0,0,0,0,0,0.3,7,0
707.2,"EWA KALAELOA AIRPORT","LYDECKER RC","STATE","OA",14,21.30489073,-157.8305905,"USW00022551",NA,NA,NA,NA,0,0,0.5,0,0,0,0,0,0,0,0,0,0,0,0,0,0,0,0,0,0,0,5.1,0,0,0,0,0,0,0,0
707.5,"HONOLULU 2.0 SW","CoCoRaHS","CoCoRaHS","OA",12,21.3004,-157.8293,"US1HIHN0023",NA,NA,NA,NA,0.3,0.3,1.8,1.3,1.3,2.8,9.7,2.5,2,0,0,0,0,3.8,1.8,2.3,0.3,1,1,0,0,0,2.5,0.8,0,0,0,0,0,1.5,0
709,"PUNCHBOWL CRATER 709","T MEM CEMETERY","COOP","OA",108,21.31016855,-157.846146,"USC00518316",NA,NA,NA,NA,0,0,1,1,0.3,1.8,11.7,1,2.5,0,0,0,0,3.8,2.8,1.5,0.3,1,0.5,0.5,0,0,2.3,1.8,0,0,0,0,0,5.1,0.5
711.6,"ManoaRGatKanewaiFld,Honolulu","USGS","USGS","OA",11.5824,21.29322222,-157.8127222,NA,NA,NA,NA,NA,0.62683664848442,0.395317625115794,1.12634484257981,1.29770321239795,2.04986724523768,8.11494302257341,5.82936895632435,1.4803403577852,2.42072483292301,0,0,0,0.138050779790324,7.2263441500116,2.70345706065323,0.691609716403423,0.159235352904304,1.44870088398206,0,0,0,0.414152339370972,3.13113418131682,0,0,0.069025389895162,0,0.606858294715985,0.350182468120862,0.91621213760665,0.759279288846782
711.7,"H-1RainGageatKapiolaniAve","USGS","USGS","OA",6.096,21.28944444,-157.8155556,NA,NA,NA,NA,NA,0.10988604394214,0.219772087884281,0.828169435368456,1.40708321896589,1.22335678297992,6.97032114402173,4.86770470918137,0.871593417973361,1.6181673574371,0,0,0,0.10988604394214,5.75204553002358,2.15190527582555,0.550509427059712,0.126748599413641,1.15314096188414,0,0,0,0.329658131826421,2.49232890070957,0,0,0.0549430219710702,0,0,0.278739215657754,0.729289087437832,0.604373241681772
712.1,"MANOA 712.1","BEAUMONT MRS J","COOP","OA",61,21.31044568,-157.8147571,"USC00516122",NA,NA,NA,NA,0.8,1.3,8.9,3.6,3.8,12.7,27.4,3.8,8.9,0.3,1,0,0.3,14.2,15.5,3.8,0.8,4.1,3.8,0,0,0.5,5.6,1.5,0.8,0.3,0.3,1.8,0.8,14,5.3
713,"UNIV OF HAWAII 713","UH MET DEPT","COOP","OA",24,21.29933514,-157.8167017,"USC00518815",NA,NA,NA,NA,0,0,0,1.32709529298063,0.98807320951216,3.92267127285775,9.17521108257005,2.3,1.5,0,0,0,0,3.8,2.3,2.3,0.3,1.8,0,0,0,0,3,0,0,0,0,0,0,1,0
715,"WAIALAE KAHALA","TINKER SPENCER","COOP","OA",15,21.27433592,-157.7880917,"USC00519185",NA,NA,NA,NA,0,0.3,0.8,0.5,0.5,0,3.3,16,1.5,0.5,0.5,0,0,0,0,0,0.3,0,0.3,0,0,1.3,0.8,0,0,0,2.5,1.5,0.5,0.5,0.5
716,"MANOA TUN 2 716","BWS","COOP","OA",198,21.32794416,-157.7914236,"USC00516130",NA,NA,NA,NA,2.18595441662068,0.235636754366914,7.16335733275418,0.141382052620148,14.5134118318144,15.5363371295447,17.2268896688381,7.65189542191261,6.14887174494575,0.377018806987062,0.326475062800687,7.10527864643331,6.08465414784902,24.9018357449248,7.78555991853862,0.235636754366914,3.94161550679919,8.99037268136862,0,0.471273508733828,5.150749408877,18.6630387171385,27.9552695526084,0.797748571534514,0.68550715728796,19.8978968642769,0,1.671765132316,2.91847936083674,6.43504396384065,3.41889350794416
717.2,"WAIKIKI 717.2","PURINTON J","COOP","OA",3,21.27183682,-157.8180917,"USC00519397",NA,NA,NA,NA,0,0,0,0,0,0.3,3.8,0.3,0,0,0.132707315337009,0,0,0,0,1.3,0,0.3,0.3,0,0,0,1.5,0,0,0,0.3,0.398121946011027,0.132707315337009,0,0
718,"PALOLO VALLEY 718","BWS","COOP","OA",302,21.32183297,-157.7717015,"USC00517664",NA,NA,NA,NA,3.4181154376682,0.661608527930063,5.45637630884597,0.607094477908259,12.9118968252697,19.019421405967,17.685762555248,6.68451399184965,6.76079297997616,0.218056200087215,0.188823237191973,6.16421528643494,5.2787680789505,21.6036955336314,6.75439625262295,0.204427687581764,3.41956561724108,7.79963678708906,0,0.408855375163528,4.46855497479094,16.191200131083,24.2527152681197,0.692090230951487,0.59471470552899,17.2625066689329,0,1.45034708654589,2.53193941918736,5.58275028252403,2.96607588147745
720.6,"HONOLULU 2.7 SSE","CoCoRaHS","CoCoRaHS","OA",113,21.285,-157.7816,"US1HIHN0010",NA,NA,NA,NA,0.3,2.3,1.8,0.5,0.5,0.5,8.6,0.8,1.8,0.8,0.160867067139582,0,0.0482601201418745,4.57011713092912,3.73955795018072,1.99480827311942,0.309151925623276,1.52247259318706,0.886084872074022,0,0,0.0804335335697908,2.56804328662595,0.461132614264262,0.128693653711665,0.0482601201418745,0.0482601201418745,0.289560720851247,0.128693653711665,2.99106152146465,0.852595455839783
721,"WILHELMINA RISE 721","BWS","COOP","OA",335,21.29766804,-157.7853133,"USC00519980",NA,NA,NA,NA,2.8,1,4.1,2.5,2.3,4.8,10.9,1.3,5.6,0,0,0.3,0.8,16.8,6.4,0,1,1.8,0,0,0.3,1.5,4.1,0,0,1.5,0,0,1.3,1.5,4.3
721.4,"Palolo Fire Stn","NWS","HydroNet-UaNet","OA",59.436,21.2996006,-157.7944,"USC00517662","PFSH1","19014414",NA,NA,0.508,1.016,3.048,3.556,3.302,13.208,12.192,1.016,4.572,0,0,0,0.508,18.796,5.842,0,0.254,1.778,0,0,0,1.524,5.08,0,0,0.254,0,0,0.508,1.016,2.794
723.4,"PAIKO DRIVE 723.4","GRUBB DL","COOP","OA",3,21.28172556,-157.7282194,"USC00517540",NA,NA,NA,NA,0,0.5,1.8,0.5,3,0,2.3,4.3,0,0,0,0,1.3,0,0,0,0,0,0,0,0,0,3,0,1.8,0,0,0,0,0,0
723.8,"Niu Valley","NWS","HydroNet-UaNet","OA",19.812,21.2896996,-157.7332,"USC00516865","NIUH1","1900D38C",NA,NA,1.778,0,3.302,0,0.508,6.096,3.302,6.35,0,0,0.508,0.254,0.254,1.524,0,0,0,0.508,0,0,0,0.762,4.826,0,0,9.144,0,0,0,0,0
724.19,"HAWAII KAI GC 724.19","UNOAA-NWS","COOP","OA",9,21.29889,-157.66444,"USC00511308",NA,NA,NA,NA,0,0,1.778,0,0,0.254,0.508,3.048,0,0,0,0.762,0.254,0,0,0,0,0,0,0,0,0,4.40750344727858,0,0,1.27,0,0.254,0,0,0
724.21,"Kamehame","NWS","HydroNet-UaNet","OA",242.316,21.3085995,-157.6791,NA,"KMHH1","190046EE",NA,NA,0,0,2.032,0,0,0.762,1.27,0,0,0,0,0.508,0,0.508,0,0,0,0,0,0,0,0,4.318,0,0,2.794,0,0,0,0,0
728.2,"PALEHUA","RAWS","RAWS","OA",722.376,21.385,-158.1041667,NA,"PLHH1","4870F55E",NA,NA,0,0,1.30000000000001,0,1,0,1.5,1.60000000000002,0.5,0,0,2,0,1.79999999999995,0,0,0,0.5,0,0,0,0.5,7.40000000000003,0,0,0,0,0,0,0.199999999999989,0
740.5,"Kunia","NWS","HydroNet-UaNet","OA",85.0392,21.3869991,-158.0358,NA,"KUNH1",NA,NA,NA,0,0,0.508,0,0,0,0,0.508,0.254,0,3.048,0,0,2.032,0,0,0,0,0,0,0,0,2.54,0,0,0,0,0,0,0.762,0
741,"EWA PLANTATION 741","EWA PLANTATION","COOP","OA",12,21.3401713,-158.0339215,"USC00510507",NA,NA,NA,NA,0,0,0,0,0.551930983896325,0,0,0,0,0,NA,0,0,0,0.827896475844488,0,0,0,0,0,0,NA,NA,0,0,0,0,0,0,1.10386196779265,0
742.4,"HONOULIULI PHB","FWS","RAWS","OA",1.524,21.35666667,-158.0205556,NA,"HOFH1","327BF39A",NA,NA,0,0,1,0,0,0,0,0.799999999999955,0.200000000000045,0,0,0,0,1.79999999999995,0,0,0,0,0,0,0,0,7.10000000000002,0,0,0,0,0,0,0,0
750,"WAIPAHU 750","OAHU SUGAR","COOP","OA",18,21.38683459,-158.0072536,"USC00519738",NA,NA,NA,NA,NA,NA,NA,NA,1,0,NA,NA,NA,NA,NA,NA,NA,NA,1.5,NA,NA,NA,0,NA,NA,NA,NA,NA,NA,NA,NA,NA,NA,2,0
752.6,"WAIAWA PHB","FWS","RAWS","OA",1.524,21.38694444,-157.9811111,NA,"WWFH1","3274C092",NA,NA,0,0,0.5,0,0,0.199999999999932,0.300000000000068,0.5,0.5,0,0,0,0,1.79999999999995,0,0,0,0.200000000000045,0,0,0,0,1.09999999999991,0,0,0,0,0,0,2.70000000000005,0
764.6,"AIEA HEIGHTS 764.6","G FOWLER","COOP","OA",238,21.39488776,-157.91031,"USC00510123",NA,NA,NA,NA,1,3.8,2.8,5.3,0,5.8,16,8.6,3.6,1.8,0,0,0.5,3,8.4,1,0.8,2.3,0.8,0,0.3,1.3,3.3,0,0.3,0.8,0,0,0,3.3,1.8
764.7,"AIEA 0.7 ENE","CoCoRaHS","CoCoRaHS","OA",175,21.393,-157.9186,"US1HIHN0014",NA,NA,NA,NA,0.3,2.8,2.8,3.3,0,4.6,16.8,7.4,3.6,1.5,0,0,0.3,2,8.6,0.5,0.3,0.8,0.8,0,0.3,0.3,2.5,0.8,0.3,0.326942955827905,0.0827425319301254,0.496455191580752,0.220646751813668,5.57534087968089,2.01123568453555
770,"MOANALUA 770","ROXBURGH J","COOP","OA",6,21.34794527,-157.8950332,"USC00516395",NA,NA,NA,NA,0,1,0.5,0,0.373013510004479,2.81552414671841,10.9,2.5,1.5,0,0,0,0,1.5,2.8,0,0,0.5,0,0,0,0,2,1.3,0,0,0,0,0,3.6,0
771.11,"N.HalawaValleyRGattunnel","USGS","USGS","OA",335.28,21.40488889,-157.8504444,NA,"TNLH1","DD75A524",NA,NA,1.524,0,23.876,0,14.224,10.16,22.606,19.304,24.13,0.254,0,10.668,7.112,17.526,5.08,0.508,1.016,8.128,0,0.762,1.524,18.796,29.464,3.048,1.016,24.384,0,1.016,1.524,9.398,0.762
771.9,"NHalawaRainGagenrHonolulu","USGS","USGS","OA",210.312,21.382,-157.9033333,NA,NA,NA,NA,NA,1.17894258171926,0.594965483769077,1.3351895667012,0.168737884148897,3.39961483051562,8.4639832239569,11.9967911452721,3.67194410928331,4.12627411655174,0.0715787089103882,0,0.204047074909374,1.10412550221014,5.94427773346447,3.63065956110302,0.292804223345886,0.633137356269593,3.17532642439183,0.185531653005831,0.132468365998985,0.323822050053366,0.985208869772984,2.65194234810022,0.60145217290633,0.384711707141964,0.328689070826607,0,0.919834164013255,0.723231487083524,4.73936904861861,0.41744621926312
772,"MoanaluaRaingagenrHonolulu","USGS","USGS","OA",103.058976,21.37823611,-157.8700306,NA,NA,NA,NA,NA,1.49823210932747,0.631586186018325,5.34217442811383,0.0523941711727207,5.62188504118234,12.9313653184365,20.7889450565837,7.07635636407133,8.90059110740151,0.246064160227924,0.670524797904656,3.69816922380168,2.84332260537319,15.4579382509427,5.2919518235881,0.592647574131995,1.72838957391972,8.0683865188765,0.104788342345441,0.193669989055204,1.66641904578274,8.77528847567334,17.2294614807933,1.02217218242158,0.482551963491587,9.35185254700616,0,3.63817834589898,1.67924142103984,8.26570752182094,2.01300245968681
772.1,"N.HalawaRaingagenrAiea","USGS","USGS","OA",97.536,21.39295833,-157.8908639,NA,NA,NA,NA,NA,1.29404575337554,0.653053481666285,1.4655475300768,0.185212194217319,3.73152789860707,9.29034349716231,13.1680684677904,4.03044537955447,4.52913278439773,0.0785671208537694,0,1.32462503586814,1.81841648607761,7.56918290573292,2.37097356845984,0.11924667556533,0.596131001744899,3.73845589111838,0,0.224019899383981,0.43630714754976,2.68972487428434,5.1107281644316,0.974646718389695,0.450729411255563,2.67292012633619,0,1.11446433174033,0.951079039871537,5.3316735243807,0.0786183088946453
772.3,"MoanaluaRGNo.1atalt1000","USGS","USGS","OA",304.8,21.39338889,-157.8401111,NA,"MOGH1","1689664A",NA,NA,2.794,0.508,16.002,0.254,13.208,6.604,27.94,10.16,13.716,0.508,1.016,7.62,2.286,12.7,1.016,0,2.54,6.35,0.508,0.254,2.286,20.828,48.26,0.254,1.016,27.686,0,5.588,1.524,2.286,1.778
772.5,"Moanalua Stream","USGS","HydroNet-UaNet","OA",72.2376,21.3736,-157.8801,"USC00516400","MOAH1","1900B66A",NA,NA,0,0,0,0,0,11.684,17.78,6.35,5.588,0.254,0,0.508,1.778,10.414,3.81,0,0.508,6.35,0,0.254,0.254,1.778,4.318,1.27,0.254,0.508,0,3.048,1.27,7.62,0
772.6,"MoanaluaRaingagenrKaneohe","USGS","USGS","OA",350.52,21.38823333,-157.8486389,NA,NA,NA,NA,NA,2.76725314723139,0.935755686818668,7.91494527864758,0.0776270043841673,10.5557746510846,13.6184677112732,20.0542060684937,7.76985933712545,11.5385622528325,0.155254008768335,0.993446985830711,6.70915441575572,4.02136917106359,19.5660687437596,6.12461085702598,1.40261524586943,3.04137802282314,8.74451548304759,0.155254008768335,0.302434514982513,3.30874811168379,14.9083506355604,25.9403707088615,0.842557027739911,0.655505110781483,16.4344751500897,0,3.40309747158999,2.04087581879684,7.39081026675345,3.50700763265927
773,"KAPALAMA 773","KAMEHAMEHA SCH","COOP","OA",188,21.33933391,-157.8567005,"USC00513268",NA,NA,NA,NA,0.251722745625433,3,3.8,2.15292725599755,1.0598224543012,0.5,15.1791351216683,4.35567923075106,2.27615539884163,0.3,0.3,0.3,0.5,3.18763250316099,4.4407370256273,1.31423349732005,0.5,0.5,0.5,0.3,0.07551682368763,0.327239569313063,3.11925094307299,3,0.3,0.3,0.3,0.409398352091375,0,2.91747438496881,0.5
775,"NUUANU RES 5 775","BWS","COOP","OA",125,21.339125,-157.835905,"USC00516933",NA,NA,NA,NA,4.1,1,2.5,1,8.6,19.1,14.7,4.3,6.1,0,0,4.41191938569525,3.95688485848433,16.0437343346353,6.03770839367776,1.03400240821186,2.63708065283342,6.74090840595403,0,0.324820840104586,2.67989133320156,8.88428268566746,11.434320184618,0.741582437116484,0.371423158175344,8.20533408095633,0,1.57763338960869,2.06718827217073,6.76924087229065,3.14354466935308
777,"KALIHI RES SITE 777","BWS","COOP","OA",277,21.37516437,-157.8222555,"USC00512960",NA,NA,NA,NA,3.06507301817533,0.618024442089973,11.6236079447482,0.56710155653377,13.7353792721223,16.4784530849203,18.8163425439917,9.01650305171936,9.97140502451723,0,0.3,5.1,2.3,16.3,3.3,0,1.5,5.1,0,0,4.3,16.5,28.2,0.3,0.5,19.8,0,0.8,0.3,0.5,0.5
777.3,"Wilson Tunnel","NOAA-NWS","HydroNet-UaNet","OA",314.5536,21.3771,-157.8166,NA,"WITH1",NA,NA,NA,1.67048526524005,1.287877438027,6.63598321342865,0.37558569808959,10.0446560680869,13.2745855395499,14.9442003082149,3.90875114117438,14.1910211248619,0,1.01395263393658,5.04370103704417,3.51529611204707,17.139951684551,4.69064876322128,1.10770039981413,1.88786800242468,7.05665435673288,0.0990231846252955,0.276562513464295,3.34860398512233,11.4998054824206,16.30276528203,0.683505982984055,0.371480951819398,12.5351561557669,0.0990231846252955,1.83396364489276,1.34295246803648,6.3743225753307,2.63755567076818
780.5,"TANTALUS 2 780.5","NEWMAN N","COOP","OA",404,21.32711168,-157.8239234,"USC00518738",NA,NA,NA,NA,1.43334853245323,2.94130289664623,6.29609328184054,4.26020797401872,5.78936304660004,11.647371420044,23.98919109058,8.12325681767462,3.07220344460159,1.55002073078233,0.0835140508892013,2.33839342489764,3.12466273353192,10.9811696684958,9.59038217985721,0.876588193191886,2.37155157233753,5.14792975268639,0.58991848670124,0.278380169630671,1.69663433155552,5.96946059424159,8.66912955736965,0.361894220519872,0.443923568217502,5.12751525168118,0,1.26349626129884,1.61460498385789,6.05235596284134,3.16462571464022
781,"KANEOHE MAUKA 781","STATE HOSPITAL","COOP","OA",61,21.40849568,-157.8105878,"USC00513113",NA,NA,NA,NA,0.81351597100122,0.27046703454654,4.30985514358092,2.76499811473886,5.56212114759582,7.40364077237582,8.9035058008703,3.15300124994478,8.32874996654472,2.21390111645032,0.411835059386575,3.29091482908616,3.71494047840803,12.1193543709245,3.55479969574167,0.0914047998305387,2.06371240565084,4.12910081928502,0.712983943697053,0.182809599661077,1.99800417367221,8.4159194115182,14.0880805651162,1.20068101119015,0.372859607965804,8.07499617894649,4.0640084790732,0.826732923768771,1.31034026596794,3.85085862530079,1.78964725784858
781.11,"LulukuRaingageatalt","USGS","USGS","OA",67.056,21.39184444,-157.809475,NA,NA,NA,NA,NA,0,0.508,4.064,0.508,4.318,2.286,11.684,2.794,20.828,0,0.762,4.064,2.286,12.192,0.254,0,0.254,4.318,0.254,0.254,3.302,12.192,17.2035576396629,0.738207178175907,0.254,16.002,0.254,1.27,0.254,2.794,0.762
781.13,"KANEOHE 0.8 SW, HI US","CoCoRaHs","CoCoRaHs","OA",20,21.4039,-157.8017,"US1HIHN0027",NA,NA,NA,NA,0,0,0,4.3,0,2.5,1,7.4,4.1,4.1,2,0,3,7.1,1.8,0.3,0.8,0,0.8,0,0,2,10.4,0.8,0.3,1.5,14.5,0.3,0,1,0.3
781.7,"LULUKU 781.7","NWS","COOP","OA",84,21.3873,-157.8098,"USC00515655",NA,NA,NA,NA,NA,NA,NA,NA,NA,NA,NA,NA,NA,NA,NA,4.3,NA,NA,0,0.3,NA,NA,NA,NA,NA,NA,NA,NA,NA,NA,NA,1.3,NA,NA,1.3
781.9,"RBKamooaliiRaingagenrKaneohe","USGS","USGS","OA",59.484768,21.38628889,-157.7928083,NA,NA,NA,NA,NA,0.373019218511436,0.170862806153183,1.36690244922546,0.170862806153183,2.96927867424856,3.55409279257471,6.59071496690479,2.65563383899511,9.01967883224226,0,0.256294209229775,2.73380489845093,1.53776525537865,8.20141469535278,0.170862806153183,0,0.170862806153183,2.90466770460411,0.170862806153183,0.170862806153183,2.22121647999138,8.20141469535278,NA,NA,0.170862806153183,10.7643567876505,0.170862806153183,0.854314030765915,0.170862806153183,1.87949086768501,0.512588418459549
782.3,"Nuuanu Upper","NWS","HydroNet-UaNet","OA",248.412,21.3502007,-157.8184,"USC00516938","NUUH1","156097FE",NA,NA,3.556,2.032,7.874,0,11.176,19.558,19.812,5.588,11.43,0,1.778,7.112,5.334,27.178,11.43,2.286,3.556,12.446,0,0,4.064,13.462,18.796,1.016,0.508,12.954,0,3.048,2.54,13.716,6.35
783,"NUUANU RES 4 783","BWS","COOP","OA",320,21.35266525,-157.807534,"USC00516928",NA,NA,NA,NA,1.5,0,0,0,6.1,11.2,10.7,6.9,8.1,0,0,6.02009962142808,4.89000881785988,21.8888175703453,7.87235014861803,0.918827182723792,3.20303825783491,8.8265192145765,0,0.233819823573969,3.9811473958678,13.9819682626172,20.4633990494616,0.752206350830035,0.518314537198401,14.416432670887,0,1.89866033141589,2.33900707087077,8.00421617243571,3.92381365076593
784,"PAUOA FLATS 784","BWS","COOP","OA",549,21.33516641,-157.8105899,"USC00517810",NA,NA,NA,NA,2.5,0.5,15.2,0.3,22.1,17,21.3,6.4,1.5,0.8,0.3,8.4,9.9,31.5,12.2,0.5,6.4,12.4,0,1,5.3,18,22.4,1.3,0.8,16.3,0,2.5,5.8,13,6.6
785.4,"Manoa Lyon Arbo","NWS","HydroNet-UaNet","OA",151.7904,21.3330002,-157.8024,"USC00516128","MNLH1",NA,NA,NA,2.54,2.032,11.43,0.762,21.336,27.686,18.796,4.826,11.176,0,0.762,5.588,4.318,17.78,4.826,1.778,3.048,6.858,0,0.762,3.556,11.43,13.462,1.27,0.508,10.16,0,1.778,2.032,4.826,1.778
787.1,"MAUNAWILI 787.1","HSPA","COOP","OA",127,21.351,-157.7668,"USC00516222",NA,NA,NA,NA,1.16786748129137,0.746744254219146,4.04155312487477,0,4.8,6.27523479202368,9.00642288492197,3.1738022806229,1,0.3,0.3,4.78559126203047,4.67436674439886,0.3,0,0.8,1.35394327166749,2.62194045543468,0.148361873782405,0.0722955548531487,2.60054641569217,8.58142941955528,14.1829833747984,0.395202828836077,0.184800681516733,12.2917450971422,0,0.5,2.08008124782693,4.74568535045248,0
787.2,"Maunawili","NWS","HydroNet-UaNet","OA",127.1016,21.3509998,-157.7668,NA,"MAUH1","19007374",NA,NA,0.254,0.762,5.334,0,4.572,21.336,11.176,4.318,1.016,0.254,0.254,6.096,4.064,6.604,0,0.254,0.508,2.286,0,0.508,3.048,8.128,23.876,0,0.254,24.638,0,0,0.762,2.286,0
788,"ST STEPHENS SEMINARY","ST STEPHEN SEMIN","COOP","OA",143,21.3666,-157.7785,"USC00518601",NA,NA,NA,NA,0.682541256649229,0.3374863252854,4.13646875273965,1.5,1.8,4.05611163845748,6.4,2.62405331258972,6.88092991771775,0.0910814900718787,0.559581563229956,6.6,1.69030058970636,4.55370410441175,0,0.5,0.468442806145734,2,0.3,0,2.30573241628037,8.00493602673591,12.7559711730403,0.296875767516362,0.153857956643502,12.0676847590066,0,4.6,1.43501831918078,1.64372468348643,0
788.1,"PALI GOLF COURSE 788.1","C&C PARKS & RECR","COOP","OA",146,21.37183016,-157.7839226,"USC00517656",NA,NA,NA,NA,2.26538145921892,0.522780336742827,2.3,0,0,2.3,6.62188426540914,NA,NA,6.6,2.5,0,2.8,NA,NA,NA,0.8,0,2.3,0,0,0,2.26538145921892,0.8,0.3,2.8,13.7,0,2.26538145921892,2.26538145921892,1.5
788.2,"St Stephens Seminary","NWS","HydroNet-UaNet","OA",142.9512,21.3666992,-157.7786,NA,"STVH1","19005598",NA,NA,1.27,0.508,3.81,0,3.048,4.318,4.318,3.81,4.318,0,1.524,6.858,2.54,5.842,0,0,0.508,2.032,0.254,0,2.54,7.112,17.526,0.254,0,16.256,0,2.032,4.826,3.048,0
790.11,"Olomana Fire Stn","NWS","HydroNet-UaNet","OA",45.1104,21.3777008,-157.7507,"USC00517052","OFSH1","19011468",NA,NA,0,0,2.54,0,0.508,2.286,2.286,0,1.778,0,0.508,0.508,0,3.048,0,0,0,0.762,0,0,0,2.032,3.81,0,0,9.906,0,1.524,5.334,0.762,0
793.1,"WAIMANALO EXPERIMENTAL FARM","CoCoRaHS","CoCoRaHS","OA",38,21.3727,-157.725,"US1HIHN0022",NA,NA,NA,NA,0,0,0.3,1.8,0,0,3.8,0.3,0,0,0,0,0.8,2.5,0,0,0,0,0.3,0,0,0.3,1.8,0,0,0,2.3,0,0.3,0.8,0.5
795.1,"WAIMANALO EXP F 795.1","HAES","COOP","OA",18,21.33516407,-157.7105906,"USC00519523",NA,NA,NA,NA,0,0,2.8,NA,NA,0,5.8,NA,NA,0,0,0,0,8.1,0,0,0,0,0,0,0,5.1,2.5,0,0,0,0,0,0,0,NA
795.3,"Waimanalo Nonokio","NWS","HydroNet-UaNet","OA",20.1168,21.3356991,-157.7116,NA,"WMLH1","224185AC",NA,NA,0,1.27,0.762,0,1.016,3.302,1.524,0.508,0,0,0,0.508,0,4.064,0,0,0.254,0,0,0,0,3.81,1.778,0,0,2.794,0,0,0,0,0
798,"WAIANAE 798","CAPITAL INVESTMENT","COOP","OA",3,21.44683495,-158.1855845,"USC00519231",NA,NA,NA,NA,0,0,0,0,0,0,0,0,0.3,0,0,0,0,3,0,0,0,0,0,0,0,0,0,0,0,0,0,0,0,0,0
799,"WAIAWA PHB","RAWS","RAWS","OA",453.8472,21.48,-158.1072222,NA,"SCSH1","328FC12E",NA,NA,0,0,1.12217903034858,0,1.20459891085637,0,2.79284443507539,4.28488775701215,4.45032026365854,0,0,0.91612301879586,0.383053867731832,7.46819829866104,0,0,0.383053867731832,1.0618944899366,0,0,0,0.229030754698965,3.62906383687709,0,0,0,0,0,0.383053867731832,5.2799736133225,0
800.3,"MAKAHA CTRY CLUB 800.3","Alan Mair","COOP","OA",80,21.47833333,-158.1963889,"USC00515758",NA,NA,NA,NA,0,0,0,0,0,0,0,0,0,0,0,0,0,0,0,0,0,0,0,0,NA,NA,NA,NA,NA,NA,NA,NA,NA,NA,NA
801.1,"Waianae Kawiwi","MT VIEW DAIRY","HydroNet-UaNet","OA",19.812,21.4566994,-158.18,NA,"WAIH1",NA,NA,NA,0,0,0,0,0,0,0,0,1.27,0,0,0,0,1.016,0,0,0,0,0,0,0,0,NA,NA,0,0,0,0,0,0,0
803.2,"WAIANAE VALLEY","RAWS","RAWS","OA",291.6936,21.48055556,-158.1552778,"USR0000HWVA","WNVH1","487005DA",NA,NA,0,0,0.800000000000011,0,0.199999999999989,0,3.10000000000002,1.5,0.699999999999989,0,0,0,1.30000000000001,2,0.300000000000011,0,0.300000000000011,0.699999999999989,0,0,0,0.800000000000011,0.199999999999989,0,0,0.5,0,0,0.300000000000011,2,0
804,"Lualualei","US VY","HydroNet-UaNet","OA",35.9664,21.4211006,-158.1352,"USC00515647","LUAH1","8170406C",NA,NA,0,0,0,0,0,0,0.254,0,0,0,0,0,0,0.762,0.762,0,0,0.254,0,0,0,0,4.70378028345909,0,0,0.508,0,0,0,0,0
