"SKN","Station.Name","Observer","Network","Island","ELEV.m.","LAT","LON","NCEI.id","NWS.id","NESDIS.id","SCAN.id","SMART_NODE_RF.id","X2021.10.01","X2021.10.02","X2021.10.03","X2021.10.04","X2021.10.05","X2021.10.06","X2021.10.07","X2021.10.08","X2021.10.09","X2021.10.10","X2021.10.11","X2021.10.12","X2021.10.13","X2021.10.14","X2021.10.15","X2021.10.16","X2021.10.17","X2021.10.18","X2021.10.19","X2021.10.20","X2021.10.21","X2021.10.22","X2021.10.23","X2021.10.24","X2021.10.25","X2021.10.26","X2021.10.27","X2021.10.28","X2021.10.29","X2021.10.30","X2021.10.31"
2.32,"SOUTH KONA 2 2.32","COOP","COOP","BI",647,19.10778,-155.78944,"USC00518652",NA,NA,NA,NA,0,NA,NA,0,0,0,0,0,0,0,0,NA,0,NA,NA,NA,0,0,0,0,0,0,NA,0,0,0,0,0,0,0,0
2.34,"MILOLII 2.34","COOP","COOP","BI",280,19.186302,-155.886763,"USC00516304",NA,NA,NA,NA,0,0,0,0.8,0,0,0,0,0.5,0,0,NA,0,0.8,0.5,NA,0,0,0,0,0,0,NA,0,0,0,0,0,0,0,0
2.36,"KAPUA 2.36","COOP","COOP","BI",533,19.14472,-155.84944,"USC00513376",NA,NA,NA,NA,NA,0,0,0,0,0,0,0,0,0,0,NA,0,0,0,0,0,0,0,3.3,0,0,NA,0,0,0,0,0,0,0,0
3.22,"HAWAIIAN OCEAN VIEW 4.7 NNE","HAWAIIAN OCEAN VIEW 4.7 NNE","CoCoRaHS","BI",1273,19.135,-155.747,"US1HIHI0035",NA,NA,NA,NA,0,0.8,0.8,0.5,NA,0.5,0.3,0,0,0,1,NA,0.3,NA,0.3,3.6,1,NA,0,0,0.3,0,NA,0.5,NA,0.5,0.3,0.3,0,0.3,0
3.9,"LOWER KAHUKU CS","LOWER KAHUKU CS","RAWS","BI",953.7192,19.10083333,-155.6697222,NA,"LKHH1","32D620C2",NA,NA,0,4.572,4.06399999999985,0.508000000000152,1.01599999999996,2.54000000000008,NA,0,0,0.253999999999905,2.28599999999994,14.986,10.414,4.82600000000014,5.84199999999987,0.762000000000057,2.54000000000008,1.26999999999987,0.254000000000133,0,0,0.507999999999925,7.11199999999997,0.254000000000019,3.30200000000002,0.253999999999905,0.762000000000057,2.28599999999994,0.254000000000133,0.253999999999905,0
4.12,"NAALEHU 4.6 WSW","NAALEHU 4.6 WSW","CoCoRaHS","BI",391,19.0424,-155.6354,"US1HIHI0001",NA,NA,NA,NA,5.62325650918509,0,0,1.3,0,0,0,0,0,0,0,21.3,0,0,0,0,0,0.3,1,0,0,0,8.4,0.8,0,2.8,0,0,0,0.690001221868409,0.3
4.14,"NAALEHU 4.7 WSW, HI US","CoCoRaHs","CoCoRaHs","BI",393.18,19.0421,-155.6371,"US1HIHI0057",NA,NA,NA,NA,NA,NA,0,2,0,0,0,0,0,0,0,18.5,0,0,0,0,0,0,0.8,0,0,0,6.6,0.8,0,3,0,0,0,0.3,0
4.15,"SOUTH POINT NEAR NAALEHU 12SSW","NWS","STATE","BI",295.78,18.9928,-155.668,NA,"SOPH1","B1507246",NA,NA,NA,0,0,NA,0,0,0,0,0,0,3.048,9.398,0,0,0,0,0,0,0,0,0,2.032,2.286,0,0,NA,0,0,0,0,0
6.2,"NAALEHU 5.7 W","NAALEHU 5.7 W","CoCoRaHS","BI",679,19.0732,-155.6632,"US1HIHI0012",NA,NA,NA,NA,7.6,0.5,3,2.5,2.5,0.5,1.8,0,0,0,0,17.8,0,8.1,2.8,3.8,0.8,2.5,1.5,0,0,0,9.4,2.5,0.5,3,0.5,0.3,0,0.5,0.5
9.2,"Nene Cabin","Nene Cabin","RAWS","BI",1991.7737,19.2564,-155.6144,NA,"NENH1","32D64524",NA,NA,NA,0.253999999999905,NA,NA,0,1.26999999999998,0,0,0,3.55600000000004,0.508000000000038,21.082,0,1.26999999999998,4.82600000000002,2.03199999999993,1.52400000000011,0,0,NA,NA,0.507999999999925,0.254000000000019,0,0,0,0,0,0,NA,0
12.15,"SEA MOUNTAIN 12.15","SEA MOUNTAIN","COOP","BI",21,19.13310292,-155.5152744,"USC00518600",NA,NA,NA,NA,2,0,0,0,0,0,0,0,0,0,0,16.3348811012287,0,0,0,0,0,0,0,0,0,0,4.57744967541643,0,0,0,0,0,0,0,0
14,"NAALEHU 14","KAU SUGAR","COOP","BI",206,19.06032754,-155.5855501,"USC00516588",NA,NA,NA,NA,5.63211330539956,0,0,1.03947038829055,0,0,0,0,0,0,0,21.1,0,0,0,0,0,0,0,0,0,0,5.3,0,0,1.65658458156032,0,0,0,1,0
21,"Pahala","KAU SUGAR","HydroNet-UaNet","BI",346.8624,19.2042999,-155.4872,"USC00517421","PPLH1","B16084B2",NA,NA,2.47271323861267,1.26999999999998,0,0,0,0,0,0,0,0,2.03200000000004,21.59,0,0,0,0.507999999999925,0,0.254000000000019,0,0,0,0.254000000000019,3.30200000000002,0,0,0,0,0,0.254000000000019,1.01599999999996,0
21.3,"PAHALA MAUKA 21.3","COOP","COOP","BI",332,19.20667,-155.48861,"USC00517437",NA,NA,NA,NA,10.4,0.593500100472189,0,0,0,0,0,0,0,0,0.949600160755536,19.3,0,0,0,0.237400040188844,0,0.118700020094449,0,0,0,0.118700020094449,5.37233963976277,0,0,0,0,0,0.118700020094449,0.859415080116254,0
23,"KAHUKU","RAWS","RAWS","BI",1796.4912,19.23222222,-155.78,NA,"KRCH1","32639544",NA,NA,0,0,0,0.253999999999905,0.253999999999905,0.253999999999905,0.254000000000133,0.253999999999905,0,1.52400000000011,0.253999999999905,NA,0.253999999999905,0.762000000000171,0.253999999999905,0,0,0,0,0.254000000000133,0,0,0,0,0,0,0,0.253999999999905,0,0,0
26.2,"KEALAKEKUA 26.2","GREENWELL ESTATE","COOP","BI",442,19.48975723,-155.9122125,"USC00513977",NA,NA,NA,NA,0,0,0.468973063042392,0,1.64140572065299,0,0,0.3,2.5,0,0,0,5.15870369347807,3.28281144130347,2.5,0.234486531522456,0,1.40691918913053,0,0,0,0.8,0,0,0,0,0,0,0.8,0,0
27.6,"Honaunau No. 2","NWS","HydroNet-UaNet","BI",398.0688,19.4629002,-155.8824,NA,"HAUH1","15D12742",NA,NA,0,0,0.254000000000815,0.253999999998996,0,1.01599999999962,1.01599999999962,5.33400000000074,0,0,0,0,9.14400000000023,1.52399999999943,2.03199999999924,0,0,0.762000000000626,0,0,0.254000000000815,0.253999999998996,0,0,0,0,0.50800000000163,0,0,0,0
29.12,"Kealakekua","NWS","HydroNet-UaNet","BI",537.972,19.5181007,-155.9159,NA,"KLEH1","81708572",NA,NA,0,0,0.507999999998901,0,1.77800000000116,0,0,1.52399999999943,0,0,0,0,5.58800000000065,3.55599999999959,1.77799999999934,0.254000000000815,0,1.52400000000034,0,0,0,0,0,0,0,0,0,0,0,0,0
34,"Kapapala Ranch","NWS","HydroNet-UaNet","BI",638.556,19.2754993,-155.4514,"USC00513300","KAYH1","B16097C4",NA,NA,0,0,0,0,0,0,0,0,0,0,1.01599999999962,18.5420000000004,0,0,0,1.27000000000044,0.253999999999905,1.52400000000034,0,0,0,0,0,0,0,0,0,0,0,0.253999999999905,0
36.3,"KAPAPALA RANCH","KAPAPALA RANCH","RAWS","BI",1081,19.25811,-155.441781,NA,"KPRH1","AA10E258",NA,NA,0,0,0,0,0,0,0,0,0,0,1.52399999999989,16.2560000000001,0,0,0,0.253999999999905,0,0,0,0,0,0,0.253999999999905,0,0,1.27000000000021,0,0,0.253999999999905,0.253999999999905,0
38.9,"KAELAKOMO","KAELAKOMO","RAWS","BI",29.5656,19.29277778,-155.1075,NA,"KMOH1","32807432",NA,NA,0,0,0,0,0,0,0,0,2.28599999999999,1.524,5.84200000000001,NA,0,0,0.254000000000005,NA,0,0,0,0,0,0.254000000000005,0.253999999999991,0,0,0,0,0,0,0,0
39,"Mauna Loa Observatory","NWS","ESRL/GMD","BI",3397,19.5362,-155.5763,"USC00516198","MOBH1",NA,NA,NA,1,NA,NA,NA,0,0,0,0,NA,NA,NA,NA,NA,NA,NA,NA,NA,NA,0,0,0,0,NA,NA,NA,0,0,0,0,NA,NA
39.2,"MAUNA LOA 5 NNE","MAUNA LOA 5 NNE","USCRN","BI",3398,19.5354,-155.576,"USW00021514","MLBH1","CD07379A",NA,NA,0,0,0,0,0,0,0,0,0,0,1,5.2,0,0,0,0,0,0,0,0,0,0,0,0,0,0,0,0,0,0,0
43.3,"PUHE CS","PUHE CS","RAWS","BI",34.126,20.025,-155.8211111,NA,"PHRH1","32D61558",NA,NA,0,0,0,0,0,0,0,0,0,0,0,0,2.54000000000002,0.254000000000019,0,0,0.253999999999962,1.01600000000002,0,0,0,0,0,0,0,0,0,0,0,0,0
47,"KEMOKU LAVA FLOW","RAWS","RAWS","BI",1706.88,19.47555556,-155.3627778,"USR0000HKEA","KKUH1","FA4447E8",NA,NA,0,0,0,0,0,0,0.253999999999991,0.254000000000019,5.33399999999999,2.53999999999999,10.414,25.146,0,0,1.01600000000002,7.874,0.253999999999991,0,0,0,0,0,0.50800000000001,0,0,0,0,0,0,0,0.253999999999991
48,"PALI 2","RAWS","RAWS","BI",847.344,19.3175,-155.2922222,"USR0000HPAL","PLIH1","FA900222",NA,NA,NA,NA,NA,NA,NA,NA,NA,NA,0.761962890625,0.508056640625,NA,NA,NA,0,0,NA,NA,0,0,NA,0,0.761962890625,0.25390625,NA,0,0,NA,NA,0,0,NA
55.6,"VOLCANO 4.0","COOP","COOP","BI",1194.8,19.441359,-155.2487445,"US1HIHI0071",NA,NA,NA,NA,NA,0.5,1.8,1,0.5,0.5,0.3,10.9,NA,NA,20.3,47.2,8.1,5.8,2,10.2,4.6,3,0.8,0.3,0,0,13,0.5,4.3,0.3,0,0,0,0,0
63,"KALOKO-HONOKOHAU","RAWS","RAWS","BI",7.62,19.67277778,-156.0202778,NA,"KHOH1","FA667668",NA,NA,0,0,0,0,0,0,0,0,0,0,0,0,0,0,0,0,0,0,0,0,0.507999999999981,0,0,0,0,0,0.253999999999962,0,0,0,0
65.4,"PAHOA 2.1 E","PAHOA 2.1 E","CoCoRaHS","BI",137,19.5043,-154.9165,"US1HIHI0003",NA,NA,NA,NA,31.2,5.3,2.5,2.8,1.3,4.1,1.8,4.1,22.9,23.9,14,21.3,11.7661264453873,5.3,37.8,29.2,8.96549147763035,10.2,0.8,0.3,0.3,0.3,14.7,2.5,9.7,1,0.5,0.5,0.3,0.5,0.3
65.6,"KURTISTOWN 6.6 SSE, HI US","CoCoRaHs","CoCoRaHs","BI",339.63,19.5021,-155.029,"US1HIHI0055",NA,NA,NA,NA,30.2,3,1,4.8,2.8,7.9,0.8,8.1,15.5,37.6,24.9,62,17.4263620571839,17,27.9,27.9,12.3114504814997,12.4,0.8,0,0,0,13.2,4.8,9.43380707396491,0.8,0,0,0,0,0
67.7,"PAHOA 2.7 SSE","PAHOA 2.7 SSE","CoCoRaHS","BI",259,19.4654,-154.927,"US1HIHI0051",NA,NA,NA,NA,32.3,4.3,1.8,5.3,1.5,2.8,1.3,8.4,13.2,20.6,15,27.9,13,8.9,26.2,14.2,10.9796254443336,11.7,0.8,0.5,0,0,15.7,3.3,9.1,1,0.3,0.5,0.3,0,0
68.14,"HONOKOHAU HARBOR 68.14","COOP","COOP","BI",9,19.67944,-156.02333,"USC00511880",NA,NA,NA,NA,0,0,0,0,7.6,0,0,0,0,0,0,0,0,0,0,0,0,0,0,0,0,0.8,0,0,0,0,0,0,0.3,0,0
68.21,"KAILUA KONA KE AHOLE AIRPORT","KAILUA KONA KE AHOLE AIRPORT","NWS","BI",27,19.73556,-156.04889,"USW00021510","PHKO",NA,NA,NA,0,0,NA,0.3,0,0,0,0,0,0,0,NA,0,0,0,0,0,0,0,NA,0,0,0,0,0,0,0.3,NA,NA,0,0
69.25,"Palamanui","Hilo Forest Service","HIPPNET","BI",297,19.73756,-155.99582,NA,NA,NA,NA,NA,0,0,0,2.54,0,0,0,0,0,0,0,0,0,0,0,0,0,0,0,0,0.254,0,0,0,0,0,0,0,0,0,0
69.27,"KALAOA 1.7","KALAOA 1.7","CoCoRaHS","BI",304.5,19.7238,-155.9926,"US1HIHI0006","","",NA,NA,0,0,0,NA,7.4,0.5,0,0,0,0,0,0,0,0,0,0,0,0,0,0,0,0.5,0,0,0,0,NA,0,0,0,0
69.28,"Kailua-Kona HI US G0154-W6SPO-13 ","unknown","APRSWXNET","BI",0,19.707,-155.978,NA,"G0154",NA,NA,NA,NA,NA,NA,NA,NA,NA,NA,NA,NA,NA,NA,NA,0.508000016212463,0.254000008106232,0.508000016212463,1.77799999713898,NA,NA,NA,NA,2.79399991035461,1.77799999713898,NA,NA,NA,NA,NA,NA,NA,NA,NA
69.51,"Kailua Kona HI US E6648-EW6648 ","unknown","APRSWXNET","BI",164.05,19.61,-155.96,NA,"E6648",NA,NA,NA,0,0,NA,1.52399896621707,NA,NA,0,0,0,0,0,NA,NA,NA,NA,NA,NA,NA,NA,NA,NA,NA,0,0,0,0,NA,NA,NA,0,0
70.16,"Waiaha Stream","NWS","HydroNet-UaNet","BI",460.5528,19.6331997,-155.9486,NA,"WIHH1","9321011E",NA,NA,0,0,0.572359333902498,5.8420000000001,1.52400000000011,0,0,1.71707800171057,0,0,0,0,8.12799999999993,2.03200000000015,0.253999999999905,0.286179666952787,4.06399999999985,1.52400000000011,0.761999999999944,0,0.507999999999811,0,0,0,0,0,1.52400000000011,0,0,0,0
70.7,"Puuwaawaa","Hilo Forest Service","HIPPNET","BI",1659,19.72544,-155.87389,NA,NA,NA,NA,NA,0.254,0,0.254,0.254,0,0,0,0,0,0,0,1.524,0.508,4.572,3.048,NA,0,0,0,0,NA,0,0,0,0,0,0,1.524,0,0,0
75.1,"PTA KIPUKA ALALA","RAWS","RAWS","BI",1641.348,19.66694444,-155.7077778,"USR0000HPTK","PKAH1","32666200",NA,NA,0.253999999999962,0,0,0,0,0,0.254000000000019,0,0,0,0,2.286,0,0,0,0,0,0,0,0,0,0,0,0,0,0,0,0.253999999999962,0.254000000000019,0,0
83,"QuarryRainGageatSaddleRd","USGS","USGS","BI",1286.256,19.68586111,-155.2942222,NA,"SDQH1","DDF6B6E4",NA,NA,0.507999999999981,1.27000000000004,0.253999999999962,0.254000000000019,0.762,1.524,7.87400000000002,13.4619999999999,40.8940000000001,63.2459999999999,82.296,212.598,7.11199999999997,5.33400000000006,27.432,8.88999999999999,6.096,1.77800000000002,1.52399999999989,0.508000000000152,0,10.668,15.7479999999999,7.61999999999989,1.2700000000001,0.254000000000019,0,0,0,0.508000000000038,0.253999999999905
87,"HILO INTERNATIONAL AIRPORT 87","NWS","HydroNet-UaNet","BI",11.6,19.7191,-155.053,"USW00021504","PHTO",NA,NA,NA,1.3,2,2,1.3,4.8,1.5,7.4,12.4,35.6,29.6370978713661,29.2,54.5117774071507,7.4,10.4,28.2,23.1,9.9,0.3,1,0.3,0,10.4,12.7,10.4,1.5,0,0,0,0,0,0
87.5,"HILO 5 S","HILO 5 S","USCRN","BI",189,19.645,-155.0827,"USW00021515",NA,NA,NA,NA,0.9,0.6,2.8,2.6,5.8,1.5,10.4,12,38.1,15.5,54,69.6,14.6,12.8,45.3,37.5798066297906,8.6,0.9,1.5,0,0,8.3,20.4,8.2,0.9,0,0,0,0,0,0
87.9,"IPIF","Hilo Forest Service","HIPPNET","BI",111,19.69748,-155.0954,NA,NA,NA,NA,NA,1.016,1.778,1.524,2.032,4.064,1.778,5.588,12.053274040773,36.3387283611973,15.494,50.0999098723868,99.6125994019118,7.366,5.842,32.0805149534952,24.0478807370662,8.05269648715427,0.508,0.762,0,0,5.842,15.3730794859967,3.81,0.508,0,0,0,0,0,0
89.13,"KAIWIKI HOMESTEAD 89.11, HI US","COOP","COOP","BI",379.67,19.7509,-155.1362,"USC00512802",NA,NA,NA,NA,43.9976647628744,3.6,2.5,9.7,7.9,7.4,3.3,26.9,35.6,66.5,27.2,106.2,15,18.6349193267781,55.3344683239069,52.8694590626727,13.7,4.6,1.5,0.5,0,0,39.9,5.6,10.7,3.3,0.3,0,0,0,0
92,"KEAAU 92","PU SUGAR","COOP","BI",87,19.62918887,-155.0333418,"USC00513872",NA,NA,NA,NA,9.27329592923511,2.6388471686349,1.2162005716058,3.45556991588878,5.3,4.99540475373467,2.79329158050664,23.9955116355774,25.8341816248448,37.0934492805096,21.599728943096,50.3,12.2,15.2,42.5210040033405,28.6961000127071,8.17827341269174,7.4,0.8,0.3,0,0.0545238646183702,22.5778493743058,5.52948299066916,9.9,0.5,0,0,0,0,0
92.5,"KiholoRainGage","USGS","USGS","BI",283.96692,19.82580556,-155.8925833,NA,"KIRH1","DD60236E",NA,NA,0,0,0,0,0,0,0,0,0,0,0,0,0,0,0,1.778,0,0,0,0,0,0,0,0,0,0,0,0,0,0,0
93.12,"PUUANAHULU","RAWS","RAWS","BI",830.58,19.83277778,-155.7697222,NA,"PULH1","48703040",NA,NA,0,0,0,0,0,0,0,0,0,0,0,1.26999999999998,0,0,0,0,0,0,0,0,0,0,0,0,0,0,0,0,0,0,0
93.13,"Mamalahoa","Hilo Forest Service","HIPPNET","BI",636,19.80256,-155.85062,NA,NA,NA,NA,NA,0,0,0,0,0,0,0,0,0,0,0.254,0,0,0,0,0,0,0,0,0,0,0,0,0,0,0,0,0,0,0,0
93.61,"PAHOA 4.7 NE, HI US","CoCoRaHs","CoCoRaHs","BI",53.95,19.5473,-154.8988,"US1HIHI0065",NA,NA,NA,NA,11.7,4.8,5.1,4.6,1.3,3.6,0.8,3.6,23.4,11.2,10.9,30,7.6,14,32,31.5,5.8,15,0.8,0,0,0,22.9,3,13.7,0.5,0,1,0,0,0
93.62,"PAHOA 5.7 NE","COOP","COOP","BI",27.4,19.5565,-154.8865,"US1HIHI0070",NA,NA,NA,NA,NA,NA,NA,NA,NA,NA,NA,NA,NA,NA,NA,NA,NA,NA,NA,NA,NA,NA,NA,NA,NA,NA,19.1,3.3,NA,NA,0,0,0,0,0
93.63,"HAWAIIAN PARADISE PARK 2.4 E","COOP","COOP","BI",10.1,19.594568,-154.936038,"US1HIHI0072",NA,NA,NA,NA,8.6,3,3.6,2.8,3.6,2.3,2.8,10.4,24.6,27.2,22.1,24.1,7.9,8.1,15.5,19.6,NA,NA,0,0,0,NA,25.9,2.5,15.7,0,0.5,0.3,0.3,0,0
93.64,"KEAAU 5.5","COOP","COOP","BI",18,19.613803,-154.955684,"US1HIHI0068",NA,NA,NA,NA,10.9,4.1,0.5,7.4,1.3,2.5,0,NA,31.2,22.9,12.7,30.5,10.7,3.6,26.4,34,10.2,13.7,0,0.8,0,0,25.4,2,8.4,2.5,0.5,0.5,0,0,0
93.8,"KONA VILLAGE 93.8","KO VILLAGE RES","COOP","BI",12,19.8314012,-155.9858256,"USC00514765",NA,NA,NA,NA,2,0,0,0,0,0,0,0,0,0,0,0,0,0,0,0,0,0,0,0,0,0,0,0,0,0,0,0,0,0,0
94,"KAUPULEHU LAVA FLOW","RAWS","RAWS","BI",372.1608,19.80333333,-155.9180556,NA,"KPLH1","4870E628",NA,NA,0,0,0,4.06399999999996,0,0,0,0,0,0,0,0,0,0,0,2.28600000000003,0,0,0,0,1.77799999999996,0,0,0,0.254000000000048,0,0,0,0,0,0
94.5,"PUU WAAWAA","RAWS","RAWS","BI",708.9648,19.795,-155.8452778,"USR0000HPUW","PWWH1","487046D0",NA,NA,0,0,0,0.762000000000057,0,0,0,0,0,0,0,0,0,0,0,0,0,0,0,0,0,0,0,0,0,0,0,0,0,0,0
95.11,"WAIKOLOA VILLAGE 2.7 ENE","WAIKOLOA VILLAGE 2.7 ENE","CoCoRaHS","BI",265,19.9465,-155.7883,"US1HIHI0047",NA,NA,NA,NA,0,0,0,0,0,0,0,0,0,0,0,1.8,0,0,0,0,0,0,0,0,0,0,0,0,0,0,0,0,0,NA,NA
95.6,"WAIKOLOA","RAWS","RAWS","BI",297.7896,19.92416667,-155.7936111,NA,"WKVH1","4870C0C4",NA,NA,0,0,0,0,0,0,0,0,0,0,0,1.01600000000001,0,0,0,0,0,0,0,0,0,0,0,0,0,0,0,0,0,0,0
95.8,"WAIKOLOA 95.8","BOISE CASCADE","COOP","BI",268,19.93389178,-155.7877744,"USC00519142",NA,NA,NA,NA,0,0,0,0,0,0,0,0,0,0,0,1.3,0,0,0,0,0,0,0,0,0,0,0,0,0,0,0,0,0,NA,NA
95.9,"WAIKOLOA BEACH RT 95.9","COOP","COOP","BI",24,19.91278,-155.87778,"USC00519144",NA,NA,NA,NA,0.5,0,0,0,0,0,0,0,0,0,0,0,0,0,0,0,0,0,0,0,0,0,0,0,0,0,0,0,0,0,0
98.2,"PUHO CS","PUHO CS","RAWS","BI",29.5656,19.42194444,-155.9075,NA,"PERH1","32D6803A",NA,NA,0,0,0,NA,0,0,NA,0,0,0,NA,1.01600000000001,NA,NA,NA,0,0,0,0,0,NA,NA,0,0,0,0,0,0,0,0,0
98.91,"HOLUALOA 0.95","COOP","COOP","BI",527.3,19.6225861,-155.927558,"US1HIHI0067",NA,NA,NA,NA,0,0,0,2.5,3.8,1.3,0,0,0,0,0,0,NA,6.6,5.3,NA,NA,3.6,1,1.3,NA,1.8,0,0,0,0,NA,3.8,1.5,0,0
99,"PTA WEST","RAWS","RAWS","BI",1307.592,19.77166667,-155.7022222,"USR0000HPTW","PKWH1","32667176",NA,NA,0,0,NA,0,0,0,0,0,0,0,0.254000000000019,5.84199999999998,NA,0,0,0,0,0,0,0,0,0,0,0,0,0,0,0.508000000000038,0,0,0
102.8,"AUHMOA","RAWS","RAWS","BI",2001.9264,19.83638889,-155.6130556,NA,"AHMH1","4870D3B2",NA,NA,0,0,0,0,0,0,0,0.508000000000038,0.761999999999944,0.254000000000019,0.508000000000038,15.494,0,0,0,0,0,0,0,0,0,0,0,0,0,0,0,0.254000000000019,0,0,0
107.4,"PTA EAST","RAWS","RAWS","BI",1959.864,19.68277778,-155.5452778,"USR0000HPTA","PTAH1","3266D18E",NA,NA,0,0,0,0,0,0,0.253999999999962,0.507999999999981,3.55600000000004,1.52399999999994,1.77800000000002,33.528,0,0,0,0.254000000000019,0,0,0,0,0,0,0,0,0,0,0,0,0,0,0
109,"PTA RANGE 17","RAWS","RAWS","BI",1734.312,19.74583333,-155.6261111,NA,NA,"3279630C",NA,NA,0,0,NA,0,0,0,0,0,0,0,1.01599999999999,16.256,0,0,0,0,0,0,0,0,0,0,0,0,0,0,0,0,0,0,0
111,"HALEPOHAKU 111","STATE DIV FTRY","COOP","BI",2811,19.76029046,-155.4555569,"USC00511065",NA,NA,NA,NA,6.1,NA,0.3,0.5,NA,NA,0,NA,0.3,NA,NA,104.1,3,2.5,NA,3.3,0.5,NA,NA,NA,NA,NA,0,0,NA,NA,NA,NA,NA,NA,NA
113.2,"PUU MALI","RAWS","RAWS","BI",2165,19.92666,-155.44,NA,"PMLH1","3181742E",NA,NA,NA,0,0.762,0,0,0,0,NA,NA,NA,33.274,96.52,0,NA,NA,0,0,0,0,0,0,0,NA,NA,NA,1.26999999999998,0,0,0.254000000000133,0,0
127.5,"Laupahoehoe","Hilo Forest Service","HIPPNET","BI",1145,19.93217,-155.29129,NA,NA,NA,NA,NA,0.254,1.016,2.032,2.54,0.254,3.81,14.986,16.6679973116018,49.022,90.932,104.652,115.824,6.096,4.318,91.44,9.144,2.54,2.794,0.254,0,0,9.398,10.16,7.62,1.27,0,0,0,0,0,1.016
129,"HAKALAU","RAWS","RAWS","BI",1950.72,19.82111111,-155.3305556,"USR0000HHAK","HKUH1","8374D370",NA,NA,0.254000000000133,0,0,0,0,1.01599999999985,4.31799999999998,10.922,33.5279999999998,29.9720000000002,92.202,183.896,3.3404415535054,3.81000000000017,25.3999999999999,9.39800000000014,3.55600000000004,0.507999999999811,0,0,0,4.107138740076,4.57200000000012,3.0095986988121,0.254000000000133,0,0,0,0,0,0
132.2,"Spencer","Hilo Forest Service","HIPPNET","BI",454,19.96358,-155.25014,NA,NA,NA,NA,NA,0.762,6.096,1.016,3.556,0.508,4.064,8.382,8.636,70.404770504348,35.56,39.37,67.943737382145,11.684,5.842,52.578,7.62,0.762,0,0.254,0,0,12.7,6.35,6.604,2.794,0.508,0,0,0,0,0
132.6,"Laupahoehoe, HI US F9660-FW9660","unknown","APRSWXNET","BI",334,19.9672,-155.2367,NA,"F9660",NA,NA,NA,1.7779965515137,3.04799980211257,1.01599983515014,4.31800009727479,4.06400005149841,4.5720000371933,14.4779994754791,12.9540008703003,52.3239892847901,38.8620089721679,65.2780058898927,NA,12.7000032501221,12.1919996790162,81.0260057449341,12.1919937133788,3.30199813842772,1.01599991893769,1.77799991035461,NA,0,15.4940004348755,13.2079996643066,8.6359997987748,8.12800025939947,0,0,0,0,0,0
133.3,"Laupahoehoe","NWS","HydroNet-UaNet","BI",499.872,19.9792,-155.2372,NA,"LPHH1","B159741A",NA,NA,0.761999999999716,0.50800000000072,1.52399999999943,3.8100000000004,2.03199999999924,2.03200000000106,16.7639999999992,10.4139999999998,62.4840000000004,29.4639999999999,63.5,52.6981628251321,10.4139999999998,14.2240000000002,52.0700000000006,10.1599999999989,2.28600000000097,1.26999999999862,1.01600000000053,0,0,5.48641731453176,12.6999999999998,7.61999999999989,10.4139999999998,0,0,0,0,0,0
138.2,"KAHUNA FALLS 138.2","COOP","COOP","BI",424,19.86139,-155.16361,"USC00512595",NA,NA,NA,NA,1.8409069995081,3,0.8,7.4,1.5,10.4,1.91840027152689,45.4144124202467,47.0412106206397,59.7,47.2,146.1,34,23.6434701566799,61,59.4,15.3281104198286,9.42362060876166,5.6,0.5,0.3,0.3,49.5,10.6475158086398,10.3063729344742,0.3,0.3,0.3,0,0,0
140.1,"PAPAIKOU MAUKA NO 2 140","MAU KEA SUGAR","COOP","BI",427,19.78695738,-155.1388973,"USC00517724",NA,NA,NA,NA,9.63338821661269,2.44113435169016,1.8,6.9,4.1,8.6,1.5,41.4,33.8,79.5,25.1081199969966,67.8,22.1,18.5,47.2,43.2,11.7,7.6,2.5,0.3,0,0,38.9,6.4,7.58724911431837,0,0,0,0,0,0
144.1,"PAPAIKOU 144.1","MAU KEA SUGAR","COOP","BI",61,19.78362447,-155.0922318,"USC00517711",NA,NA,NA,NA,8.86182068730191,2.50788708594201,1.15584325750222,3.28407771000632,5.8,2.8,0.3,28.2,24.5520889738925,35.2525843593125,20.5277827075755,57.0777317715051,14.9228382482624,12.2515656037348,56.4,27.2719767533931,7.77240399549268,4.21672717879071,1.80727238103828,0.25178902997523,0,0,21.4573612095378,5.25506711758864,6.13469872582663,0.210213339952293,0,0.3,0,0,0
147.1,"MIDDLE PEN 147.1","KAHUA RANCH","COOP","BI",421,20.10027112,-155.8322151,"USC00516270",NA,NA,NA,NA,NA,NA,NA,NA,NA,NA,0,0,NA,NA,NA,NA,0,0,0,NA,NA,NA,NA,NA,NA,NA,NA,NA,NA,NA,NA,NA,NA,NA,NA
147.2,"KOHALA RANCH","KOHALA RANCH","RAWS","BI",328.8792,20.08305556,-155.8325,NA,"KHRH1","4870B654",NA,NA,NA,NA,0,NA,NA,NA,0,0,0,0,0,1.01600000000002,0,0,0,0,NA,0,NA,NA,NA,0,0,0,0,0,NA,NA,NA,NA,NA
160.3,"Upolu Airport","NWS","HydroNet-UaNet","BI",34,20.265,-155.8582,NA,"UPLH1","B15017A0",NA,NA,0,0.762,0.254000000000076,0,0,0,0.507999999999981,6.34999999999997,NA,8.38200000000001,NA,2.03199999999998,0.762,2.286,0.761999999999944,0,0,0,0,0,0,8.12799999999999,0.762000000000057,10.16,0,0,0,0,0,0,0
176.3,"Kahua Ranch HQ","KAHUA RANCH","HydroNet-UaNet","BI",987.552,20.1249008,-155.7884,NA,"KASH1","15D293C2",NA,NA,0,0.253999999999905,0.197278173166574,0.507999999999811,0.254000000000133,0,2.28599999999983,8.12800000000016,9.65200000000004,4.53739798282891,4.57199999999989,6.60400000000004,1.26999999999998,1.01600000000008,2.03199999999993,0.253999999999905,0,0,0,0,0,5.08000000000015,1.26999999999998,3.55600000000004,1.52399999999989,NA,0,0,0,0,0
178.12,"PONOHOLO RCH 178.11","PONOHOLO RCH 178.11","COOP","BI",762,20.12554592,-155.7774941,"USC00518101",NA,NA,NA,NA,0,0,NA,0,1.3,0,NA,5.6,4.8,7.9,6.4,6.9,1.8,NA,2.5,NA,0,0,0,0,0,NA,7.6,NA,6.4,1.8,0,0,0,0,0
185.7,"KawainuiRainGagenearKamuela","USGS","USGS","BI",1237.488,20.08533333,-155.6811667,NA,"KWSH1","DDF6A592",NA,NA,2.03199999999998,NA,8.12800000000004,5.334,1.26999999999998,5.07999999999998,8.12800000000004,NA,NA,NA,37.846,56.134,NA,NA,NA,10.414,2.03200000000004,1.524,0.507999999999925,0,0.254000000000019,12.7390338928759,NA,NA,NA,0.291227584470694,0.253999999999905,0,0.254000000000019,0,0
191.1,"LALAMILO FLD OF 191.1","DOWALD","COOP","BI",799,20.01083015,-155.6763867,"USC00515260",NA,NA,NA,NA,NA,NA,NA,NA,NA,NA,NA,NA,NA,NA,NA,13,0.8,NA,NA,NA,NA,NA,NA,NA,NA,NA,NA,NA,NA,NA,NA,NA,NA,NA,NA
192.7,"Kamuela Upper","NWS","HydroNet-UaNet","BI",948.5376,20.0319996,-155.6667,"USC00513080","KUUH1","817075F6",NA,NA,0.253999999999678,0.254000000000133,0.254000000000133,3.04799999999977,0,0,0.508000000000266,0.253999999999905,0.254000000000133,5.8420000000001,14.2239999999997,25.1460000000002,4.60079923036384,11.1759999999999,5.4833052758357,0.508000000000038,0,0,0,0,0,3.27030603358036,2.53546189272313,2.04671414425473,3.13329649549683,4.25396240494939,0.156171398574618,0,0,0,0
192.9,"PUUKAPU HMSTD 192.9","COOP","COOP","BI",916,20.0375,-155.6347,"USC00518386",NA,NA,NA,NA,3,0.3,0.8,1.3,1.5,0.3,0.8,1,0.8,8.74068955807827,NA,31.8,5.6,5.1,6.1,7.6,0,0,0.5,0,0.3,0,4.19105579819269,0,3.3,5.1,0,0,0,0,0
201.3,"Kamuela 1","NWS","HydroNet-UaNet","BI",877.824,20.0394993,-155.6084,NA,"KMUH1","81706680",NA,NA,0,0.253999999999905,0.253999999999905,2.03200000000015,0.253999999999905,0.50800000000072,0.761999999999716,0.253999999999905,0.253999999999905,3.30200000000059,7.61999999999898,22.3519999999999,6.09600000000046,1.27000000000044,7.11200000000008,0.507999999999811,0,0,0,0,0,2.00554856791713,2.79400000000078,1.26999999999953,3.8100000000004,3.45936087117965,0.253999999998996,0,0,0,0
215.5,"Honokaa","NWS","HydroNet-UaNet","BI",591.9216,20.0656,-155.49,NA,"HNKH1","B15047DC",NA,NA,0.253999999999905,0.507999999999811,0.50800000000072,1.26999999999953,0.664220253999458,0.507999999999811,7.36599999999999,4.57200000000012,13.8077900102631,27.177999999999,55.6260000000002,45.7200000000003,4.44563459540415,2.28600000000006,15.0070542185966,NA,0,0,0,0,0,5.84200000000055,4.57200000000012,8.1279999999997,14.732,2.96256074769687,0,0,0,0,0
216.6,"HONOKAA 2.5 SSW","HONOKAA 2.5 SSW","CoCoRaHS","BI",757,20.0417,-155.4777,"US1HIHI0033",NA,NA,NA,NA,7.4,0.3,0.5,0.5,3.6,0.5,1,7.4,2.8,15,16.8458073213172,95.8,1.8,4.1,4.8,NA,0.5,0,0.5,0.3,0.3,0.3,4.8,1.3,5.3,8.1,0.3,0.3,0.3,0.5,0.3
216.8,"KALOPA 216.8","COOP","COOP","BI",396,20.06111,-155.43528,"USC00512982",NA,NA,NA,NA,1,0,0.8,0.5,0.5,0.8,1,10.4,7.9,23.9,15.7,95,5.1,4.8,5.40790410064019,12.6576725212611,0,0,0,0,0,0,7.1,1.3,5.6,14.5,0,0,0,0,0
216.9,"HONOKAA 2.7 ESE","HONOKAA 2.7 ESE","CoCoRaHS","BI",333,20.0606,-155.43,"US1HIHI0034",NA,NA,NA,NA,9.1,0,1,1.3,0.5,0,1.5,6.4,7.1,14,18,96.8,2.3,4.1,6.1,NA,0,0,0,0,0,0,4.1,1,4.8,11.7,0,0,0,0,0
221,"PAAUILO 221","HAMAKUA MILL","COOP","BI",244,20.03860487,-155.3688913,"USC00517312",NA,NA,NA,NA,2.84873097953211,2.5,2.3,0.8,1.8,0.8,5.01646103176715,13.5,5.83443396758216,30.5,23.1,82.6,2.5,9.4,7.6,18.3651199516636,5.1,0,0,0,0,0,3.3,9.4,6.1,0.5,1,0,0,0,0
221.7,"PAAUILO 2.4 SW","PAAUILO 2.4 SW","CoCoRaHS","BI",613,20.019,-155.3988,"US1HIHI0050",NA,NA,NA,NA,5.86149722081385,0.3,0.3,0.807027514566349,0.5,0.513639229351788,2.5,9.1,4.8,31.5,12.4,111.3,0.5,2.5,5.6,NA,0.3,0,0.5,0,0,0,2.8,1.3,4.1,4.6,0.3,0,0,0.3,0
249.1,"MAKENA GOLF CRS 249.1","MAKE GC","COOP","MA",30,20.6420893,-156.4388486,"USC00515842",NA,NA,NA,NA,NA,NA,NA,NA,0,NA,NA,NA,0,NA,NA,0,0,0,NA,NA,NA,NA,NA,NA,NA,NA,0,NA,NA,NA,NA,NA,NA,NA,NA
250,"ULUPALAKUA RANCH 250","ULUPALAKUA RANCH","COOP","MA",579,20.648174,-156.398497,"USC00518760",NA,NA,NA,NA,1,NA,NA,NA,0,0,0,0,NA,NA,NA,0,0,0,0,NA,NA,NA,0,0,NA,6.6,NA,NA,NA,0,NA,0,0.8,NA,NA
250.2,"Ulupalakua Ranch","NWS","HydroNet-UaNet","MA",581.5584,20.6487999,-156.3981,NA,"ULUH1","8170531A",NA,NA,0,0,0,0,0,0,0,0,0,0,0,0,0,0,0.254000000000133,1.26999999999998,0,0,0,0,5.84199999999987,NA,0,0,0,0,0,0,0.254000000000133,0.254000000000133,0
255,"KepuniGulchRainGage","USGS","USGS","MA",225.552,20.6195,-156.2518889,NA,"KPNH1","F000D4EA",NA,NA,0,0,0,0,0,0,0,0.254,0.508,0.254,0,0,0,0,0,0,0,0,0,0,0,0,0,0,0,0,0,0,NA,NA,NA
258.6,"OHE'O 258.6","HALEAKALA TL PK","COOP","MA",24,20.662925,-156.04248,"USC00517000",NA,NA,NA,NA,2.5,2.5,2.5,2.5,5.1,0,NA,NA,NA,25.4,50.8,17.8,1.3,4.6,24.1,5.1,0.8,0,0,0,0,1,2.5,5.1,3,0,0,2.5,0,1.3,0
267,"KULA HOSPITAL 267","KULA SATORIUM","COOP","MA",916,20.70013977,-156.3555187,"USC00515004",NA,NA,NA,NA,0,0,0,0,0,0,0,0,0,0,0,0,0,0,0,0,0,0,0,0,0,3.6,0,0,0,0,6.4,0,2.8,0,0
267.8,"KULA 1","KULA 1","RAWS","MA",1998.5736,20.68305556,-156.3216667,NA,"KLFH1","AA10F12E",NA,NA,0,0,0,0,0,0.253999999999905,0,0,0,0.762000000000057,0,0,0,0,NA,NA,NA,NA,NA,NA,NA,NA,NA,NA,NA,NA,NA,NA,NA,NA,NA
302,"MAALAEA BAY","NWS","STATE","MA",302,20.7903,-156.514,NA,"P36","15DF05C6",NA,NA,0,0,0,0,0,0,0,0,0,0,0,0,NA,0,NA,0,0,0,0,NA,0,0,0,0,0,NA,NA,0,0,0,0
311.2,"Kealia Pond NWR","Kealia Pond NWR","RAWS","MA",3.6576,20.7975,-156.4772222,NA,"KPDH1","32B2C438",NA,NA,0,0,0,0,0,0,0,NA,NA,0,0,0,NA,NA,NA,NA,NA,0,0,NA,NA,NA,0,0,0,NA,NA,0,0,0,0
311.5,"Kihei 2","NWS","HydroNet-UaNet","MA",54.5592,20.7061005,-156.437,NA,"KHIH1","93202508",NA,NA,NA,0,0,0,NA,NA,NA,0,0,0,0,NA,NA,NA,0,0,0,0,0,0,0,0,0,0,0,0,0,NA,0,0,0
324.7,"Kula Branch Stn","NWS","HydroNet-UaNet","MA",944.88,20.7577991,-156.3217,"USC00515000","KBSH1","93220610",NA,NA,0,0,0,0,0,0,0,0,0,0,0,0,0,0.254000000000133,1.01599999999985,1.27000000000021,0,0,0,0,0,0,0,0,0,1.52399999999966,0,0,0,0,0
329,"LOWER KAHUKU CS","BD OF A&F","STATE","MA",1149,20.80179746,-156.2805211,NA,"LKHH1",NA,NA,NA,NA,4.572021484375,NA,0.2540283203125,1.01593017578125,NA,NA,0,NA,0.25396728515625,2.28601075703125,NA,NA,NA,4.31817630390625,NA,2.53997803671875,0.762023953125,0.25390628359375,0,0,NA,7.1119384765625,0.25408935546875,3.30194092734375,0.2540283203125,NA,NA,0.25396732734375,0.25402833515625,3.12500025856366e-10
337,"south rim","south rim","CraterNet","MA",2898,20.703948,-156.241101,NA,NA,NA,NA,NA,0,0,0,0,0,0,0.6,1.8,12,1.6,0.8,3,0,1.8,8,6.2,0,0,0,0,0,0,0,0,0,0,0,0,NA,NA,NA
337.1,"Sliding Sands","Sliding Sands","CraterNet","MA",2697,20.714563,-156.2394,NA,NA,NA,NA,NA,0.2,0,0,0,0,0,0.4,0.6,9.39847237085025,0.8,0.8,5.6,0,1.8,4.4,6.8,0,0,0,0,0,0,0,0,0,0,0,0,NA,NA,NA
337.12,"Puu Alaea","Puu Alaea","CraterNet","MA",2282,20.73782363,-156.1453106,NA,NA,NA,NA,NA,0.2,0,0.2,0,0.4,0.8,NA,34.2,117.2,30,22.2,NA,0,NA,23.2,10,1.2,0,0,0,0.6,1.2,2,NA,0,0,0,0,0,0,0
337.13,"Paliku","Paliku","CraterNet","MA",1927,20.71236611,-156.1437572,NA,NA,NA,NA,NA,0.2,2,0.6,0,0.2,0.2,NA,39,120.4,35.8,32.8,30.4,0,NA,12.4,NA,3.8,0.2,0,0,0.2,2.4,2.4,0.8,0,0,0,0,0,0,0
337.2,"Puu o Pele","Puu o Pele","CraterNet","MA",2424,20.709651,-156.224485,NA,NA,NA,NA,NA,0,0,0,0,0,0,0.2,1,9.48266865375864,0.8,0.6,1,0,1.8,6.2,3.4,0,0,0,0,0,0,0,0,0,0,0,0,NA,NA,NA
337.3,"Lava lake","Lava lake","CraterNet","MA",2270,20.718443,-156.212261,NA,NA,NA,NA,NA,0,0,0,0,0,0,0.4,1.2,8.4,0.8,0.8,0.4,0,1,6,2.8,0.2,0,0,0,0,0,0,0,0,0,0,0,NA,NA,NA
337.4,"Silversword loop","Silversword loop","CraterNet","MA",2186,20.731704,-156.205387,NA,NA,NA,NA,NA,0,0,0,0,0,0,1,2,20.6,1.2,1,1,0,1.6,2.2,4.2,0.4,0,0,0,0,0,0.2,0,0,0,0,0,NA,NA,NA
337.5,"Leleiwi","Leleiwi","CraterNet","MA",2722,20.74337371,-156.2288651,NA,NA,NA,NA,NA,0.2,0,0,0,0,0,5.4,NA,30,NA,4.4,4.2,0,5.4,NA,NA,0.2,0,0,0,0,0,0.2,0.6,0,0,0,NA,NA,NA,NA
337.6,"Puu Nole","Puu Nole","CraterNet","MA",2261,20.717807,-156.188007,NA,NA,NA,NA,NA,0,0,0,0,0,0,1.4,2.8,8.8,1.8,1.4,1.2,0,0.6,1.6,3.2,0,0,0,0,0,0,0.2,0,0,0,0,0,NA,NA,NA
337.7,"Hanakauhi","Hanakauhi","CraterNet","MA",2645,20.73567887,-156.1754875,NA,NA,NA,NA,NA,0,0,0,0,0,0,4,8.4,40.4,6.6,4,1.2,0,4.6,7.2,6.8,0,0,0,0,0.2,0.8,0.8,0.8,0,0,0,0,0,0,0
337.8,"Aloha Park","Aloha Park","CraterNet","MA",2455,20.73555054,-156.1587809,NA,NA,NA,NA,NA,0.2,0,0,0,0,0.2,8.4,20,69.4,16,13.2,6.8,0,NA,14,5,0.2,0,0,0,0.4,1.2,0.4,5,0,0,0,0,0,0,0
337.9,"Laie","Laie","CraterNet","MA",2051,20.7229056,-156.1544823,NA,NA,NA,NA,NA,0,0,0,0,0,0,7,14,68.2,13.2,14,12.8,0,5.6,NA,8.6,0.2,0,0,0,0,1.2,0.8,0.4,0,0,0,0,0,0,0
338,"HALEAKALA RANGER STATION 338","HAWAII T PARK","COOP","MA",2143,20.75846738,-156.2455233,"USC00511004",NA,NA,NA,NA,0,1.8,0,0,0,0,0,NA,20.3,NA,0,NA,0,NA,NA,NA,1.3,0,0,0,0,0,0,NA,NA,NA,NA,NA,NA,NA,NA
348.5,"WestWailuaikiRainGagenrKeanae","USGS","USGS","MA",472.44,20.81436111,-156.1429722,NA,"WWKH1","DD5E710A",NA,NA,6.60400000000027,6.85799999999972,NA,3.81000000000017,0.12470249201385,7.11200000000008,5.75225891069331,21.8440000000003,71.6279999999999,38.354,58.1659999999999,52.5779999999997,11.208856154729,9.75043550766362,72.1399844437078,12.3694850980508,4.68594083265224,4.82599999999979,0,0,0.762000000000171,7.61999999999989,7.87400000000002,8.16069936889751,1.27000000000044,0,0,0.253999999999678,0,0,0
353,"Hana AP","NWS","HydroNet-UaNet","MA",19,20.7946,-156.0157,"USC00511125","HNAH1","B150314C",NA,NA,0.253999999999905,1.27000000000044,2.79399999999941,1.77799999999979,4.57200000000012,0.508000000000266,3.55599999999959,NA,NA,NA,7.11200000000008,5.84199999999964,2.28600000000006,NA,6.09599999999955,2.28600000000006,0,0.508000000000266,0,0,0.762000000000171,1.01599999999962,2.03200000000015,5.07999999999993,0,0,0,0,0,0,0
361.1,"Lahainaluna","NWS","HydroNet-UaNet","MA",238.0488,20.8909,-156.6556,NA,"LAHH1","81700366",NA,NA,0,0,0,0,0,0,0,0.508000000000038,NA,4.31799999999998,0,0,0,0,0,NA,0,0,0,0,0,0,0,0,0,0,0,0,0,0,0
380,"PuuKukuiRainGageatalt","BALDWIN PKRS","USGS","MA",1759,20.89083333,-156.6008333,"USC00514887","PKKH1","DD73556E",NA,NA,7.36599999999999,8.29875648441031,NA,2.03199999999924,0.253999999999905,2.79400000000078,1.60219362778943,22.2464519770052,72.9476681106439,44.3643166291568,59.2376453806292,53.5466925493022,14.0191942431593,13.6186458362121,13.2180974292648,11.6159038014747,9.14400000000023,4.31800000000021,0.253999999999905,0,0.588293714700729,6.85799999999927,2.54000000000087,5.60767769726388,0.253999999999905,0,0.253999999999905,3.04799999999977,0,0,0
386.6,"Wailuku","NWS","HydroNet-UaNet","MA",146.9136,20.8831005,-156.5124,NA,"WUKH1","9321D776",NA,NA,0,0,0,0,0,0,0,NA,1.77799999999979,NA,0.762000000000171,NA,0,0,1.26999999999998,NA,NA,0,0,0,NA,0,0.25400000000036,NA,0,0,0,0,0,0,0
387.6,"Maui HI US AR427-AH6GR ","unknown","APRSWXNET","MA",233.76,20.875,-156.516,NA,"AR427",NA,NA,NA,NA,NA,NA,NA,NA,NA,NA,NA,1.5239999294281,1.26999989114533,NA,NA,NA,NA,1.01600003242493,NA,6.35000030708308,0,NA,NA,0,NA,0.508000016212463,0.254000024318694,0,NA,NA,NA,NA,0,0
390,"WAIKAPU 390","WAILUKU SUGAR","COOP","MA",130,20.8491,-156.5092,"USC00519376",NA,NA,NA,NA,2.5,NA,NA,NA,0.551007656930131,0,NA,0.980359981306432,NA,NA,NA,0.5,0.808170088515766,0.551007656930131,1.89731901982593,NA,NA,NA,0,0,0,0,NA,NA,NA,0,0,0.551007656930131,0,NA,NA
390.4,"Waikapu Country Club","NWS","HydroNet-UaNet","MA",145.9992,20.8346996,-156.5135,NA,"WCCH1","9320E016",NA,NA,NA,0,0,0,NA,0,0,NA,0.254000000000133,NA,0,NA,NA,NA,NA,NA,NA,NA,0,NA,NA,NA,NA,NA,NA,NA,NA,0,0,NA,NA
398,"KAHULUI AIRPORT","NOAA-NWS","NWS","MA",12,20.8887,-156.41,"USW00022516","PHOG",NA,NA,NA,0,0,0,0,0,0,0.3,1.8,3.3,0.8,0,0,0,0,0.5,6.4,0,0,0,0,NA,NA,0,0,0,0,NA,0,0,NA,NA
426.6,"Pukalani","NWS","HydroNet-UaNet","MA",495.9096,20.8355007,-156.3307,NA,"PUKH1","15D2B52E",NA,NA,NA,0,NA,NA,NA,NA,1.26999999999998,NA,NA,2.28600000000017,1.77800000000002,0,0,0,0,0,0,NA,NA,0.507999999999811,NA,NA,0,1.2700000000001,0,NA,NA,NA,NA,NA,NA
457.1,"PUUKOLII 457.1","COOP","COOP","MA",128,20.93194,-156.67611,"USC00518407",NA,NA,NA,NA,0.18888055952895,NA,0,0.755522238115802,0,0,NA,1,NA,3.6,1.3,0.3,0.944402797644752,0.18888055952895,2.00213393100688,NA,NA,NA,0,0,0,0.377761119057901,0,NA,1.24661169289107,0,0,0,0.11332833571737,NA,NA
466,"MAHINAHINA 466","PIONEER MILL","COOP","MA",257,20.94678808,-156.6555055,"USC00515715",NA,NA,NA,NA,0.5,4.11828653190597,0,2,0,0,NA,2.8,13.8574776546566,9.52983199800457,3.44132822150165,0.794152666500381,2.5,0.5,5.3,NA,0.445220165611456,0,0,0,0,1,0,1.3913130175358,3.3,0,0,0,0.3,0,0
482,"WAIHEE VALLEY 482","WAILUKU SUGAR","COOP","MA",91,20.94012106,-156.5255102,"USC00519315",NA,NA,NA,NA,2.8,3.60209593553808,0,0,0.8,0,NA,1.8,12.1205660533646,NA,NA,4.3,1.3,0.8,2.5,NA,0.389415776814928,0,0,0,0,0,0.389415776814928,1.21692430254665,NA,0,0,0.8,0,0,0
484,"WAIEHU CAMP 484","WAILUKU SUGAR","COOP","MA",98,20.91623388,-156.5088444,"USC00519275",NA,NA,NA,NA,0.8,2.75299939433566,0,0,0.305710835424978,0,NA,0.8,9.26347093499433,NA,NA,3,0.8,0.491724308015225,2.3,NA,0.297621556144396,0,0,0,0,0,0.297621556144396,0.930067362951237,NA,0,0,0.305710835424978,0,0,0
486.7,"HAIKU 3.2 SE","HAIKU 3.2 SE","CoCoRaHS","MA",416,20.92011989,-156.3071849,"US1HIMI0001",NA,NA,NA,NA,2.93367345759837,7.4,0,0,0,0,NA,3.62648254044997,24.9,NA,NA,8.44883893795456,7.1,1,6.94720826470518,NA,0.8,0,0,0,0,0,0.8,2.5,5.92965055024917,0,0,0,0,0,0
489,"Haiku","NWS","HydroNet-UaNet","MA",99.3648,20.9288998,-156.3225,"USC00510822","AIKH1","50A30568",NA,NA,1.26999999999992,1.27000000000004,0.254000000000019,0,0,0,3.048,NA,28.448,9.50342721523871,8.12800000000004,4.31800000000004,3.55599999999993,2.79400000000004,2.52913788792646,2.22257571969286,0,0,0,0,0,1.01599999999996,0.507999999999925,6.60400000000004,0,0,0,0,0,0,0
499.9,"KANELOA","RAWS","RAWS","KO",248.412,20.52222222,-156.5658333,"USR0000HKAN","KAOH1","32793370",NA,NA,0,0,0,0,0,0,0,0,0,0,0,0,0,0,0,0,0,0,0,0,0,0,0,0,0,0,0,0,0,0,0
524,"MOLOKAI KAUNAKAKAI MOLOKAI AIRPORT","ALOHA AIRLINES","NWS","MO",141,21.15514996,-157.0924625,"USW00022534","PHMK",NA,NA,NA,0.8,1.3,0,0.3,0,0,0,0,1.3,0.5,1.3,0,0,0,0,0,0,0,0,0,0,0,0,0,0,0,0,0,0,0,0
536.5,"Kaunakakai Mauka","MOLOKAI GEN HOSP","HydroNet-UaNet","MO",28.3464,21.0946007,-157.0174,NA,"KACH1","50A0F2E2",NA,NA,0,0,0.254000000000076,0,NA,NA,0,NA,0,0,0,0,NA,0,NA,0,0,0,0,NA,NA,0,NA,0,0,NA,NA,NA,NA,NA,NA
536.6,"KAUNAKAKAI 3.5 ESE","KAUNAKAKAI 3.5 ESE","CoCoRaHS","MO",13,21.068,-156.963,"US1HIMI0002",NA,NA,NA,NA,NA,NA,NA,NA,NA,0,NA,0,0,0.3,NA,NA,0,NA,NA,NA,NA,NA,NA,0,NA,NA,NA,NA,NA,0,NA,NA,NA,0,0
538,"MOLOKAI 1","RAWS","RAWS","MO",833.0184,21.115,-156.9475,"USR0000HMLK","MLKH1","487016AC",NA,NA,0.507999999999925,0.253999999999905,0,0,0,0,0,NA,NA,6.096,0.254000000000019,0,0,0,0.254000000000019,0.254000000000019,0,0,0,0,0,0,0,0.508000000000038,0,0,0,NA,0,0,0
541.2,"Puu ALII WEST","Puu ALII WEST","RAWS","MO",1159.764,21.14083333,-156.9022222,NA,"PAFH1","32D6062E",NA,NA,4.82599999999979,6.096,NA,3.30200000000013,0,1.52399999999989,1.01599999999985,14.1071558497077,NA,31.4959999999999,NA,NA,8.88999999999987,8.63599999999997,8.38200000000006,7.36599999999976,0.254000000000133,0,0.507999999999811,2.03200000000015,0.254000000000133,1.52399999999989,0.254000000000133,3.55600000000004,NA,1.01599999999985,0,NA,0.507999999999811,0,0
550.3,"MAUNALOA 3.2 NNW","MAUNALOA 3.2 NNW","CoCoRaHS","MO",93,21.1804,-157.2319,"US1HIMI0006",NA,NA,NA,NA,0,1,0.3,0,0,NA,NA,NA,NA,5.3,0.5,0,NA,NA,1,0,0,0,0,0,0,NA,0,0,0.5,0,0,0,0,0,0
553,"MAKAPULAPAI","RAWS","RAWS","MO",22.86,21.20333333,-156.9661111,"USR0000HMAK","MKPH1","FA9024CE",NA,NA,NA,NA,NA,NA,0,NA,NA,NA,NA,1.015991225,1.5240478625,NA,1.01593017578125,1.7780151609375,3.04803466796875,NA,NA,0,NA,NA,NA,0,0,1.27001953125,NA,0.761962890625,NA,NA,NA,0,0
563,"KALAUPAPA 563","CIVIL AIR PATROL","COOP","MO",9,21.19014673,-156.9824624,"USC00512896",NA,NA,NA,NA,NA,NA,NA,NA,NA,NA,0.5,1.3,NA,NA,NA,NA,1.3,NA,NA,NA,NA,NA,NA,0.5,NA,NA,NA,NA,NA,0,1.8,NA,NA,NA,NA
679,"LANAI 1","RAWS","RAWS","LA",387.096,20.87333333,-157.0063889,"USR0000HLAN","LNIH1","48702336",NA,NA,0,0.50800000000001,0,0,0,0,0,0,0,0,0,0,0,0,0.507999999999981,0,0,0,0,0,0,0,0,0,0,0.254000000000048,0,0,0,0,0
702.7,"Kapolei-Kalaeloa AP","NWS","NWS","OA",15,21.31667,-158.06667,"USW00022551","PHJR",NA,NA,NA,0,0,0,0,0,0,0,0,0,0,0,0,0,0,0,0.8,0,0,0,0,1.8,0,0,0.077430389044962,0,0,0,0,0,0,0
703,"HONOLULU INTERNATIONAL AIRPORT","USWB","NWS","OA",2.1,21.324,-157.9294,"USW00022521","PHNL",NA,NA,NA,0,0,0,NA,NA,0,NA,0,0,0.3,0.3,0,0,NA,NA,0,0,0,0,0,0,0,0,0.5,NA,0,0,0.3,NA,0,0
703.1,"HONOLULU FIRE STATION 703.1, HI US","COOP","COOP","OA",1,21.3287,-157.9298,"USC00511925",NA,NA,NA,NA,0,0,0.183408949565658,0.5,0,0,0,0.729903594569727,0.197129094347196,2,0.854226075504516,1.58376217798511,0.735318154064516,0,0.8,0.24911864768139,0,0,0,0,0,0.0848444023920596,0,1,0.3,0,0,0,0.3,0,0
705,"BERETANIA PUMP STN 705","BWS","COOP","OA",6,21.305169,-157.8522571,"USC00510211",NA,NA,NA,NA,0,0,0.3,0.3,0,0,0.5,0.3,2.3,2.5,0.8,2.00788962574918,0.8,1,0.3,0,0,0,0,0,0.5,0,0,1.3,0,0,0,0,0,0,0
707.2,"EWA KALAELOA AIRPORT","LYDECKER RC","STATE","OA",14,21.30489073,-157.8305905,"USW00022551",NA,NA,NA,NA,0,0,0,0,0,0,0,0,0,0,0,0,0,0,0,0.8,0,0,0,0,1.8,0,0,0,0,0,0,0,0,0,0
707.5,"HONOLULU 2.0 SW","CoCoRaHS","CoCoRaHS","OA",12,21.3004,-157.8293,"US1HIHN0023",NA,NA,NA,NA,0,0,0.3,0.8,0,0,0.3,2,0.853969315940838,5.1,1.21146945528116,2.8,1.3,0,6.1,0.3,1,0,0,0,0,0.3,0,0.8,1,0,0,0,0.3,0,0
712.1,"MANOA 712.1","BEAUMONT MRS J","COOP","OA",61,21.31044568,-157.8147571,"USC00516122",NA,NA,NA,NA,3,1.3,2,3.8,0.5,0.5,1.3,4.1,1,10.9,2.5,4.20142919205532,7.6,1,6.96118368610468,2.5,3.8,0.5,0,0,0.3,3,0,4.6,4.3,0,0.8,2.8,1.8,0,0
713,"UNIV OF HAWAII 713","UH MET DEPT","COOP","OA",24,21.29933514,-157.8167017,"USC00518815",NA,NA,NA,NA,0.8,0.5,0.8,2.5,0,0.3,0.5,1.8,0.3,7.4,0.3,3.6,2.02946495135158,0.5,3.8,1.8,3.6,0,0,0,0.3,0.5,0,3.8,0.3,0,0,0.3,0.8,0,0
715,"WAIALAE KAHALA","TINKER SPENCER","COOP","OA",15,21.27433592,-157.7880917,"USC00519185",NA,NA,NA,NA,0,1.3,1.8,1.8,0,0,0,0,1.3,2.5,0,0,0.5,0,1.3,0.8,1.8,0,0,0,0,0,0,0.8,0,0,0,0,0,0,0
718,"PALOLO VALLEY 718","BWS","COOP","OA",302,21.32183297,-157.7717015,"USC00517664",NA,NA,NA,NA,4.8,1.8,9.57875478234545,2.5,0.5,1,3,1,8.4,8.1,8.36209069432579,11.5307430376494,10.8980032259655,11.6409306733107,8.6,9.97162292151708,0,0.3,2,0,6.4,0.8,0.3,22.4869826920852,0,0.3,2.8,1.5,0.3,0,0
720.6,"HONOLULU 2.7 SSE","CoCoRaHS","CoCoRaHS","OA",113,21.285,-157.7816,"US1HIHN0010",NA,NA,NA,NA,0.743991246294817,2.3,0.5,0,0,0,1,0.5,0.703986728390122,1.5,0.5,0.8,0.3,0.8,3.3,0.3,3.6,0.3,0,0,1,5.3,0.3,1.8,1,0.3,0,0.5,0,0,0
721,"WILHELMINA RISE 721","BWS","COOP","OA",335,21.29766804,-157.7853133,"USC00519980",NA,NA,NA,NA,1.3,1,3.6,0.3,0,0,5.8,1,5.1,6.6,4.3,2.8,4.3,8.9,2.5,5.1,0.3,0,0.3,0,2,0,0,7.6,0,0,0.8,0.8,0,0,0
721.4,"Palolo Fire Stn","NWS","HydroNet-UaNet","OA",59.436,21.2996006,-157.7944,"USC00517662","PFSH1","19014414",NA,NA,1.77800000000025,0.762000000000171,3.30199999999968,0.762000000000171,0,0.761999999999716,3.80999999999995,4.06400000000031,4.31800000000021,5.58799999999974,5.07999999999993,2.28600000000006,2.28600000000006,4.82600000000002,2.28600000000006,6.85799999999972,0,0,0.507999999999811,0,0.762000000000171,0.508000000000266,0,7.8739999999998,0,0,0.253999999999905,1.77800000000025,0,0,0
723.4,"PAIKO DRIVE 723.4","GRUBB DL","COOP","OA",3,21.28172556,-157.7282194,"USC00517540",NA,NA,NA,NA,0.5,3,0,0,0,0,0,0.5,1.5,0,0,0,2.8,1.5,0,0,0,0,0,0,1.8,0,0,4.6,0,0.8,0,0,0,0,0
723.8,"Niu Valley","NWS","HydroNet-UaNet","OA",19.812,21.2896996,-157.7332,"USC00516865","NIUH1","1900D38C",NA,NA,0,0.507999999999925,1.524,0,0,0,0.762000000000057,0,1.01599999999996,1.77800000000002,2.03200000000004,0,1.524,5.07999999999993,2.03199999999993,0.762000000000057,0,0,0,0,2.79399999999998,0.508000000000152,0,5.07999999999981,0,0,2.28600000000006,0.254000000000019,0,0,0.253999999999905
724.21,"Kamehame","NWS","HydroNet-UaNet","OA",242.316,21.3085995,-157.6791,NA,"KMHH1","190046EE",NA,NA,0,1.01599999999962,0,0,0,0.25400000000036,0,0,0.507999999999811,0.762000000000171,0.508000000000266,0,0.253999999999451,0.762000000000171,2.54000000000042,0,0,0,0,0,1.52399999999943,1.01600000000008,0,3.55600000000004,0,0,3.8100000000004,0.19401191724262,0,0,0
728.2,"PALEHUA","RAWS","RAWS","OA",722.376,21.385,-158.1041667,NA,"PLHH1","4870F55E",NA,NA,0.762000000000057,0.507999999999925,1.26999999999998,0.508000000000038,0,0.254000000000019,0.507999999999925,3.048,1.524,1.01600000000008,0.761999999999944,1.26999999999998,1.2700000000001,2.28599999999994,0.508000000000038,0,0,0,0,0,2.79399999999998,0.254000000000019,0,2.28599999999994,0.254000000000019,0,0.254000000000019,2.28599999999994,0.508000000000038,0,0
734.5,"HONOULIULI STREAM TRIBUTARY NEAR WAIPAHU 4WNW","NWS","STATE","OA",195.72,21.4019,-158.067,NA,"HOUH1","DD7ED01C",NA,NA,0,0,0,0,0,0,0,0,0,0,0,0,0,0,0,0,0,0,0,0,0,0,0,0,0,0,0,0,0,0,0
742.4,"HONOULIULI PHB","FWS","RAWS","OA",1.524,21.35666667,-158.0205556,NA,"HOFH1","327BF39A",NA,NA,0,0,0,0,0,0,0,0,0,0,0,0,0,0,0.508000000000038,0,0,0,0,0,0,0,0,0.253999999999905,0,0,0,0,0,0,0
752.6,"WAIAWA PHB","FWS","RAWS","OA",1.524,21.38694444,-157.9811111,NA,"WWFH1","3274C092",NA,NA,0,0,0.762000000000015,0.507999999999981,0,0,0,1.01600000000001,1.03949078748477,1.01600000000001,1.01599999999999,0,0,0,0.254000000000005,0,0,0,0,0,0,0,0,3.048,0,0,0,0,0,0,0
764.6,"AIEA HEIGHTS 764.6","G FOWLER","COOP","OA",238,21.39488776,-157.91031,"USC00510123",NA,NA,NA,NA,4.6,0.3,2.3,3,0,0.3,0.8,2.5,2.5,11.4,2.8,6.4,2.3,0.3,8.6,2,0.5,0.3,0,0,0,2,0,2.8,4.6,0,0.3,4.1,3,0,0
764.7,"AIEA 0.7 ENE","CoCoRaHS","CoCoRaHS","OA",175,21.393,-157.9186,"US1HIHN0014",NA,NA,NA,NA,4.8,0,0.3,2,0,0,0,1.3,1.8,11.9,0.5,5.1,0.8,0,3,1.3,0.3,0.3,0,0,0,1,0.3,0.8,4.3,0,0,2,1.5,0.3,0
770,"MOANALUA 770","ROXBURGH J","COOP","OA",6,21.34794527,-157.8950332,"USC00516395",NA,NA,NA,NA,0,0,0.3,0.5,0,0,0,0.5,0.3,6.9,1.3,3.22145595910009,0.963008572194522,0,5.6,0.5,0,0,0,0,0,0,0,5.1,2.3,0,0,0,0,0,0
772.5,"Moanalua Stream","USGS","HydroNet-UaNet","OA",72.2376,21.3736,-157.8801,"USC00516400","MOAH1","1900B66A",NA,NA,1.26999999999998,1.01599999999985,6.85800000000017,0.508000000000038,0,0.253999999999905,1.01600000000008,1.77800000000002,6.096,8.88999999999987,6.85800000000017,4.57199999999989,2.53999999999996,4.31800000000021,15.9185140217006,3.04800000000023,0.507999999999811,0,0,0,1.77800000000002,2.03199999999993,0,8.63600000000019,0,0,3.30199999999991,5.58800000000019,0.761999999999716,0,0
773,"KAPALAMA 773","KAMEHAMEHA SCH","COOP","OA",188,21.33933391,-157.8567005,"USC00513268",NA,NA,NA,NA,0.8,0.306497421882112,1.08393361605099,2.13574180118425,3.3,1.5,3,1.3,0.903297566981598,9.40240606543877,1.43015553734031,6.1,2.5,0.306497421882112,6.44777858001487,1.56064621808654,1.78892167981298,0.07551682368763,1.5,0.5,0.3,0.3,0,4.76211608205182,2.33459762613718,0.3,0.3,2.3,1.3,0,0
775,"NUUANU RES 5 775","BWS","COOP","OA",125,21.339125,-157.835905,"USC00516933",NA,NA,NA,NA,0.8,2,8.6,0.5,0.3,0.5,2.3,3.3,7.6,9.4,6.1,5.6,4.8,8.4,20.8,6.0790675357054,0.8,0,0,0,5.6,2.3,0,16.92455354704,0,0,1.5,2,0,0,0
777,"KALIHI RES SITE 777","BWS","COOP","OA",277,21.37516437,-157.8222555,"USC00512960",NA,NA,NA,NA,5.3,3,4.1,1.8,1.3,5.3,1.5,0.8,3.6,4.1,8.9,12.2,9.1,6.1,26.7,4.8,2,1,0,0,15.5,6.4,0,18.5,0.5,2.8,3.8,7.6,0.5,0,0
781.13,"KANEOHE 0.8 SW, HI US","CoCoRaHs","CoCoRaHs","OA",20,21.4039,-157.8017,"US1HIHN0027",NA,NA,NA,NA,8.1,2.5,4.3,2,2.5,3,0.5,1.8,3,3,2.8,6.9,5.6,2,10.9,1.8,4.8,0.8,0,0,6.4,5.3,1.3,NA,4.6,0.3,2.3,1.3,4.6,0.3,0.8
782.3,"Nuuanu Upper","NWS","HydroNet-UaNet","OA",248.412,21.3502007,-157.8184,"USC00516938","NUUH1","156097FE",NA,NA,4.06400000000019,5.33399999999995,14.732,1.26999999999998,0.761999999999944,1.26999999999998,3.81000000000017,4.572,7.61999999999989,8.12800000000004,6.60399999999993,13.2080000000001,13.462,14.4780000000001,38.0999999999999,13.9699999999999,3.55600000000004,0.254000000000019,1.2700000000001,0,12.954,2.53999999999996,0.254000000000019,21.0819999999999,0.762000000000171,1.01599999999985,2.7940000000001,5.58799999999997,0.508000000000038,0,0
783,"NUUANU RES 4 783","BWS","COOP","OA",320,21.35266525,-157.807534,"USC00516928",NA,NA,NA,NA,4.1,6.4,11.7,0.8,0.5,0.8,2.5,4.8,5.3,7.9,5.1,10.9,13.2,13,24.6,12.7,2.5,0,1,0,18,2,0.3,21.1,1,0.8,1.5,5.6,0.8,0,0.3
784,"PAUOA FLATS 784","BWS","COOP","OA",549,21.33516,-157.81058,"USC00517810",NA,NA,NA,NA,7.6,7.4,13.2,1.5,2.3,1.5,5.1,1.5,9.4,11.1299578727157,11.1053163556906,15.5268004592485,13.7870705848474,15.2987505232584,17,10.5405902948494,2.3,1.8,1,0,12.9705678486227,3.3,0.3,28.2,0.5,2,4.6,9.7,0.5,0,0
785.11,"WAIHI STREAM NEAR HONOLULU 3NE","USGS","USGS","OA",108,21.3283,-157.801,NA,"WISH1","16EA459A",NA,NA,0,0,0,0,0,0,0,0,0,0,0,0,0,0,0,0,0,0,0,0,0,0,0,0,0,0,0,0,0,0,0
785.4,"Manoa Lyon Arbo","NWS","HydroNet-UaNet","OA",151.7904,21.3330002,-157.8024,"USC00516128","MNLH1",NA,NA,NA,4.40815278175399,5.57046476794541,8.4,1.26381430378091,0.8,1.3,2,4.25784321905391,0.8,13.1519551728382,0,13.2811255113545,12.7774663018565,9.1,49,3.8,2.65456662324815,1.8,1.5,0,13.1157778665262,3.33916655942536,0,33,1.3,0.5,7.1,6.34601389979758,6.1,0,0
787.2,"Maunawili","NWS","HydroNet-UaNet","OA",127.1016,21.3509998,-157.7668,NA,"MAUH1","19007374",NA,NA,NA,5.33400000000029,2.03199999999993,0,1.01599999999985,0,2.28600000000006,0,2.53999999999974,6.09600000000023,4.31800000000021,7.87399999999957,11.4300000000001,12.1920000000002,NA,3.80999999999995,0,0.508000000000038,0.761999999999944,0,12.1919999999998,0.254000000000133,0,21.336,0.762000000000171,3.55600000000004,2.79399999999987,1.01599999999985,0,0.761999999999944,0
788.1,"PALI GOLF COURSE 788.1","C&C PARKS & RECR","COOP","OA",146,21.37183016,-157.7839226,"USC00517656",NA,NA,NA,NA,5.3,4.35650280619022,6.27336404091392,4.35650280619022,0.5,0.5,1.8,1.8,4.35650280619022,4.35650280619022,NA,5.1,10.9,3.48520224495218,11.4,5.7505837041711,0.871300561238045,1.74260112247609,1,0.3,13.2437685308183,4.87928314293305,0,7.14466460215197,1.39408089798087,0,4.6,0.8,1.5,0,NA
788.2,"St Stephens Seminary","NWS","HydroNet-UaNet","OA",142.9512,21.3666992,-157.7786,NA,"STVH1","19005598",NA,NA,5.84200000000001,2.79399999999998,8.38200000000001,0.253999999999991,1.77800000000002,0.762,0,1.52399999999997,1.27000000000001,6.096,2.286,6.096,9.65200000000002,6.096,12.954,2.79399999999998,0.507999999999981,0,0.762000000000029,0,9.90599999999998,1.01600000000002,0.507999999999981,13.716,0.254000000000019,1.26999999999998,0.762000000000057,1.26999999999998,0.253999999999962,0.254000000000019,0
790.11,"Olomana Fire Stn","NWS","HydroNet-UaNet","OA",45.1104,21.3777008,-157.7507,"USC00517052","OFSH1","19011468",NA,NA,1.01599999999996,1.01599999999996,1.524,0,1.01599999999996,0,0,1.01600000000008,0.507999999999925,4.3180000000001,1.52399999999989,1.01600000000008,6.096,1.26999999999987,5.1226036009303,1.524,0,0,0,0,4.3180000000001,0.507999999999925,0,7.87400000000002,0.254000000000019,0,0,0.253999999999905,0,0,0.254000000000019
793.1,"WAIMANALO EXPERIMENTAL FARM","CoCoRaHS","CoCoRaHS","OA",38,21.3727,-157.725,"US1HIHN0022",NA,NA,NA,NA,1,1,0,0,0,0.3,0.3,0,0.5,2,1.3,0.8,1.8,0.8,2.8,0,0,0,0.3,0,0.3,3.8,0.5,2.3,2.3,0,0.3,0.5,1.3,0,0
793.2,"BELLOWS AFS AT WAIMANALO","NWS","STATE","OA",6.66,21.3667,-157.717,NA,"BELH1","B14036D2",NA,NA,0,0.762,0,0,0,0,0,0,0,1.778,0.254000000000001,0,0,0.761999999999993,0,0,0,0,0,0,2.032,0.254000000000001,0,1.016,0,0,0.508000000000003,0,0,0,0
795.1,"WAIMANALO EXP F 795.1","HAES","COOP","OA",18,21.33516407,-157.7105906,"USC00519523",NA,NA,NA,NA,0,0.5,0,0.8,2.3,1.3,0,0,0,0,0,0,0,3.6,8.1,0,4.6,0,0,0,1.8,2.3,0,5.6,0,0,0,2.5,NA,NA,NA
795.3,"Waimanalo Nonokio","NWS","HydroNet-UaNet","OA",20.1168,21.3356991,-157.7116,NA,"WMLH1","224185AC",NA,NA,0.254000000000005,0.507999999999996,0,0,0,0,0,0,0,1.27000000000001,0,1.524,1.27,2.28599999999999,NA,4.572,0,0,0,0,2.28599999999999,0.50800000000001,0,3.30199999999999,0,0,0,2.032,0,0,0
801.2,"WAIANAE BOAT HARBOR","NWS","STATE","OA",4.25,21.4503,-158.184,NA,"WBHH1","15D13434",NA,NA,0,0,0,0,0,0,0,0,0,NA,0,NA,0,0,0,0,0,0,0,0,0,0,0,NA,0,0,0,0.254000000000019,0,0,0
803.2,"WAIANAE VALLEY","RAWS","RAWS","OA",291.6936,21.48055556,-158.1552778,"USR0000HWVA","WNVH1","487005DA",NA,NA,2.03200000000004,0,0,0,0,0,0,0.507999999999925,2.03199999999993,2.28600000000006,0.507999999999925,1.77800000000002,0,1.2700000000001,0,0,0,0,0,0,0.761999999999944,0,0,0.508000000000038,0,0,0,1.01599999999996,0.254000000000019,0,0
804,"Lualualei","US VY","HydroNet-UaNet","OA",35.9664,21.4211006,-158.1352,"USC00515647","LUAH1","8170406C",NA,NA,0,0.50800000000001,0,0,0,0,0,3.048,0.968724479998868,4.57199999999999,5.334,1.27000000000001,0.507999999999996,1.52399999999999,3.048,5.08000000000001,0,0,0,0,0,0.253999999999991,0,1.77799999999999,0,0,0,0,0,0,0
810.1,"WHEELER ARMY AIR FIELD 810.1","COOP","NWS","OA",255,21.48722,-158.02806,"USW00022508","WAFH1","B14101B2",NA,NA,1.52400000000034,1.77799999999979,3.30200000000013,2.28600000000006,0,0,3.55599999999959,6.85800000000017,5.8420000000001,1.34687877006841,4.57199999999966,2.03200000000015,1.52399999999989,2.79399999999987,2.28600000000006,0,0,0,0,0,0.507999999999811,0.25400000000036,0,2.03200000000015,0.253999999999905,0,0.253999999999905,0.253999999999905,0.762000000000171,0,0
828,"SCHOFIELD EAST","RAWS","RAWS","OA",381,21.49944444,-157.9933333,"USR0000HSCH","SCEH1","325AB384",NA,NA,2.79399999999987,1.77800000000025,9.72511157519449,1.26999999999998,0,0,8.12800000000016,5.33399999999983,8.64454362239488,12.6066261159924,9.72511157519449,6.85799999999972,4.31800000000021,4.82599999999957,4.57200000000057,0,0,0,0,0,1.01599999999962,1.27000000000044,0,6.60399999999936,0.508000000000266,0,2.53999999999996,2.28600000000006,1.01600000000008,0,0.253999999999905
834.14,"Pearl City HI US F9678-FW9678 ","unknown","APRSWXNET","OA",182.69,21.423,-157.952,NA,"F9678",NA,NA,NA,0.508000016212463,0.508000016212463,7.87400007247925,1.5239999294281,0,0,2.53999996185303,3.0479998588562,4.31799983978272,6.60399961471558,NA,1.26999998092651,0.76199996471405,2.03200006484985,4.06400012969971,0,0,0,0,0,0.76199996471405,0.254000008106232,0,8.38199996948242,0,0,1.5239999294281,1.77799999713898,1.01600003242493,0,0
837,"WAIAHOLE 837 ","OAHU SUGAR","COOP","OA",227,21.47016136,-157.8833636,"USC00518964",NA,NA,NA,NA,0,NA,NA,NA,5.1,0,2.5,3.8,NA,NA,NA,NA,8.9,8.9,NA,NA,NA,NA,0,0,2.5,NA,NA,NA,NA,0,6.4,0,NA,7.6,NA
837.12,"WAIAHOLE STREAM NEAR KAHALUU 2N","USGS","USGS","OA",4,21.48194,-157.8458,NA,"WHSH1","162B784C",NA,NA,2.53999999999999,3.55600000000001,1.77799999999999,0.50800000000001,0,0.253999999999991,3.81,1.01599999999999,1.27000000000001,4.06400000000001,5.58799999999999,2.794,3.048,6.858,10.16,1.27,0.254000000000019,1.27,0,0,3.556,0,0,7.87400000000001,0,0.507999999999981,0.50800000000001,8.12799999999999,0.50800000000001,0,0
837.5,"WAIHEE 837.5","COOP","COOP","OA",34,21.45167,-157.84889,"USC00519281",NA,NA,NA,NA,9.4,0.5,0,8.4,1.5,0,2.5,0,0.8,3.8,1.99165325930676,15.7857822207282,6.4,2,14.7,1.8,2.3,3.8,0,0,9.51751619494995,6.9,0.3,12.2,2,0,3,5.1,2,0.3,0.8
839.15,"Ahuimanu Loop ","NWS","HydroNet-UaNet","OA",74.0664,21.4319992,-157.8373,NA,"AHUH1","15CE7632",NA,NA,NA,NA,NA,NA,NA,NA,NA,NA,NA,NA,5.84200000000001,NA,NA,NA,NA,NA,NA,NA,NA,NA,NA,NA,NA,NA,NA,NA,NA,NA,NA,NA,NA
839.8,"Waihee Pump","USGS","HydroNet-UaNet","OA",64.3128,21.4463997,-157.8584,"USC00519286","WPPH1","195042AC",NA,NA,7.87400000000002,2.03199999999993,6.34999999999991,2.7940000000001,0.508000000000038,0,3.048,1.01599999999985,2.54000000000019,4.06400000000008,10.922,9.65199999999982,6.60400000000004,7.11199999999985,12.7,5.8420000000001,0.253999999999905,3.80999999999995,0,0,10.1600000000003,3.04799999999977,0.508000000000038,18.0339999999999,0,0.762000000000171,3.80999999999995,7.87400000000002,0.253999999999905,0.762000000000171,0.253999999999905
840,"KANEOHE BAY MCAS","USMC","NWS","OA",3,21.44404851,-157.7730876,"USW00022519",NA,NA,NA,NA,0,0.5,0.5,0,0,0,1.8,0,0.8,2,6.1,1.5,1.8,2.5,2.5,1,0.3,0,0,0,3.6,0,0,3.3,0,2.8,0,0,0,0,0
841.2,"KUAOKALA","S&PF","RAWS","OA",267.0048,21.57027778,-158.26,NA,"KKRH1","48710720",NA,NA,0.254000000000076,1.26999999999992,0.254000000000019,0,0,0,0,0,0.254000000000019,0.762,0,0.254000000000019,0,0,0,0,0,0,0,0,0,0,0,0.253999999999962,0,0,0,5.58800000000002,0,0,0
841.3,"KAENA POINT 841.3","LOCKHEED BALLISTIC","COOP","OA",378,21.56322317,-158.2430755,"USC00512410",NA,NA,NA,NA,0.8,NA,NA,NA,0,0,NA,NA,NA,NA,NA,NA,NA,NA,0,NA,NA,NA,0.3,0,NA,NA,NA,NA,NA,0,NA,NA,0.3,NA,NA
842.1,"MakahaRainGage","USGS","USGS","OA",286.097472,21.50158333,-158.1801667,NA,"MKHH1","DD1423F8",NA,NA,0.50800000000001,0,0.253999999999991,0,0,0,0,0,0.507999999999996,1.01600000000001,1.27000000000001,1.77799999999999,0,1.86911253619216,0,0,0,0,0,0,1.524,0,0,0.459559527766636,0,0,0,2.03945150385086,3.81,0,0
842.8,"MAKUA RANGE","RAWS","RAWS","OA",6.096,21.52861111,-158.2261111,"USR0000HMAR","MKRH1","3266B468",NA,NA,0.254000000000133,0,0,0,0,0,0,0,0.253999999999905,0.508000000000038,NA,0.508000000000038,0,0,0,NA,0,0,0,0,0,0,0,0.253999999999905,0,0,0,NA,1.2700000000001,0,0
842.9,"MAKUA RIDGE","RAWS","RAWS","OA",533.4,21.54277778,-158.1988889,"USR0000HMRG","MKGH1","3266C2F8",NA,NA,4.82600000000002,1.524,8.8900000000001,0.253999999999905,0,0,0,0.762000000000057,2.53999999999996,4.31799999999987,3.30200000000013,2.53999999999996,0.254000000000019,1.01599999999996,0,3.55600000000004,0,0,0,0,1.524,0,0,1.52400000000011,0.253999999999905,0,0.253999999999905,2.7940000000001,0.253999999999905,0,0
843.7,"DILLIINGHAM","RAWS","RAWS","OA",31.0896,21.57194444,-158.1986111,NA,"DLGH1","3278D278",NA,NA,0.507999999999981,0.508000000000038,2.79399999999998,1.26999999999998,0,0,0.254000000000076,0.253999999999905,0.762000000000057,3.048,0.761999999999944,0.507999999999981,0,0,0,0,0,0,0,0,1.01600000000008,0.253999999999962,0,0.507999999999981,0,0,0,2.54000000000002,0,0,0
858,"SCHOFIELD BARRACKS","RAWS","RAWS","OA",298.704,21.495,-158.0819444,"USR0000HSCO","SCBH1","3266A71E",NA,NA,4.31799999999998,0.254000000000019,1.77800000000002,0,0,0,0.253999999999905,2.54000000000008,2.03199999999993,8.12800000000004,2.03200000000004,2.28599999999994,0.762000000000057,1.77800000000002,2.03199999999993,0,0,0,0,0,0.253999999999905,0,0,0.254000000000133,0,0,0,2.28599999999994,0.253999999999905,0,0
884.4,"PunaluuRainGageatalt","USGS","USGS","OA",73.152,21.55644444,-157.899,NA,"PNSH1","DD989652",NA,NA,8.77629925712553,2.28600000000006,5.33399999999983,0.25400000000036,0.253999999999451,3.04800000000023,0.507999999999811,2.79400000000032,7.8739999999998,1.77800000000025,10.4139999999998,7.87400000000025,9.39799999999968,5.33400000000029,4.82600000000002,7.61999999999989,0.762000000000171,0,0.253999999999905,0,11.9962857971423,5.8420000000001,0,7.11200000000008,0.253999999999905,0.508000000000266,3.30199999999968,9.14400000000023,1.26999999999998,0,0
885.6,"KUALOA RANCH 885.6","COOP","COOP","OA",25,21.53,-157.85028,"USC00514829",NA,NA,NA,NA,15.5,3.6,2.3,2.5,0.3,0.5,1,0.3,1.8,4.8,0,11.9,4.8,1.8,9.06912350687783,0.8,2,0.5,0,0,7.4,5.3,0,3,0.3,0.8,0.5,5.6,1.3,0.3,0.494762739116655
885.7,"OAHU FOREST NWR","RAWS","RAWS","OA",698.9,21.47747,-157.9369,NA,"OFRH1","8379F6FA",NA,NA,4.82600000000002,1.77800000000002,9.14400000000001,0.507999999999925,0.254000000000019,0.761999999999944,5.08000000000004,1.01600000000008,7.36599999999999,6.85799999999995,8.88999999999999,9.65200000000004,2.28599999999994,9.14400000000001,34.3376222901636,3.048,1.26999999999998,0.762000000000057,0,0,3.55599999999993,6.096,0,32.8702446049658,0,1.524,4.82600000000002,4.572,2.28599999999994,0,0
886.1,"Waikane - Hakipuu Mauka","KUALOA RANCH","HydroNet-UaNet","OA",14,21.5084922,-157.8555853,NA,"HAKH1","16C69380",NA,NA,2.79399999999998,3.30200000000002,4.82600000000002,0.253999999999962,0.254000000000019,0,6.09599999999995,2.54000000000002,0.762000000000057,4.82599999999996,13.97,7.11199999999997,5.33399999999995,6.60400000000004,11.938,7.11199999999997,0,0,0,0,9.39800000000002,2.28600000000006,0,6.60399999999993,0,0,3.55600000000004,5.84199999999998,0.508000000000038,0.254000000000019,0.507999999999925
886.11,"KUALOA RANCH HAKIPUU 886.11, HI US","COOP","COOP","OA",74.04,21.51083,-157.86222,"USC00514828",NA,NA,NA,NA,22.1814620631795,8.1,3.3,1.3,0,0,4.6,0.138971984315742,2.82652852866278,3,0,21.5255908573243,9.1,2.3,8.6,3.6,1.3,0,0,0,5.6,6.4,0,6.4,0.8,0,2.3,8.9,4.1,0.5,0.879336871944352
886.4,"KahanaRainGageatalt","USGS","USGS","OA",28.956,21.54041667,-157.8825556,NA,"KNRH1","17B972EE",NA,NA,8.38200000000001,1.52399999999999,4.57200000000002,1.01599999999998,0,1.77800000000001,0.50800000000001,2.79399999999998,2.79400000000001,3.556,12.192,11.176,8.63600000000002,5.58799999999999,11.43,4.572,0,0.253999999999991,0,0.50800000000001,5.334,5.07999999999998,0,8.63600000000002,0.253999999999991,1.52399999999997,3.55600000000001,5.33399999999997,1.01600000000005,0,0.253999999999991
886.8,"Hakipuu Mauka","RILEY W","HydroNet-UaNet","OA",8.5344,21.5067005,-157.8547,"USC00510920","PTRH1","16C69380",NA,NA,2.79399999999998,3.30200000000002,4.82600000000002,0.253999999999962,0.254000000000019,0,6.09599999999995,2.54000000000002,0.762000000000057,4.82599999999996,13.97,7.11199999999997,5.33399999999995,6.60400000000004,11.938,7.11199999999997,0,0,0,0,9.39800000000002,2.28600000000006,0,6.60399999999993,0,0,3.55600000000004,5.84199999999998,0.508000000000038,0.254000000000019,0.507999999999925
886.9,"KUALOA RANCH HEADQUATERTERS 886.9","COOP","COOP","OA",7,21.5213,-157.8374,"USC00514830",NA,NA,NA,NA,17,2.5,3.6,2.5,0.3,0.3,1.3,0,2.5,2.5,0.0810371870697649,13,3.8,2,6.4,3.3,0.5,1,0.3,0,7.6,2.8,0,4.1,0.8,0,0.3,5.6,3.8,0,0.337132234438556
892.2,"WAIMEA ARBORETUM 892.2","COOP / WB","COOP","OA",8,21.638859,-158.058759,"USC00519603",NA,NA,NA,NA,2.3,2.3,0.967730197955528,5.3,1,0.3,2.5,0.5,1,5.8,1,5.67886762698055,2.03787651595017,1.5,2,1.5,1.3,0,0.3,0,0.3,2,4.8,6.1,4.10249944243498,0,1,1.8,2.8,0.8,0
901.2,"KII KAHUKU 911","NWS","COOP","OA",7.6,21.6793,-157.945,"USC00514500",NA,NA,NA,NA,4.8,1.5,0.8,0,0,0,3.8,0,2,1.8,0,2.5,0,0,0,1.8,0,0,0.3,0,NA,0,6.9,4.6,5.3,2.8,1.5,2.8,1.3,1.3,0
903.2,"LAIE 0.2 WNW","CoCoRaHS","CoCoRaHS","OA",2,21.65,-157.9287,"US1HIHN0002",NA,NA,NA,NA,6.1,1,1.5,2.3,0.8,1.3,3.3,0.5,1.3,2.3,0,1.8,3,1.3,2.3,1,2.8,0,0,0,0,1.8,1.5,1.8,1.8,1.3,0,4.3,4.6,0,0
904.1,"KAPAKA FARM 904.1","HON. FIRE DEPT","COOP","OA",1,21.60987636,-157.9100271,"USC00513208",NA,NA,NA,NA,5.8,0.5,1.3,3.6,0.3,2,4.6,3,4.6,4.8,0.3,3,1.5,1.8,1.8,5.3,4.8,0.3,0.3,0,1.8,1.5,0.3,1,2.8,1.5,0.8,5.3,1.5,0.126127618403291,0.3
905.22,"Punaluu Pump","NWS","HydroNet-UaNet","OA",3.9624,21.5842991,-157.8916,NA,"PUNH1","19051152",NA,NA,11.176,2.286,7.11199999999997,0.254000000000019,0,0,2.03199999999998,2.03199999999998,4.572,5.58799999999997,2.03200000000004,NA,3.30199999999996,2.03199999999998,1.52400000000006,8.63599999999997,0,0,0,0,5.58799999999997,0.508000000000038,0,2.28599999999994,0.762000000000057,0.762,1.01600000000002,8.63599999999997,0.762000000000057,0,0
909,"KAHUKU TRAINING AREA","RAWS","RAWS","OA",181.6608,21.67916667,-157.9894444,"USR0000HKAH","KTAH1","325A861E",NA,NA,5.8420000000001,1.524,1.01599999999996,0.507999999999925,0.254000000000133,2.28599999999994,1.77799999999991,0.254000000000019,1.01599999999996,2.54000000000008,2.28600000000006,0.507999999999925,0.508000000000038,0.507999999999925,1.524,0.508000000000152,0.507999999999811,0.254000000000133,0,0,9.652,4.064,0,2.286,1.27,0.253999999999994,4.064,4.826,1.778,0,1.26999999999999
911.1,"KII","RAWS","RAWS","OA",1.524,21.68833333,-157.9525,"USR0000HKII","KFWH1","8375210E",NA,NA,6.096,0,0.507999999999925,3.30200000000002,0,1.52400000000011,1.52399999999989,0,0.762000000000057,2.28599999999994,3.81000000000006,0.761999999999944,0.508000000000038,0.507999999999925,0.508000000000038,0.508000000000038,0,0,0,0,6.34999999999991,2.03200000000004,0,2.03200000000004,0.761999999999944,0,1.77800000000002,2.79399999999998,3.30200000000002,0,0
912,"KAUHUKU 912","KUILIMA  GOLF","COOP","OA",4,21.695,-157.9811,"USC00512570","KAHH1","B1404042",NA,NA,0,0,0,0,0,0,0,0,0.254000000000133,2.53999999999974,5.58799999999997,0.762000000000171,0.508000000000266,0.507999999999811,1.52400000000011,0,0,0,0,0,5.0799999999997,3.04800000000023,0,0.507999999999811,0,0,0.508000000000266,5.0799999999997,1.27000000000021,0,0.508000000000038
926,"PORT ALLEN CAA AIRPORT","FAA","COOP","KA",9,21.89381249,-159.6010997,"USW0022526","PAKH1","B159A272",NA,NA,0,0,4.318,0,0,0,1.778,1.016,0.254000000000001,0.253999999999998,0,0,0,0.254000000000001,1.778,0,0,0,0,0,0,0,0,NA,0,NA,0,NA,NA,NA,0
927,"ELEELE 927","MCBRYDE SUGAR","COOP","KA",50,21.90353436,-159.5772088,"USC00510470",NA,NA,NA,NA,2.5,0,0,15.2333352843404,0,0,0.5,2.5,0,0,2.3,1.5,4.1,0.3,1.8,0,0,3.6,0,0,0,0.0580548290590392,0,NA,0.8,0,0,0,0,NA,NA
930,"WAHIAWA 930","MCBRYDE SUGAR","COOP","KA",66,21.89631087,-159.5572079,"USC00518941",NA,NA,NA,NA,3.3,0,0,17.7182065542383,0.5,0,1,5.6,0,0,5.8,1.8,4.1,1.3,3.63972012346276,0,0,2.5,0,0,0,0.196847783490904,0,NA,2,0,0,0,0,NA,NA
931,"WEST LAWAI 931","MCBRYDE SUGAR","COOP","KA",64,21.89019743,-159.5172067,"USC00519955",NA,NA,NA,NA,5.8,0,0,25.9,3.6,0.3,2.3,11.9,0,0,4.6,3,6.64266119459934,3,6.9,0,0,3.49248119441826,0,0.5,0,0,0,2.01500337009145,2,0,0,0.8,1.8,1.81350303308222,0
936,"KOLOA 936","MCBRYDE SUGAR","COOP","KA",73,21.90686471,-159.4622057,"USC00514742",NA,NA,NA,NA,6.1,0,0,34,1.8,3.6,1.93204183711028,5.1,0,0,5.6,4.98347463875501,7.8636976676178,3.3,12.5154194746617,0,0,2.5,0.8,0,0,0.3,0,NA,1.8,0,0,2.5,2.3,NA,NA
940.2,"KOLOA 2.1 SSE","CoCoRaHS","CoCoRaHS","KA",12,21.8788,-159.4518,"US1HIKI0020",NA,NA,NA,NA,3.3,0.5,6.11290992030419,23.6,0.5,0.5,5.1,2,1.8,2.8,0.419558751355862,5.3,4.1,2.16592649930085,13.2,0.5,0.5,0,0.5,0,0,0,0.3,0,0.3,0,0,0.5,0.5,0,0
940.3,"POIPU","NWS","STATE","KA",14.8,21.8828,-159.429,NA,"POIH1","B15997E8",NA,NA,1.27,0.253999999999994,NA,NA,0,2.032,1.77799999999999,2.54000000000001,0.254000000000005,1.27,NA,4.318,6.34999999999999,6.858,NA,0.50800000000001,0,0,0,0,0,0.254000000000005,0,0.253999999999991,0,0,0,2.54000000000001,0.253999999999991,6.34999999999999,0.254000000000005
941.1,"MAHAULEPU 941.1","GROVE FARM","COOP","KA",24,21.90102957,-159.422207,"USC00515710",NA,NA,NA,NA,3.8,0,0,29.5,1.8,1.90947253309084,1.6813284746733,3.8,0,0,5.8,7.6,9.1,3.6,21.3,0,0,2,0.5,0,0,0.5,0,NA,2.3,0,0,1.5,3.8,NA,NA
946,"WAIMEA HTS","RAWS","RAWS","KA",159.7152,21.96638889,-159.6638889,NA,"WHGH1","487090B8",NA,NA,0,0,1.77800000000002,0,0,0,0,0,0.253999999999962,0,0,0,0,0,0,0,0,0,0,0,0,0,0,0,0,0,0,1.26999999999998,3.81,0,0
946.1,"WAIMEA TANK AT WAIMEA","NWS","unknown","KA",70,21.964722,-159.666944,NA,"WMTH1","1900E616",NA,NA,NA,NA,1.52399999999989,NA,NA,NA,NA,NA,NA,NA,NA,NA,NA,NA,NA,NA,NA,NA,NA,NA,NA,NA,NA,0,NA,NA,NA,0.508000000000038,3.55600000000004,0,NA
965,"MAKAWELI 965","OLOKELE SUGAR","COOP","KA",43,21.91909048,-159.6272113,"USC00515864",NA,NA,NA,NA,2.19653989740395,0,0,11.5943985822762,0.8,0,0.875477375653856,0.8,0,0,3.11073088289541,0.3,3.40534060661438,0.949634626443039,1.3,0,0,2.56768946310217,0,0,0,0,0,NA,1.14979864467759,0.159860980654058,0,0,0.3,NA,NA
966.4,"Hanapepe","NWS","HydroNet-UaNet","KA",110.6424,21.9365005,-159.5866,NA,"HNPH1","156011EA",NA,NA,0.253999999999998,0,0.254000000000001,0,0,0,0.762,1.016,0.254000000000001,0,0,0.507999999999996,0,0.254000000000005,2.53999999999999,0,0,0,0,0,0,0,0,0.254000000000005,0,0,0,0,0,0,0
985,"BRYDESWOOD STA 985","MCBRYDE SUGAR","COOP","KA",220,21.92519845,-159.5338717,"USC00510240",NA,NA,NA,NA,3.8,0.136649131048504,0,15.2,0.5,0,1.8254973208011,9.61840557607038,1.50314044153416,1.91308783467979,6.48632511858766,3.17198712243214,8.50260780230949,3.3,5.3,0,0.409947393145634,4.47037670342464,0,0,0,0.31520475327262,0,2.73298262097105,2.5,1,0,0,0,0,0
986.2,"Kalaheo","KUKUILONO GOLF COU","HydroNet-UaNet","KA",263.0424,21.9183006,-159.5265,NA,"KHEH1","1560740C",NA,NA,1.01600000000008,0.253999999999905,NA,14.1266906359916,0,0.508000000000266,NA,3.81000000000017,2.7940000000001,3.55600000000004,1.52399999999989,NA,6.95375438525434,4.82600000000002,7.2570385306156,1.51726350752409,0.761999999999944,0.508000000000038,0,0,0,1.01600000000008,0,2.53999999999996,0.254000000000133,0,0,0.507999999999811,0,0,0
992.1,"Omao","NWS","HydroNet-UaNet","KA",99.9744,21.9071007,-159.4768,"USC00517116","OMAH1","195001A6",NA,NA,2.03199999999993,0.762000000000171,24.8223889972194,32.6480843538338,0.507999999999811,0.508000000000038,NA,1.52400000000011,1.77800000000002,1.52400000000011,2.79399999999987,NA,6.096,8.63599999999997,10.1600000000001,1.01599999999985,1.27000000000021,0.508000000000038,0.507999999999811,0,0,2.03199999999993,0,2.54000000000019,0,0,0.253999999999905,3.55600000000004,0.254000000000133,2.28600000000006,0
994,"KOLOA MAUKA 994","MCBRYDE SUGAR","COOP","KA",195,21.94833,-159.46694,"USC00514750",NA,NA,NA,NA,NA,NA,NA,71.1,NA,NA,NA,NA,NA,NA,NA,NA,NA,NA,NA,NA,NA,NA,NA,NA,NA,NA,NA,NA,NA,NA,NA,NA,NA,NA,NA
1006,"HALENANAHO 1006","GROVE FARM","COOP","KA",149,21.96491938,-159.4305374,"USC00511038",NA,NA,NA,NA,9.7598520843629,0,0,33.8,4.57797695101526,3.70658172406095,3.26371879582876,13.2629728776895,0,0,9.97250253385636,8.4183786989662,13.9607140418201,4.86006761044562,25.4,0,0,4.98830915248283,1.13265996309307,0.134499426526219,0.224165710877032,2.5,0,NA,4.78826422869365,0.224165710877032,0.134499426526219,5.1,5.81621904871165,NA,NA
1013,"PUHI 1013","LIHUE PLANTATION","COOP","KA",101,21.96491954,-159.3972052,"USC00518217",NA,NA,NA,NA,7.25642654131341,0,0,30.7,3.40371484790147,3.3,2,9.86098842221016,0,0,7.41453163884853,6.25904430702173,9.87648893321937,1.5,19.9616804312075,0,0,5.1,0.8,0.3,0.5,1.3,0,NA,5.1,0.5,0.3,4.6,4.6,NA,NA
1020.1,"LIHUE WEATHER SERVICE OFFICE AIRPORT 1020.1","LIHUE WEATHER SERVICE OFFICE AIRPORT 1020.1","NWS","KA",45,21.98156999,-159.3422063,"USW00022536","PHLI",NA,NA,NA,2,0,17.9170432681762,NA,0,0.3,1,2,0,0.3,0.3,1.3,0.8,1.3,1.8,0,0.3,0,0,0,0,0.8,0.3,0.8,0.3,0,0.8,4.3,3.8,NA,0
1020.6,"LIHUE 1.3 NE","CoCoRaHS","CoCoRaHS","KA",25,21.987,-159.338,"US1HIKI0009",NA,NA,NA,NA,5.1,0.3,6.2994162383013,12.7828205676957,2.8,0.8,0.8,2,2.5,1,0.5,1.8,0.8,1.8,2.3,1.5,0,0,0.3,0,0.5,0.3,1,0,1.3,0.8,0,1.8,3.3,3,0.649342793022915
1022.1,"LIHUE 1.2 NNW","CoCoRaHS","CoCoRaHS","KA",60,21.9923,-159.3586,"US1HIKI0002",NA,NA,NA,NA,2.8,0.3,7.4644975888647,15.147011992366,0.5,0.5,0.8,3,3.3,5.1,0.5,3.8,5.1,2,7.25082067804105,2,0,0,0.5,0,0.5,0.5,1,0,1.3,0,0,2.5,4.3,0,0.769439187618004
1029,"MANA","RAWS","RAWS","KA",26.2128,22.02944444,-159.7622222,NA,"MNRH1","4870603C",NA,NA,0,0,NA,0,0,0,0.253999999999962,0,0,0,0,0,0,0,0,0,0,0,0,0,0,0.254000000000019,0,0,0,0,0,0,6.35000000000002,0,0
1036,"PUU OPAE","RAWS","RAWS","KA",652.8816,22.04083333,-159.6958333,NA,"POPH1","4870734A",NA,NA,0,0,3.60594507667193,0,0,0,0,0,0,0,0,0,0,0,0,0,0,0,0,0,0,0,0,0,0,0,0,1.77800000000002,0.508000000000038,0.254000000000019,0
1042,"WaialaeRainGagenrWaimea","USGS","USGS","KA",1219.2,22.08972222,-159.5925,NA,"WLGH1","DDF7C28E",NA,NA,1.01599999999999,0.508000000000038,10.922,1.01599999999999,0,0.253999999999991,8.10331098204878,6.35000000000002,2.02582774551216,2.79399999999998,2.54000000000002,6.61059580114505,1.77800000000002,5.07999999999993,2.79400000000004,2.79399999999998,0.254000000000019,0,0.254000000000019,0.253999999999962,1.01599999999996,4.31800000000004,0.254000000000019,4.31799999999998,0.254000000000019,0,0,3.30199999999996,0.508000000000038,0.507999999999981,0.507999999999981
1047,"Mt.WaialealeRainGagenrLihue","USGS","USGS","KA",1569.72,22.07088889,-159.4979722,"USC00516565","WLLH1","DD5E818E",NA,NA,12.4459999999995,12.4460000000004,100.584,NA,4.31800000000067,9.65199999999959,44.1959999999999,10.5066745188833,27.9399999999996,35.5600000000004,23.8759999999997,89.6620000000003,55.1180000000004,44.4499999999998,40.1319999999996,48.0060000000003,18.5419999999999,6.28165594562871,0.507999999999356,0,3.80999999999995,39.3700000000003,1.31035447943383,22.6060000000002,3.93106343830101,0.508000000000266,2.28600000000006,NA,13.462,5.33400000000029,0.253999999999451
1051,"NWailuaDitchRainGagenrLihue","LIHUE PLANTATION","USGS","KA",338.328,22.0625,-159.4677222,"USC00516888","WLDH1","1732B3E0",NA,NA,7.11199999999985,5.08000000000015,45.7199999999998,2.42035188374826,2.28599999999983,2.65232838093069,38.6079999999999,5.07999999999993,9.65199999999982,13.9700000000003,6.85799999999995,31.4959999999999,18.288,10.4140000000002,10.6679999999999,19.3040000000001,9.14400000000001,2.28599999999983,0.254000000000133,0.507999999999811,2.28600000000029,13.4619999999998,0.761999999999944,4.57200000000012,2.28600000000006,0.507999999999811,1.52400000000011,14.9230157360349,10.4140000000002,2.8003206319905,1.77800000000025
1059,"Lihue Variety Stn","NWS","HydroNet-UaNet","KA",117.0432,22.0240002,-159.3868,NA,"LIHH1","1561501A",NA,NA,0.254000000000076,0,24.892,NA,1.52399999999994,0.508000000000038,NA,2.54000000000002,3.04799999999994,3.81000000000006,1.52399999999994,12.192,6.35000000000002,NA,NA,2.53999999999996,1.77800000000002,0.508000000000038,0,0,1.01599999999996,2.54000000000008,0.253999999999905,3.55600000000004,1.26999999999998,0,3.048,7.87400000000002,1.01599999999996,NA,0.254000000000133
1061.5,"Wailua UH Exp Stn","NWS","HydroNet-UaNet","KA",158,22.066,-159.3962,NA,"WUHH1","15C163D6",NA,NA,3.048,0,40.1319999999999,NA,1.52399999999989,1.2700000000001,10.2502390859691,2.83403011571071,6.60399999999993,1.2700000000001,4.31799999999998,13.3862684704966,13.97,7.36599999999999,10.16,3.55600000000004,1.01599999999996,1.28047732268693,0.254000000000019,0.241316462375998,1.524,5.84199999999998,0.761999999999944,3.81000000000006,0.761999999999944,0.254000000000133,1.01599999999996,10.6679999999999,5.58800000000008,2.93859223203235,1.77799999999991
1063.2,"KAPAA 2.7 SSW, HI US","CoCoRaHs","CoCoRaHs","KA",90.04,22.0593,-159.365,"US1HIKI0023",NA,NA,NA,NA,0.5,NA,NA,17.8,2,0.5,7.1,4.6,3,5.1,NA,6.6,8.1,NA,NA,4.1,2.5,3.3,NA,NA,3,NA,NA,NA,3.6,NA,NA,6.9,NA,0.5,NA
1065.2,"KAPAA 2.3 SW, HI US","CoCoRaHs","CoCoRaHs","KA",105.03,22.0721,-159.3767,"US1HIKI0026",NA,NA,NA,NA,NA,0,NA,NA,1.3,0.3,4.3,NA,2,3.6,0.5,8.4,NA,NA,NA,NA,NA,NA,NA,NA,NA,NA,NA,NA,NA,NA,NA,NA,NA,NA,NA
1065.3,"Kapaa HI US F9608-FW9608 ","unknown","APRSWXNET","KA",106.41,22.072,-159.376,NA,"F9608",NA,NA,NA,3.0479998588562,NA,30.734001159668,NA,0.50799991035462,0.508000032424926,NA,3.5560007095337,5.33399939537049,1.01599997329713,2.79399988317489,12.699999660492,11.1760013013612,5.07999849319455,6.34999950408935,1.27000007629394,4.82599975585938,NA,0.25399996471405,NA,2.28600001335144,4.06399990463257,0.5079997882843,4.31799985599518,1.52400016784668,0,1.26999998092651,8.38199975013734,3.81000069427488,5.33399968528747,0.25400018692017
1069,"PUU LUA","RAWS","RAWS","KA",1021.08,22.08916667,-159.6791667,NA,"PLRH1","487083CE",NA,NA,0,0,NA,0,0,0,0,0,0.761999999999944,0,0,0,0,0,0.507999999999925,0,0.254000000000019,0,0,0,0,0.254000000000019,0,0,0,0,0,1.5438467387716,0.441099068220484,0.254000000000133,1.52399999999989
1074,"MAKAHA RIDGE","RAWS","RAWS","KA",544.9824,22.13055556,-159.7152778,"USR0000HMAH","MKAH1","3286026C",NA,NA,0,0,NA,0,0,0,0,0,0,0,0,0.254000000000019,0,0,0,0,0,0,0,0,0,0,0,0,0,0,0,0.254000000000019,2.53999999999996,0.254000000000019,0.508000000000038
1076,"Kokee","NWS","HydroNet-UaNet","KA",1279.2456,22.1485996,-159.6448,NA,"KOKH1","1900E616",NA,NA,0,0,10.8275704828258,0,0,0,0,0,0,0,0,0,0,0,0,0,0,0,0,0,0,0,0,0,0,0,0,3.27345154131939,3.55600000000004,0,0
1084,"KilohanaRainGafenrHanalei","USGS","USGS","KA",1219.2,22.15408333,-159.5946111,"USC00514610","KLOH1","DDCC972A",NA,NA,4.82600000000025,2.53999999999974,40.352679913536,1.21707954728368,0.254000000000133,2.79399999999987,20.1063359938132,6.77415795301257,7.76439201066162,6.91454372817913,4.32750669523569,25.0915836601336,7.55070156008754,7.54806782823989,5.80759816594754,3.55600000000004,1.01600000000008,3.80999999999995,0.253999999999905,2.53999999999996,3.04800000000023,7.96132395819632,0.508000000000266,4.98108590603462,1.52400000000011,0.253999999999678,0.762000000000171,7.91101705734391,2.7940000000001,0.507999999999811,0.508000000000266
1094.2,"Kapahi","NWS","HydroNet-UaNet","KA",158.496,22.1021004,-159.3856,"USC00513171","KPIH1","15608488",NA,NA,4.57200000000012,4.57200000000194,24.384,NA,0,1.77799999999843,19.1374666050515,3.80999999999767,8.38200000000143,1.77800000000207,3.96238354996088,12.4459999999999,9.65200000000004,4.5719999999983,2.28600000000006,1.01599999999962,3.04800000000068,2.03200000000106,0,0.253999999998996,2.03200000000106,6.39773150749628,0.588152050969925,2.79399999999987,1.26999999999862,0,1.77800000000207,7.11199999999917,0.253999999998996,2.28600000000188,1.0159999999978
1094.3,"KAPAA 1.4 W","CoCoRaHS","CoCoRaHS","KA",139,22.0936,-159.3758,"US1HIKI0005",NA,NA,NA,NA,3.98248238664785,2.94923732010609,14,14,0.3,1.8,5.79958555909749,5.08169560268943,6.9,2.5,1.8,15.5,10.7,6.9,4.3,0,2,1.8,0.619078924330352,0.3,2,2,4.6,0.3,3.3,1.01000373726269,0.3,6.1,5.8,0.8,2.15908398867419
1097.4,"KAPAA 1.9 WSW","CoCoRaHS","CoCoRaHS","KA",157,22.0829,-159.3786,"US1HIKI0019",NA,NA,NA,NA,3.9550758356916,4.1,15.2,16,0.5,1.8,5.75967411148295,5.04672451281186,2.5,2.5,1,12.2,10.7,8.1,5.70125793422836,1.3,5.8,4.1,0.3,0.3,2.3,3,4.6,0.3,2.8,1.3,0.8,5.8,6.9,1.3,3
1111.4,"Anahola","HAWN FRUIT PACKERS","HydroNet-UaNet","KA",75.2856,22.1373997,-159.312,NA,"ANHH1","1560029C",NA,NA,1.52399999999989,1.77800000000025,NA,0.253999999999905,0,0,5.33399999999983,1.77800000000025,4.06399999999985,0.762000000000171,2.53999999999996,2.79399999999987,1.52399999999989,1.26999999999998,0,0,0.762000000000171,0,0,0.761999999999716,1.01600000000053,0.253999999999451,0,3.04800000000023,0.25400000000036,0,2.0319999999997,2.03200000000015,0.253999999999905,0,1.52400000000034
1116.1,"HANALEI 3.0 W, HI US","CoCoRaHs","CoCoRaHs","KA",10.457,22.2103,-159.5492,"US1HIKI0024",NA,NA,NA,NA,3.6,3.8,6.9,NA,1.3,0,NA,NA,NA,NA,2.3,NA,NA,3,NA,0.8,NA,1,3.3,0,0.8,1.5,NA,0.3,4.3,2.8,0,NA,NA,0.3,0.8
1117,"PRINCEVILLE RANCH 1117","PRINCEVILLE RANCH","COOP","KA",90,22.213196,-159.4722008,"USC00518165",NA,NA,NA,NA,1.8,6.1,11.7,10.3180401179471,2.8,0.3,7.6,3.15899875638944,5.79629207978356,1,3.8,13.7,11.2,3,5.1095214424938,0.5,4.8,0.3,1.5,0,4.8,4.3,5.1,0.3,3,1.5,0,5.13869104414979,5.48626689791163,0.5,1
1117.9,"PRINCEVILLE AIRPORT NEAR KILAUEA 4W","NWS","STATE","KA",88.497,22.2114,-159.443,NA,"PRIH1","B15952F6",NA,NA,1.01600000000053,3.80999999999949,NA,4.06400000000031,0.507999999999811,3.8100000000004,6.60399999999936,1.01600000000053,NA,0.507999999998901,5.58800000000065,13.2079999999996,6.85800000000108,5.07999999999902,5.84199999999964,0.762000000000626,4.0639999999994,0.50800000000072,0.253999999999905,0.253999999999905,1.52400000000034,3.80999999999949,0.254000000000815,1.77799999999934,3.04799999999977,0,1.52400000000034,NA,1.01599999999962,0.253999999999905,0
1134.2,"KILAUEA 0.5 SE","CoCoRaHS","CoCoRaHS","KA",79,22.2057,-159.4048,"US1HIKI0006",NA,NA,NA,NA,3.8,3.6,12.4631707599554,5.1,3.8,0,6.1,4.1,9.4,0.3,1,9.7,10.4,4.8,6.6,2.3,3,1,0.5,0.3,5.3,2.3,1.8,0.8,3,1.5,0.3,4.21909026581706,5.55540023428744,1.8,2
1144.1,"ANAHOLA 2.8 N","CoCoRaHS","CoCoRaHS","KA",74,22.1869,-159.3236,"US1HIKI0021",NA,NA,NA,NA,5.6,1.8,8.51258190714542,3,0.8,0,2.8,0.3,3.91222427882465,0,1.3,3.3,1.8,1.3,1,0,1,0,0,0,2.5,0.3,1.5,0,0,1,0,1.5,3.70297187627635,0.8,0.3
1145,"MOLOAA 1145","LIHUE PLANTATION","COOP","KA",101,22.17972,-159.33194,"USC00516529",NA,NA,NA,NA,NA,NA,NA,NA,NA,NA,NA,NA,NA,NA,NA,NA,NA,NA,NA,NA,NA,NA,NA,NA,NA,NA,NA,NA,4.3,NA,NA,NA,NA,NA,NA
1146,"Moloaa Dairy","RAWS","RAWS","KA",85.344,22.18333333,-159.3375,"USR0000HMOL","MLDH1","AAB6D15A",NA,NA,0,0,0,0,0,0,0,0,0,0,0,0,0,0,0,0,0,0,0,0,0,0,0,0,0,0,0,0,0,0,0
