"SKN","Station.Name","Observer","Network","Island","ELEV.m.","LAT","LON","NCEI.id","NWS.id","NESDIS.id","SCAN.id","SMART_NODE_RF.id","X2019.09.01","X2019.09.02","X2019.09.03","X2019.09.04","X2019.09.05","X2019.09.06","X2019.09.07","X2019.09.08","X2019.09.09","X2019.09.10","X2019.09.11","X2019.09.12","X2019.09.13","X2019.09.14","X2019.09.15","X2019.09.16","X2019.09.17","X2019.09.18","X2019.09.19","X2019.09.20","X2019.09.21","X2019.09.22","X2019.09.23","X2019.09.24","X2019.09.25","X2019.09.26","X2019.09.27","X2019.09.28","X2019.09.29","X2019.09.30"
2.1,"KAHUKU MAUKA","COOP","COOP","BI",957,19.1089,-155.7467,"USC00512566",NA,NA,NA,NA,6.0785279969335,4.45035085489774,1.62817714203576,0.54272571401192,0,0,0,0,0,0,1.08545142802384,0,35.8198971247867,0,0,0,0,0,0.325635428407152,0,0,0,0,40.2702479796845,0.54272571401192,0.54272571401192,2.7136285700596,5.75289256852635,15.4134102779385,4.66744114050251
2.32,"SOUTH KONA 2 2.32","COOP","COOP","BI",647,19.10778,-155.78944,"USC00518652",NA,NA,NA,NA,5.6,4.1,1.5,0.5,0,0,0,0,0,0,1,0,33,0,0,0,0,0,0.3,0,0,0,0,37.1,0.5,0.5,2.5,5.3,14.2,4.3
2.34,"MILOLII 2.34","COOP","COOP","BI",280,19.186302,-155.886763,"USC00516304",NA,NA,NA,NA,0,6.6,48.8,15.7,0,17.5,40.6,0.8,0.5,0,0,0,0.8,0,0.8,0,4.6,3.3,0,11.7,0.5,1,0,0,23.1,1.8,0,0,0,2
2.36,"KAPUA 2.36","COOP","COOP","BI",533,19.14472,-155.84944,"USC00513376",NA,NA,NA,NA,0,3.8,46.2,35.1,0.8,4.6,3,1.3,0,0,6.6,0,0.5,0,0,0,9.9,8.6,1.5,17.3,0,0,0,13.2,0,8.4,14.2,0,36.1,1.3
3.22,"HAWAIIAN OCEAN VIEW 4.7 NNE","HAWAIIAN OCEAN VIEW 4.7 NNE","CoCoRaHS","BI",1273,19.135,-155.747,"US1HIHI0035",NA,NA,NA,NA,3,1,5.1,16,1.5,0,0,0,0,0,0.8,1.8,15.2,8.9,0.3,0,0,5.8,0.3,3.8,0,0,0.5,0,0,5.3,1.3,0,32.3,20.3
3.9,"LOWER KAHUKU CS","LOWER KAHUKU CS","RAWS","BI",953.7192,19.10083333,-155.6697222,NA,"LKHH1","32D620C2",NA,NA,2.02,1.75,2.03,2.53,0.25,0,0,0.25,0,0,4.81,1.01,0.25,6.1,0.25,6.1,4.57,7.11,4.04,0,0.76,4.83,20.06,0,0,3.55,0.5,13.96,3.8,4.05
4.12,"NAALEHU 4.6 WSW","NAALEHU 4.6 WSW","CoCoRaHS","BI",391,19.0424,-155.6354,"US1HIHI0001",NA,NA,NA,NA,10.2,0,0,1.5,0,0,0,0,0,0,0,1.5,0.5,0,2.5,0,4.6,5.8,3.8,6.9,0,0,10.7,22.1,1,0,1.8,0,7.6,0
4.13,"NAALEHU 5.0 WSW","NAALEHU 5.0 WSW","CoCoRaHS","BI",436,19.0424,-155.643,"US1HIHI0010",NA,NA,NA,NA,9.76026234108273,0.83666580120939,0,0.82833986104653,0,0,0,0,0,0,0,1.94389426265905,0.27611328701551,0,2.7611328701551,0,2.54024224054269,5.76868925308871,5.50090190623606,8.21680324718349,0,0,10.5941528289045,22.4115300608401,0.55222657403102,0,2.55578399551336,0,5.75869812489328,0
4.14,"NAALEHU 4.7 WSW, HI US","CoCoRaHs","CoCoRaHs","BI",393.18,19.0421,-155.6371,"US1HIHI0057",NA,NA,NA,NA,8.4,1.3,0,3.6,1.5,0,0,0,0,NA,0,0.8,0.8,0,3.8,0,4.3,5.1,2,7.1,0,0,10.2,17.8,NA,NA,NA,NA,NA,NA
4.15,"SOUTH POINT NEAR NAALEHU 12SSW","NWS","STATE","BI",295.78,18.9928,-155.668,NA,"SOPH1","B1507246",NA,NA,NA,0,0,NA,0,0,0,0,0,0,0,0,0,0.508,NA,1.016,NA,NA,NA,NA,0,0.762,NA,NA,0,0,NA,4.318,NA,0
5.1,"Kamaoa Puueo 5.1","COOP","COOP","BI",317,19.01361,-155.66194,"USC00513054",NA,NA,NA,NA,5.8598908070994,1.18781570414177,0,0,0,0,0,0,0,0,0,1.58375427218903,0,NA,NA,0,0,3.64263482603476,4.83045053017653,6.25582937514665,0,0,6.65176794319391,14.4913515905296,0,0,2.21725598106464,0,2.21725598106464,0
6,"KIOLAKAA A&F 6","STATE DIV FTRY","COOP","BI",587,19.07032619,-155.6355484,"USC00514625",NA,NA,NA,NA,8.48409857602932,1.7197497113573,0,0,0,0,0,0,0,0,0,2.29299961514306,0,NA,NA,0,0,5.27389911482904,6.99364882618633,9.05734847981509,0,0,9.63059838360085,20.980946478559,0,0,3.21019946120028,0,3.21019946120028,0
6.2,"NAALEHU 5.7 W","NAALEHU 5.7 W","CoCoRaHS","BI",679,19.0732,-155.6632,"US1HIHI0012",NA,NA,NA,NA,11.9,1.8,0.3,2,3.6,1.3,0,0,0,0,0,7.6,0.8,4.6,5.6,0.3,7.4,6.9,6.9,2,0.3,0,13.5,22.9,0,1,0,1,17.3,0
9.2,"Nene Cabin","Nene Cabin","RAWS","BI",710.4888,19.34805556,-155.1258333,NA,"AHMH1","32D64524",NA,NA,0.5,0.75,0,6.59,8.38,0,0.25,4.57,0,0,26.41,4.32,1.52,4.57,0,2.54,0.25,3.53,1.01,0,0.51,1.52,5.06,1.26,0.76,1.01,0,4.56,1.51,1.77
12.15,"SEA MOUNTAIN 12.15","SEA MOUNTAIN","COOP","BI",21,19.13310292,-155.5152744,"USC00518600",NA,NA,NA,NA,4.3,0,0,0,0,0,0,0,0,0,0,0,0,0,0,0,0,0.3,1.8,2,0,0,1.8,2.5,0,0,0,0,3.8,0
14,"NAALEHU 14","KAU SUGAR","COOP","BI",206,19.06032754,-155.5855501,"USC00516588",NA,NA,NA,NA,7.4,1.5,0,0,0,0,0,0,0,0,0,2,0,1.12322671079082,2.19244698619663,0,0,4.6,6.1,7.9,0,0,8.4,18.3,0,0,2.8,0,2.8,0
21,"Pahala","KAU SUGAR","HydroNet-UaNet","BI",346.8624,19.2042999,-155.4872,"USC00517421","PPLH1","B16084B2",NA,NA,7.36600000000044,0,6.096,3.30199999999968,0.25400000000036,0,0,0,0,0,0.761999999999716,14.4780000000001,11.1759999999999,0,0.253999999999905,0.762000000000171,2.53999999999996,12.6999999999998,6.09600000000046,0,0,4.57199999999966,12.192,9.39800000000014,3.04799999999977,0,0,21.0819999999999,0,0
21.3,"PAHALA MAUKA 21.3","COOP","COOP","BI",332,19.20667,-155.48861,"USC00517437",NA,NA,NA,NA,8.20335539528299,0.57692249960777,2.84880048226655,1.54310026122757,0.118700020094608,0,0,0,0,0,0.356100060283186,7.53513114486014,5.2228008841553,0,0.178050030141593,0.356100060283399,1,0,5.99653962394199,3.92911143490125,0,2.13660036169976,9.72995460560691,8.9,9.4,1.5,0,9.85210166783845,2.76916257950512,0
21.4,"HAWAIIAN OCEAN VIEW 1.7 NNE, HI US","CoCoRaHs","CoCoRaHs","BI",733.03,19.0908,-155.7552,"US1HIHI0059",NA,NA,NA,NA,0,8.6,3.8,11.2,2,0.3,0,0,0,0,0.8,0.3,0,18.8,0,0,0,1,0,2,0,0,0,0,0,51.8,1,0,15.5,14.7
23,"KAHUKU","RAWS","RAWS","BI",1796.4912,19.23222222,-155.78,NA,"KRCH1","32639544",NA,NA,26.92,5.83,1.27,1.01,23.35,27.94,0,0,0.76,1.52,2.79,0,0.76,0,0,0.76,2.01,5.33,4.82,2.02,1.27,2.79,10.4,5.83,1.51,0,0.25,0.25,5.32,27.94
26.2,"KEALAKEKUA 26.2","GREENWELL ESTATE","COOP","BI",442,19.48975723,-155.9122125,"USC00513977",NA,NA,NA,NA,23.0969233548877,55.823913904458,29.9004808475127,23.550519623091,2.2371763013186,3.6,1.52416245489103,21.5727608999966,10.0829208554335,3.28281144130388,5.54497376475185,0,1.3,0,2.34486531521721,1.40691918913032,2.68062198054579,12.0760563733677,23.120747256109,10.9,7.6,0.234486531521826,8.91048819782477,0.468973063043652,7.50356900869423,0,4.22075756739077,0.468973063043442,20.4003282423882,21.8072474315185
27,"HONAUNAU 27","TANAKA S","COOP","BI",332,19.4403158,-155.8788789,"USC00511665",NA,NA,NA,NA,0,53.3,0,35.8,0,0,0,NA,NA,0,10.2,0,0,0,NA,NA,4.93101416915192,0,20.5324196551572,13.8238041682736,6.99011422675948,NA,NA,NA,NA,NA,NA,NA,NA,NA
27.4,"PUUHONUA O HONA 27.4","HAW NATL HSTL PA","COOP","BI",5,19.4184,-155.9112,"USC00518552",NA,NA,NA,NA,0,38.1,0,2,0,0,0,25.4,20.8,0,0,0,0,2.3,0,0,0,5.6,12.7,0,0,5.1,0,0,0,0,0,0,0,47
27.6,"Honaunau No. 2","NWS","HydroNet-UaNet","BI",398.0688,19.4629002,-155.8824,NA,"HAUH1","15D12742",NA,NA,58.4200000000001,69.8499999999999,30.7340000000004,0.253999999999451,7.36599999999999,32.2580000000003,0,14.2240000000002,5.33399999999938,0,0,0,1.52399999999989,0,6.09600000000046,0,0,24.8919999999994,7.6200000000008,13.7159999999994,4.31800000000021,0,13.2079999999996,1.77800000000116,0,0,1.26999999999953,1.01600000000053,14.4779999999992,19.8120000000008
28,"NAPOOPOO 28","KONA EXP STATION","COOP","BI",122,19.46864784,-155.9055458,"USC00516697",NA,NA,NA,NA,NA,NA,24.9173173542795,20.490094680854,0.851388975658752,2.3248959931878,NA,NA,NA,NA,NA,0,0.419772887658909,NA,NA,NA,3.46231516767892,0,14.4168533211549,9.70639410169625,4.90811376339648,NA,NA,NA,NA,NA,NA,NA,NA,NA
29.12,"Kealakekua","NWS","HydroNet-UaNet","BI",537.972,19.5181007,-155.9159,NA,"KLEH1","81708572",NA,NA,50.0379999999998,58.1660000000002,55.3720000000003,0,5.84199999999964,20.5740000000001,3.30199999999991,23.3679999999999,10.9220000000003,7.11200000000008,0,0.253999999999678,0,0,2.54000000000019,1.52400000000011,0,26.162,25.9079999999999,0.507999999999811,12.4459999999999,0.254000000000133,9.65200000000004,0.508000000000266,8.1279999999997,0,4.57200000000012,0.508000000000038,22.098,23.6220000000001
34,"Kapapala Ranch","NWS","HydroNet-UaNet","BI",638.556,19.2754993,-155.4514,"USC00513300","KAYH1","B16097C4",NA,NA,10.9219999999998,0.254000000000133,9.65199999999982,8.63600000000019,0,0,0,0,0,0,2.03199999999993,1.77799999999979,9.39800000000014,2.79399999999987,0,0,3.30200000000036,9.14400000000001,2.53999999999974,0,0,9.14400000000001,5.33399999999983,0,2.7940000000001,0,0,46.4820000000002,0,0
36.3,"KAPAPALA RANCH","KAPAPALA RANCH","RAWS","BI",1081,19.25811,-155.441781,NA,"KPRH1","AA10E258",NA,NA,15.24,0,1.01,4.32,0.25,0,0,0,0,0,0,0.51,15.49,4.83,0.25,0,0,10.66,0.5,0,0,4.82,5.32,0.76,0.25,0,0,8.38,0,0
38.9,"KAELAKOMO","KAELAKOMO","RAWS","BI",29.5656,19.29277778,-155.1075,NA,"KMOH1","32807432",NA,NA,0,0,0,0.76,0,0.76,0,0.76,0,0,0,0,0.76,0.76,0,0,0.76,1.5,1.51,0,0,8.88,10.92,0.5,0,0.76,0,0,0,0.51
39,"Mauna Loa Observatory","NWS","ESRL/GMD","BI",3397,19.5362,-155.5763,"USC00516198","MOBH1",NA,NA,NA,NA,NA,NA,7.6,0,10.4,NA,NA,NA,0,0,NA,NA,NA,NA,NA,0,0,0,0,NA,NA,NA,0,0,0,1.3,NA,NA,NA
39.1,"Mauna Loa Upper","NWS","STATE","BI",3341,19.53863295,-155.5722206,NA,NA,NA,NA,NA,NA,NA,NA,5.95022651491333,0,8.14241523093403,NA,NA,NA,0,0,NA,NA,NA,NA,NA,0,0,0,0,NA,NA,NA,0,0,0,1.01780190386675,NA,NA,NA
39.2,"MAUNA LOA 5 NNE","MAUNA LOA 5 NNE","USCRN","BI",3398,19.5354,-155.576,"USW00021514","MLBH1","CD07379A",NA,NA,2.7,0,6.9,0,8.7,0,0,0,0,0,14.2,0.7,4.8,6.6,0,0,0,0,0,0,0.5,0,0,0,0,1.2,0,0,0,0
43.3,"PUHE CS","PUHE CS","RAWS","BI",34.126,20.025,-155.8211111,NA,"PHRH1","32D61558",NA,NA,0,NA,0,0,NA,NA,0,0,0,0,0,0,0,NA,0,0,0,0,0,0,NA,0,5.84,0,0,0,0,0,0,0
47,"KEMOKU LAVA FLOW","RAWS","RAWS","BI",1706.88,19.47555556,-155.3627778,"USR0000HKEA","KKUH1","FA4447E8",NA,NA,0,0,0,7.874,0,0,1.524,0,0,0,1.524,8.88999999999999,33.782,20.066,0,0,0,3.81,0.762,0,0,79.502,3.30199999999999,0.254000000000019,0,0,0,0,0,0
48,"PALI 2","RAWS","RAWS","BI",847.344,19.3175,-155.2922222,"USR0000HPAL","PLIH1","FA900222",NA,NA,0,0,0,3.8,0,0,0,0,0,0,0,0,9.13,0,0,0,0,0.5,0.25,0,0,0,6.86,0,0,0,0,0,0,0
49,"KEAUMO","RAWS","RAWS","BI",1682.496,19.47361111,-155.3588889,"USR0000HKMO","HKMO",NA,NA,NA,0,0,0,7.87,0,0,1.51,0,0,0,1.52,8.89,33.78,20.06,0,0,0,3.8,0.75,0,0,79.51,3.54,0,0,0,0,0,0,0
54,"HAWAII VOLCNS NP HQ 54","HAW VOL NATL PARK","COOP","BI",1210,19.429741,-155.257146,"USC00511303",NA,NA,NA,NA,2.74166640629604,2.32136135899982,0.619566814143827,13.4320692448073,2.37639113461911,4.17131373244506,12.6565462870146,12.8388261373113,4.88439988954064,1.15644995046461,5.49415274059526,6.22893545437299,19.31089029974,6.01022998913917,0.160469970416104,1.81665159176228,2.5493285700935,6.18352244429014,6.52805895750582,1.50003475735989,3.59731075178208,9.75396597495356,23.5744216178312,6.71848059311177,0.0493493759482629,0.381167794859398,0.345445631637849,4.97553914034977,2.38552165981701,6.23055439650286
54.2,"Glenwood","HELBUSH XL","HydroNet-UaNet","BI",802.2336,19.5076008,-155.1707,"USC00510744","GLNH1",NA,NA,NA,3.30369269343971,5.45832699368902,0.835692852468443,27.0356580762041,1.74391883170436,10.3358013930734,14.0395473182238,22.6130758270669,12.0556501668183,0,19.4333561170378,3.27551319590238,17.5,6.9,0.3,2,1.99753502625162,11.3851692243509,8.89080206441276,2,9.87584040306153,11.9,33.9140823444462,10.289340096947,0,0.5,0,11.528232977692,3.10077386671704,20.7545799182579
54.8,"Thurston","Thurston","HavoNet","BI",1202,19.41528,-155.23833,NA,NA,NA,NA,NA,4.064,1.524,0,13.97,0,6.06767548839482,13.3483002434146,11.7237983455708,3.91053069763312,0.460479092513481,8.10608847804255,1.95894154572155,18.6964112297303,5.81898243519701,0.155363761605675,1.7588451228056,1.41787762339171,6.80897302644115,5.3172008467415,2.72040583550328,4.67897085473953,9.44359147392516,22.5229030979703,3.50624902809113,0.0477790620907678,0.36903890652399,0.334453434635383,6.8945332160497,1.2049753108774,9.89861865435769
54.9,"Ola a","Ola a","HavoNet","BI",1040,19.47833,-155.215,NA,NA,NA,NA,NA,2.45985030089736,1.10833323198694,0.297422990640705,22.0824526717306,0.845470046467324,7.55421354469978,16.6185404427747,14.596046942001,4.86858336763809,0.573293249510389,10.0920234598049,2.43886852325382,23.2769012151421,7.24459243286991,0.193426796558558,2.18974987623179,1.76524772424603,8.47712379480671,6.61987786478836,3.38688623822164,5.82528598863475,11.7572053349559,28.0408568279677,4.3652555166729,0.0594845981281398,0.459450857501647,0.416392186896988,8.58364563244688,1.5001858342406,12.3237109920571
55.4,"GLENWOOD NO 2 55.4","COOP","COOP","BI",671,19.52194,-155.14389,"USC00510746",NA,NA,NA,NA,3.91886013653649,11.0334737603269,21.8362490517691,12.3122070969788,28.6644558932198,9.7118051248205,25.9868137452411,25.8384054556962,14.5600586591427,5.49283791678279,4.27269458299563,9.25982625732602,15.0503533409534,20.24479974921,0.136006574475683,3.25875891425324,2.06087987380134,10.8605176512346,10.5767375454671,6.40949817554856,14.0430518770942,5.76906184843749,54.4936675077592,24.0040446136954,0.374134394235395,0.621934419451677,2.85277475604488,9.37708230550426,7.70120407292701,8.06817017026185
55.6,"VOLCANO 4.0","COOP","COOP","BI",1194.8,19.441359,-155.2487445,"US1HIHI0071",NA,NA,NA,NA,2.8,0.3,0.3,3,15.7,0.5,5.1,8.9,1.8,1.3,0.3,3.3,0.8,23.6,0.3,0,0,4.6,10.9,5.6,0.8,0,18,15.5,1,0,0.5,0,4.1,0.8
63,"KALOKO-HONOKOHAU","RAWS","RAWS","BI",7.62,19.67277778,-156.0202778,NA,"KHOH1","FA667668",NA,NA,3.3,1.78,0,0,6.1,0,0,0,0,0,0,0,0,0.75,0.5,0,0,1.02,7.37,0.5,2.02,39.11,4.07,0.51,12.43,0,1.52,0,0.51,0.25
65.4,"PAHOA 2.1 E","PAHOA 2.1 E","CoCoRaHS","BI",137,19.5043,-154.9165,"US1HIHI0003",NA,NA,NA,NA,4.3,6.6,4.8,19.6,7.9,5.3,11.2,2.8,9.7,9.9,3.8,17.5,2.8,26.4,3.8,1.3,0.5,1.5,22.9,16.5,10.2,12.2,9.7,4.3,1.5,1,6.4,0,3.6,14.7
65.6,"KURTISTOWN 6.6 SSE, HI US","CoCoRaHs","CoCoRaHs","BI",339.63,19.5021,-155.029,"US1HIHI0055",NA,NA,NA,NA,7.1,12.7,4.8,5.6,22.1,1.3,4.8,8.9,5.1,12.2,3,12.4,9.7,13,2.5,0.3,0.5,9.7,19.3,7.4,12.2,1,14,6.1,1.3,0,4.3,0,7.6,11.4
67.7,"PAHOA 2.7 SSE","PAHOA 2.7 SSE","CoCoRaHS","BI",259,19.4654,-154.927,"US1HIHI0051",NA,NA,NA,NA,14,6.4,0.5,10.9,9.4,5.8,1.8,10.7,2,5.3,2,8.4,1.5,8.4,0.8,0.8,3,5.6,17.8,15.7,11.4,6.4,17.3,7.9,0.5,0.5,3.3,0.3,4.8,9.1
68.14,"HONOKOHAU HARBOR 68.14","COOP","COOP","BI",9,19.67944,-156.02333,"USC00511880",NA,NA,NA,NA,NA,0,0,0,0,3.8,0,0,0,0,0.5,0,0,0,2.8,0,0,0,0.5,10.9,2.5,0,39.4,2.3,2,12.2,0,0.8,0,1.3
68.21,"KAILUA KONA KE AHOLE AIRPORT","KAILUA KONA KE AHOLE AIRPORT","NWS","BI",27,19.73556,-156.04889,"USW00021510","HKO",NA,NA,NA,1,0,0,0,0,0.5,0.3,0.3,0,NA,0,0,0,0,0,0,0,0,0,0.5,0,0,8.9,0,2,0,0,0,0.8,0
68.22,"HOLUALOA 4.0 NW","HOLUALOA 4.0 NW","CoCoRaHS","BI",416,19.6799,-155.9699,"US1HIHI0049",NA,NA,NA,NA,NA,NA,NA,0.3,NA,12.7,NA,NA,NA,0.3,5.6,0,2,0,0,1.3,0,0,1,19.6,NA,NA,25.4,9.4,0.5,70.6,NA,NA,NA,12.2
69.27,"KALAOA 1.7","KALAOA 1.7","CoCoRaHS","BI",304.5,19.7238,-155.9926,"US1HIHI0006","","",NA,NA,0,11.7,7.4,0,2.8,0.8,2,0,6.1,1.3,0,0,0,0,1,1.8,0.8,NA,NA,NA,NA,NA,NA,NA,NA,NA,NA,NA,NA,NA
70.16,"Waiaha Stream","NWS","HydroNet-UaNet","BI",460.5528,19.6331997,-155.9486,NA,"WIHH1","9321011E",NA,NA,19.5580000000004,23.8759999999997,3.30199999999968,0.25400000000036,28.7019999999998,6.85800000000017,0.253999999999905,28.194,11.4300000000003,12.9539999999997,2.79400000000032,0,0,0,29.2099999999996,2.79399999999987,4.82600000000002,54.8640000000005,20.828,4.57200000000012,11.4299999999994,2.79400000000032,23.114,17.7799999999997,30.2260000000001,0,10.6680000000001,1.01600000000008,7.11200000000008,12.4459999999995
73.29,"Kainaliu Upper","NWS","HydroNet-UaNet","BI",713.232,19.5310993,-155.9066,NA,"KNUH1",NA,NA,NA,22.4012033480873,54.1423993077093,28.9998257074781,22.8411364978765,2.16978861129374,7.30428526131595,1.47825199758948,20.9229513504978,9.77920552251558,3.18392737942362,5.37794938985803,0.0758077947480846,0.420280570202018,0,2.27423384244559,1.36454030546735,2.59987692572272,11.7123042885939,22.4243096314482,9.86974881724579,9.25741022191662,0.227423384244661,8.64208860129263,0.454846768489322,7.27754829582508,0,4.09362091640186,0.454846768489118,19.7858344292752,21.1503747347425
73.34,"Kainaliu","SCAN","SCAN","BI",416,19.53333333,-155.9333333,NA,NA,NA,2096,NA,0,20.828,90.17,24.13,1.016,9.144,27.686,0.762,6.096,6.096,9.144,1.524,0,0,0,0.508,2.032,0,14.224,26.416,1.27,3.556,2.286,9.652,1.27,9.652,0,10.668,0.508,31.75
74.8,"KEALAKEKUA 4 74.8","COOP","COOP","BI",433,19.5106,-155.9217,"USC00513987",NA,NA,NA,NA,26.2795786737764,63.5162058075531,43.9,36.1,1.5,8.56889409902383,1.73418539471617,24.5453932790602,11.4723033804307,3.73516854246574,6.30904696940884,0,0,0,2.66797753033284,1.6007865181997,6.1,0,25.4,21.8,10.8601683785462,0.266797753033404,10.1383146152641,0.533595506066808,8.53752809706414,0,4.80235955459888,0.533595506066568,23.211404513894,24.8121910320937
75.1,"PTA KIPUKA ALALA","RAWS","RAWS","BI",1641.348,19.66694444,-155.7077778,"USR0000HPTK","PKAH1","32666200",NA,NA,0,0,3.56,0.25,0,0,0,0,0,0,0,0,0.25,17.02,1.01,0,0.25,0,0,0.25,6.85,1.77,2.52,5.34,0.75,0,0.25,4.06,0,3.31
79,"KULANI CAMP 79","DEPT SOCIAL SVC","COOP","BI",1576,19.54863532,-155.3005575,"USC00515011",NA,NA,NA,NA,1.42468838340692,1.90669050083533,0.882920118991536,13.9065682816107,2.63782948064401,5.73643194993776,17.439844654559,11.4611421055347,4.36214982151815,3.68425943032507,5.83060658172918,10.1433732376934,18.3713011328259,15.1189395929552,0.104742918442039,0.0829708268618268,2.15694587914595,3.83723868319763,7.95853530803675,1.50260296789691,3.32268369040304,9.22487947361821,25.9261095790611,4.09657711077468,0.476178478257893,0.104742918442059,1.97343635913386,3.38527956872016,2.3029172382875,6.655984452482
79.6,"Kulani NWR","NWS","HydroNet-UaNet","BI",1623.3648,19.5543995,-155.3089,NA,"KNWH1",NA,NA,NA,2.31138564846697,1.04143960516584,0.279471979185183,20.7496627619044,0.794441568619188,6.29555598249605,15.1315445989228,14.0938449115924,5.45637127131339,0.335366375022224,12.0136754113888,6.06231501947658,22.8944247840043,8.94008394751445,0.181752491780209,0.847660298809088,1.00113696395456,6.92379192148271,6.95556653792212,1.39649508146893,3.90425073888664,12.4281877700529,25.9702101261027,5.35009723235915,0.0558943958370354,0.228394958517665,0.638678408008736,4.133872206907,2.10871219893018,9.09338856154882
83,"QuarryRainGageatSaddleRd","USGS","USGS","BI",1286.256,19.68586111,-155.2942222,NA,"SDQH1","DDF6B6E4",NA,NA,3.30200000000002,2.03199999999993,1.26999999999998,31.2420000000001,3.048,13.208,18.5419999999999,27.178,8.8900000000001,1.524,14.2239999999999,10.414,67.8180000000001,23.622,0.507999999999925,1.28400300049902,3.048,11.684,15.24,2.54,3.30199999999999,37.592,45.466,4.57199999999999,0.253999999999991,0.508000000000024,1.77799999999998,14.732,3.048,13.208
85.2,"Waiakea Uka","NWS","HydroNet-UaNet","BI",303.8856,19.6585999,-155.1277,"USC00519084","WKAH1",NA,NA,NA,2.89170607064416,5.6907375337498,0.40029005260571,24.0861479892865,0.850643043692307,5.67208328667397,19.9238427003039,16.5427065738804,11.9446238199704,0.8,18.3065959578097,0,19.1,1.5,0,1.5,1.3,12.2,5.8,4.44154494353832,10.6683533550882,0,23.6548614120699,8.93010321032394,0,0.8,0,6.32640680954846,3.52701186488111,20.3509791146823
87,"HILO INTERNATIONAL AIRPORT 87","NWS","HydroNet-UaNet","BI",11.6,19.7191,-155.053,"USW00021504","HTO",NA,NA,NA,0,9.1,1,21.6,1.8,8.4,10.2,15.5,15.5,0,13,5.1,11.7,0,0,1,0.8,4.1,3,2.5,12.7,8.9,23.1,8.1,0,1.8,2,0,3.3,23.1
87.5,"HILO 5 S","HILO 5 S","USCRN","BI",189,19.645,-155.0827,"USW00021515",NA,NA,NA,NA,2.5,3.9,0,25.5,0.4,7.1,10.6,20.6,10.6,0.8,26.2,1.9,25,0,0,0,4.7,10.7,0.5,2.8,9.3,11.5,26.9,15,0,0,1,2.1,4.8,18.4
87.8,"HILO 0.4 SW","HILO 0.4 SW","CoCoRaHS","BI",107,19.692,-155.0925,"US1HIHI0039",NA,NA,NA,NA,3.8,6.1,1.3,13.7,13,5.8,9.4,19.8,10.2,21.3,2.3,17.7959989639639,0.5,27.2,0.5,0,2,1.5,10.4,4.8,15.2,0.3,48.8,30.5,0.3,0,3.8,0,7.9,7.9
87.9,"IPIF","Hilo Forest Service","HIPPNET","BI",111,19.69748,-155.0954,NA,NA,NA,NA,NA,2.73315447695328,5.37871567426269,0.378342239021357,22.7655099104914,0.804002476862694,8.96403362527294,12.1762183170923,19.6118679506088,11.2897027815149,0.252045393289869,16.8541607041494,1.92954541900892,31.4033698132663,0.912606114525311,0,2.24320983952762,1.73242213757898,8.23810805665589,4.68859205745001,4.19801603290778,8.56511866706336,6.80745651454829,29.4130046567674,8.9237386732985,0,1.20384357867096,0.756684478042713,5.9795313465913,3.33362659733247,22.263487734885
88.1,"KAUMANA 88.1","HILO SUGAR","COOP","BI",343,19.68362898,-155.1405634,"USC00513510",NA,NA,NA,NA,3.42319733059681,9.63794486346283,1.21578082351277,15.6639270261902,9.62734457839728,7.4406527931735,22.6999658941765,22.5703284886788,12.7184824665268,5.94090064696724,5.55246367602121,8.08863072972128,39.497575872066,16.2018440804441,0,1.01830103695492,1.37910437705554,9.48686448030867,9.23897727160669,6.10246705311028,12.2668674114989,4.38677638037993,40.3231460013504,15.4111804557366,0.326813362817021,0.71619488501844,2.49195189147979,8.19105607207471,6.72714521731428,19.0197755969212
88.2,"WAIAKEA SCD 88.2","SHINICHI KANESHIRO","COOP","BI",287,19.65529741,-155.1205634,"USC00519025",NA,NA,NA,NA,3.43251719888539,9.66418476961641,1.21909086265123,15.7065730447124,9.65355562461347,7.46091043458774,22.7617679674598,22.6317776160383,12.753109328484,5.95707511960144,5.5675806047694,8.11065253149182,39.6051104864324,16.2459546117045,0,1.0210734250547,1.38285907475744,9.51269306069399,9.26413096360186,6.11908140036454,12.3002647232947,4.39871965274439,40.4329282818969,15.4531383559532,0.327703132585528,0.718144770272693,2.49873638596465,4.22830613512236,6.7454602898411,19.0715581225318
89.11,"Piihonua","NWS","HydroNet-UaNet","BI",296.8752,19.7098007,-155.1395,"USC00518053","PIIH1",NA,NA,NA,0.887047471306476,5.31566740493433,0.713764100619137,23.7129920292439,1.61486090480683,6.67796265389808,20.3167191051018,16.4615800244995,6.4,0.248214675896535,12.9278203970494,0,64.5,1.3,0,0.8,1.5,8.4,5.1,7.9,8.00122878452221,6.70399323861112,26.0868914150236,4.99850831194521,0,0.8,0,8.9,1.8,16.9195909202353
89.13,"KAIWIKI HOMESTEAD 89.11, HI US","COOP","COOP","BI",379.67,19.7509,-155.1362,"USC00512802",NA,NA,NA,NA,5.8,5.8,0.3,18.8,19.1,6.9,21.6,10.7,9.7,11.7,1.5,25.7,0,45,0.5,0,1.5,1.3,15,10.7,12.4,2.5,60.7,36.1,0.3,0,3.8,0,13.2,4.8
89.2,"AMAUULU 89.2","HILO SUGAR","COOP","BI",390,19.73529295,-155.1455638,"USC00510150",NA,NA,NA,NA,0,13.3913967153787,1.47158205663502,31.7861724233164,2.64884770194304,12.3612892757342,15.0101369776772,22.8095218778428,22.8095218778428,0,19.1305667362553,7.5050684888386,17.2175100626297,0,0,1.47158205663502,1.17726564530802,6.03348643220358,4.41474616990506,3.67895514158755,18.6890921192648,13.0970803040517,33.993545508269,11.9198146587437,0,2.64884770194304,2.94316411327004,0,4.85622078689557,33.993545508269
91,"MOUNTAIN VIEW 91","PU SUGAR","COOP","BI",463,19.5487,-155.1101,"USC00516552",NA,NA,NA,NA,3.01445703783874,6.28512973568138,14.2499350040314,15.2583947584319,12.8942410525176,9.28852541796613,23.6639383266983,13.6254488203603,10.5269633539088,0.257673445378844,6.38669476418918,1.97263123773577,10.9,0,0,4.6,2.5,8.42206103691981,4.79328605712545,4.29175570652436,9.85480542689642,6.95946373577629,33.9112143154939,13.888713892547,0,0.682276356085245,0,9.1,3.85050042384756,16.9769176451245
91.11,"PUNA MACADAMIA O 91.11","COOP","COOP","BI",244,19.61861,-155.08667,"USC00518315",NA,NA,NA,NA,2.19912594863509,6.19159592446288,35.8,0,31.5,10.4,14.5828823786538,14.4996008862913,8.17059085943004,8.4,0,0,28.4,10.0211416322867,0,1.73576932743171,0,0,16.5,4.1,7.88046490687998,2.81814714060645,37.1,18.8,0,0,0,5.26208752087453,4.32164382561408,0
91.12,"HAWAIIAN BEACHES 91.12","COOP","COOP","BI",88,19.533,-154.917,"USC00511300",NA,NA,NA,NA,2.24585754068813,6.32316780422669,1.07846857749665,16.2202569743748,6.31621327375451,4.88159009526851,14.8927697276252,14.807718497277,11.6677151501827,4.00697856328783,7.86579486894226,12.210221405094,5.11921333834921,14.8209239381635,1.95332169412718,0.438675263701984,2.0893962762316,3.09217020432848,6.74660381842084,4.2277860152444,8.04792537973066,5.90423459031393,26.4548119098974,10.1108152685394,0.503908066134204,0.809345996826472,2.41359313472058,0.0591915664887023,4.98800157127489,12.4783067761667
91.14,"KURTISTOWN 91.14","COOP","COOP","BI",223,19.59,-155.083,"USC00515102",NA,NA,NA,NA,3.15877375281734,8.8934654726724,1.51685410767011,22.8136117569188,19.1092584930985,11.4845824857755,20.9465156494125,20.8268920360704,16.410512111313,5.63577096254162,11.0631533509677,9.90284180395808,20.4370584540857,13.7967720839234,0,2.37409264133418,2.93871271753613,4.34910313932194,9.48902353608557,4.21413445221841,11.3193178968673,8.3042405479759,41.928736852655,17.1723791606115,0.708741113049387,0.86082857052249,3.25593820345667,3.75049486392502,7.01556895613562,15.0807825374971
91.17,"PAHOA BEACON 91.9, HI US","COOP","COOP","BI",148.5,19.5407,-154.9728,"USC00517460",NA,NA,NA,NA,NA,NA,NA,NA,NA,NA,NA,NA,NA,NA,NA,5.1,NA,2.3,NA,NA,NA,NA,NA,NA,NA,NA,NA,NA,0.8,NA,0,NA,NA,NA
91.8,"S GLEWNWOOD 91.8","COOP","COOP","BI",694,19.488,-155.149,"USC00518638",NA,NA,NA,NA,3.34954552594929,9.43057965376761,1.18962269032331,15.3269097929053,24.5002109403581,8.30091717268689,22.2115647615278,22.0847165697222,12.4448379478002,4.69486279885078,5.43299963977547,7.91459978939348,19.6106307832996,3.30714911485006,0.116248142868742,3.41878270889113,2.32209737117014,9.28274984070669,9.04019604942321,5.47835472292796,12.002939616816,4.9309581434659,46.5770693093689,20.5168435308209,0,0.894532498231978,0,8.01482139921924,6.58240731951546,6.89606221065158
91.9,"Pahoa Beacon","NWS","HydroNet-UaNet","BI",187.1472,19.5149994,-154.9644,NA,"PHAH1",NA,NA,NA,1.78308364783024,5.53457907067827,2.02576741902751,14.7959087702324,2.78442605538264,5.76434678581345,8.77855347411281,10.6136651593838,9.11046187163565,0.203672983817741,6.07507001073813,1.55922815240439,25.3764528219092,0.737459264656818,0,1.81269427456054,1.39993665976994,6.65705501303253,3.78876011888368,3.39233516779143,8.94966774566348,5.50097330655439,16.3670110512055,7.36522224595597,0,0.972802599235596,0.611462020550743,4.83194306904604,2.47403049174278,15.60621642402
92,"KEAAU 92","PU SUGAR","COOP","BI",87,19.62918887,-155.0333418,"USC00513872",NA,NA,NA,NA,2.06875471903583,5.82453828760719,1.3,8.9,18.1944908224662,6.85470590366483,13.7183624051677,13.6400181064066,10.7476277279414,3,3.3,14.0776167950461,12.2104104989749,13.6521821985878,1.79928753240622,0.404082407484181,4.8,4.1,7.9,4.39701621131139,7.41328570763426,5.43864112024842,28.7670465100806,10.5685176727439,0.8,0,2.83878248842502,0.0545238646183702,4.59465999164457,4.25916325976996
92.5,"KiholoRainGage","USGS","USGS","BI",283.96692,19.82580556,-155.8925833,NA,"KIRH1","DD60236E",NA,NA,38.354,0,0,0,2.53999999999999,0,0,24.892,0,0,0,0,0,0,3.04799999999997,12.954,0.254000000000019,0.253999999999991,0,0,0.761999999999972,0.253999999999991,5.84200000000001,0,15.494,0.254000000000076,0.507999999999981,17.78,0,0
93.11,"KAPOHO BEACH 93.11","ARRUDA GENVIEVE","COOP","BI",4,19.48892483,-154.8200037,"USC00513368",NA,NA,NA,NA,2.17229412420344,3.39802143367142,1.72305846527627,9.03778874523843,5.42679364532611,2.94378508053248,5.53934020168761,5.5478124339219,5.28865471603645,7.99560952641114,1.66726562645439,10.3025607296828,0.943487877959153,14.260070644359,1.23784675595009,0.382666541388219,0.624311517333577,0.799387375739988,9.22190511335064,6.00203847486194,6.62866435087719,3.66274812324016,14.4973038279619,8.54200737001718,0.513108128737123,0.294358877990938,2.79044776798441,0,2.9443636702029,6.21174721590232
93.12,"PUUANAHULU","RAWS","RAWS","BI",830.58,19.83277778,-155.7697222,NA,"PULH1","48703040",NA,NA,6.1,0.25,4.06,1.52,0,0,0,0,0,0,0,0,0,36.32,3.81,7.36,0.5,0,0,0,0,1.01,0.25,1.01,8.12,0.25,0,6.6,0,0
93.13,"Mamalahoa","Hilo Forest Service","HIPPNET","BI",636,19.80256,-155.85062,NA,NA,NA,NA,NA,21.3492190661585,0,2.21682428154996,1.38688021555096,0,0,0,0,0,0,0,0,0,1.11387229910392,31.0683008916732,17.7564348857155,0,34.3771568390113,0.54601583289408,0,2.20590396489208,3.59278418044305,2.47891188133912,12.1979937068537,16.3586343535066,0.27300791644704,4.44456887975781,10.5271852581979,0,0
93.61,"PAHOA 4.7 NE, HI US","CoCoRaHs","CoCoRaHs","BI",53.95,19.5473,-154.8988,"US1HIHI0065",NA,NA,NA,NA,5.3,7.6,6.9,14.5,6.6,6.4,6.6,4.6,2.3,2.3,6.9,14.2,5.3,8.6,0.5,0.5,0.3,4.6,10.4,4.3,6.9,12.2,12.7,4.3,0.3,1,11.7,0.8,5.1,15.5
93.62,"PAHOA 5.7 NE","COOP","COOP","BI",27.4,19.5565,-154.8865,"US1HIHI0070",NA,NA,NA,NA,NA,NA,NA,NA,NA,NA,3.3,6.1,2.8,3,5.6,13.7,1.5,9.9,0.5,0.5,0.5,0,11.2,4.8,5.3,8.4,9.7,4.8,0.3,1,5.6,0.3,5.6,10.7
93.63,"HAWAIIAN PARADISE PARK 2.4 E","COOP","COOP","BI",10.1,19.594568,-154.936038,"US1HIHI0072",NA,NA,NA,NA,NA,NA,NA,NA,NA,NA,NA,NA,NA,2.8,1.8,13,3.8,29.7,NA,NA,NA,NA,NA,NA,NA,2,17.8,4.8,0,0,5.1,0,7.4,23.6
93.64,"KEAAU 5.5","COOP","COOP","BI",18,19.613803,-154.955684,"US1HIHI0068",NA,NA,NA,NA,3.8,3.8,1.5,21.1,16.8,3.6,5.8,8.4,16,5.1,2.8,9.4,15.5,14.7,0,0.8,5.1,1,5.1,6.1,2.5,0.8,16,0.5,0.3,0.8,2,0,4.8,19.1
93.8,"KONA VILLAGE 93.8","KO VILLAGE RES","COOP","BI",12,19.8314012,-155.9858256,"USC00514765",NA,NA,NA,NA,4.1,0,0,1,2.5,0.5,2.5,0,0,0,0,0,0,10.2,25.4,0,0,0,0,5.1,3,0,10.2,7.6,0.8,0,0,0,1,0
94,"KAUPULEHU LAVA FLOW","RAWS","RAWS","BI",372.1608,19.80333333,-155.9180556,NA,"KPLH1","4870E628",NA,NA,48.75,0.25,0,0,0,1.78,0,7.11,0,0,0,0,0,0,4.57,3.3,0,2.03,0,0.51,1.27,0,16.76,0.25,9.66,0,0,14.48,0,0.51
94.5,"PUU WAAWAA","RAWS","RAWS","BI",708.9648,19.795,-155.8452778,"USR0000HPUW","PWWH1","487046D0",NA,NA,19.55,0,2.03,1.27,0,0,0,0,0,0,0,0,0,1.02,28.45,16.26,0,31.48,0.5,0,2.02,3.29,2.27,11.17,14.98,0.25,4.07,9.64,0,0
95.11,"WAIKOLOA VILLAGE 2.7 ENE","WAIKOLOA VILLAGE 2.7 ENE","CoCoRaHS","BI",265,19.9465,-155.7883,"US1HIHI0047",NA,NA,NA,NA,NA,NA,NA,0,0,0,NA,NA,NA,0,0,1.10784009747519,0,NA,NA,NA,0.415440036553197,0.415440036553197,1.80024015839719,NA,NA,NA,NA,5.95464052392916,23.957042107901,0,0,NA,NA,0.3
95.6,"WAIKOLOA","RAWS","RAWS","BI",297.7896,19.92416667,-155.7936111,NA,"WKVH1","4870C0C4",NA,NA,35.56,0,0,0.25,0,0,0,0,0,0,0.76,0,0,7.62,0,0,0,0.25,0,0,0,0.25,1.02,7.36,6.86,0,0,0.25,0,0
95.8,"WAIKOLOA 95.8","BOISE CASCADE","COOP","BI",268,19.93389178,-155.7877744,"USC00519142",NA,NA,NA,NA,NA,NA,NA,0,0,0,NA,NA,NA,0,0,0.8,0,NA,NA,NA,0.3,0.3,1.3,NA,NA,NA,NA,4.3,17.3,0,0,NA,NA,0.216637762567873
95.9,"WAIKOLOA BEACH RT 95.9","COOP","COOP","BI",24,19.91278,-155.87778,"USC00519144",NA,NA,NA,NA,0,8.6,0,0,0,0,0,0,0,0,0,0,0,0,2,0,5.1,0,1.3,0,0,1.5,10.7,12.7,6.1,0,0,0,0,0
98.1,"PUUKOHOLA HEIAU 98.1","ROSE FUJIMORI","COOP","BI",43,20.02666416,-155.81944,"USC00518422",NA,NA,NA,NA,1.3,0,0,0,0,0,0,0,0,0,0,0,0,24.1,10.9,0,0,0,0,0,0,0,4.1,8.1,1.3,0,0,0.5,0,0
98.2,"PUHO CS","PUHO CS","RAWS","BI",29.5656,19.42194444,-155.9075,NA,"PERH1","32D6803A",NA,NA,31.5,2.29,2.79,0,8.88,36.31,0.76,0,0,1.02,0,0,0,0,0,1.02,0,5.84,9.91,0,3.3,0,1.77,0,2.79,0,11.18,0,2.54,31.24
98.91,"HOLUALOA 0.95","COOP","COOP","BI",527.3,19.6225861,-155.927558,"US1HIHI0067",NA,NA,NA,NA,NA,38.9,14.2,NA,2.3,31.5,5.6,NA,25.9,NA,15.7,2.8,0,0,2.3,1.3,4.6,5.8,39.4,29.5,9.4,27.4,NA,72.4,13.5,41.4,0,1.3,2.5,2.5
99,"PTA WEST","RAWS","RAWS","BI",1307.592,19.77166667,-155.7022222,"USR0000HPTW","PKWH1","32667176",NA,NA,0.25,0,5.84,0.25,0,0,0,0,0,0,0,0,0,23.11,0,2.28,0.5,NA,0,0,0,0.75,0,7.12,3.04,0,0,1.52,0,0
100,"Waikii","PARKER RANCH","STATE","BI",1417,19.82,-155.6508,NA,NA,NA,NA,NA,0,0,0,1.34715719273707,0,0,0,0,0,0,0,0,0,15.3712149351067,62.2719628193292,3.65548833759553,0.189207470890038,0,0,0,0,0.95360565328579,0.189207470890038,0.567622412670113,7.4926158472455,0,0,0,0,0
101.1,"PTA KEAMUKU","RAWS","RAWS","BI",1025.9568,19.90222222,-155.6786111,NA,"PKMH1","328FB7BE",NA,NA,0,0,0,1.78,0,0,0,0,0,0,0,0,0,20.31,82.28,4.83,0.25,0,0,0,0,1.26,0.25,0.75,9.9,0,0,0,0,0
102.8,"AUHMOA","RAWS","RAWS","BI",2001.9264,19.83638889,-155.6130556,NA,"AHMH1","4870D3B2",NA,NA,0,0.25,0,0,0,0,0,0,0,0,0,0,0,2.01,1,0.5,0.25,0.25,0.25,0.25,0.25,0,0.25,0.25,0,0,0.25,0.25,0,0.25
103.3,"Mana House","Mana House","SCAN","BI",1288,19.96,-155.54,NA,NA,NA,2097,NA,7.874,0,0,0,1.778,0,0,9.144,0,0,0,5.842,0,5.588,0,0,0,0,0,0,0.254,2.54,0.508,0.762,0.508,0,5.334,0.254,5.334,4.318
104.1,"Silversword","Silversword","SCAN","BI",2835,19.77,-155.42,NA,NA,NA,2101,NA,0,1.27,2.286,0,17.018,0,0,6.096,2.54,0.254,0,3.556,0,13.462,8.89,0,0,0,0,0,0,0.762,5.588,7.62,0,1.27,0,0,0,0
107.4,"PTA EAST","RAWS","RAWS","BI",1959.864,19.68277778,-155.5452778,"USR0000HPTA","PTAH1","3266D18E",NA,NA,2.02,6.09,8.13,0.75,12.18,0,0.25,0.25,0.25,0,28.71,0.25,0.5,10.16,0.25,0,0,0.25,0.25,0,0.51,22.86,0.5,0,0.25,4.32,0.25,0,0,0
109,"PTA RANGE 17","RAWS","RAWS","BI",1734.312,19.74583333,-155.6261111,NA,NA,"3279630C",NA,NA,0,0,4.32,0,0,0,0,0,0,0,0,0,0,16.76,0,0.5,0,0,0,0,0,2.54,2.03,0.75,0.76,0,0,0.5,0,11.17
113.2,"PUU MALI","RAWS","RAWS","BI",2165,19.92666,-155.44,NA,"PMLH1","3181742E",NA,NA,0,0,28.95,0.25,0,0,0,0,0,0,0,1.01,20.06,19.04,0.51,0,0.5,3.78,0,0,0,0.5,0,1.78,0.51,0,0,0,0,0
125.12,"Pua Akala","SCAN","SCAN","BI",1949,19.8,-155.3333333,NA,NA,NA,2098,NA,1.30202940139772,2.50065344539145,1.74672151470795,4.43810610892048,15.5727939879409,1.75041156033778,4.10071075869827,8.43092317760742,4.45586741660583,4.94074145623716,0.544150069131937,8.19006642989412,0.078732087622294,18.6089378226048,5.99458799616363,0,0.496910816558561,0.393914400127016,3.45745208323757,2.05396963246897,3.89784384989132,0.852417227247722,18.7288838856408,14.2011073406168,0.0836357457872534,0.836456440931173,1.05938611330521,0,2.84541268584283,1.82631087585428
127.5,"Laupahoehoe","Hilo Forest Service","HIPPNET","BI",1145,19.93217,-155.29129,NA,NA,NA,NA,NA,1.4577631830356,1.69743648208979,1.45776318303563,24.619298942621,0.398459545022761,2.70540969474178,33.132146354909,8.30657974334534,6.85674808305544,0.292368990037304,15.3024443083724,6.01268496940069,12.5730195295435,3.76261847923361,0,0.548191856319945,0.475099608810619,6.25882506597975,5.47467260487249,6.26285947399342,5.95344178014478,7.74496078546443,25.8339368795225,3.67775068546493,0,0.292368990037304,0.355770349389498,8.57809153099697,5.78578209120104,9.84102165463636
128.1,"Hakalau","Hilo Forest Service","HIPPNET","BI",1665,19.83873,-155.30797,NA,NA,NA,NA,NA,1.80090193278912,0.811431272436186,0.217748876224446,16.1669723083296,0.618984269182095,5.53057955127946,12.1667410381067,10.6860361133932,3.56437999236208,0.261298651469339,7.38855716052543,4.72341551613985,17.8380504659422,6.96561150280318,0.141611337750284,0.660449315970432,0.780029717052284,5.39462995363755,5.41938695089472,1.08807056624927,4.2647996880764,9.68334617418743,20.5292302706908,3.19588435695731,0.0435497752448883,0.177952529257313,0.49762235920106,4.70848617329193,1.09831381504849,9.0224169074979
129,"HAKALAU","RAWS","RAWS","BI",1950.72,19.82111111,-155.3305556,"USR0000HHAK","HKUH1","8374D370",NA,NA,0,0,0,17.03,0.25,3.29,17.02,6.07,1.76,0,4.82,7.62,7.86,4.31,0,0,0,2.53,4.3,0.75,1.76,2.79,18.78,1.26,0,0,0.5,0.75,0.5,3.28
132.2,"Spencer","Hilo Forest Service","HIPPNET","BI",454,19.96358,-155.25014,NA,NA,NA,NA,NA,5.28430035843864,2.38447881448948,2.86688727515112,24.692291536859,2.64087922807994,3.81403233174984,25.2256189573681,8.51201919792299,8.22368230210852,1.08186125850881,25.8077277544609,1.41077074246065,8.91791634409016,1.81265723345063,0.738437376130399,0.776909974914839,1.29360937420906,5.40320544957233,4.21895906376433,8.94675050017128,19.932030011975,8.05058600838395,13.541232442485,3.1802835835079,0.0738437376130451,1.10848312018381,0.812281113743438,11.6367919683501,6.2171982596627,12.6217207985741
132.3,"POHAKUPUKA","COOP","COOP","BI",82,19.9522,-155.185,"USC00518067",NA,NA,NA,NA,2.13368239360118,4.2634611823633,0.310863969722894,13.008579546453,5.5279700132528,1.92423599381059,20.8549658050786,11.9960912489943,9.77387331840839,3.48776593081936,6.02237501810823,10.3876782351618,1.08396069416167,14.1893617894945,1.85575800436629,0.093725151735671,0.545014422282802,0.484878558152206,4.79770124941779,3.55044723793055,5.6087866247594,6.97385994141956,22.2369483476196,7.64142856212289,0.484878558152206,0.187450303471342,1.64696131169277,1.57813479315828,5.73826844141487,8.52370732281842
132.4,"KAPEHU MAUKA 132.4","COOP","COOP","BI",335,19.95,-155.217,"USC00513329",NA,NA,NA,NA,3.33257806111269,4.79138440580967,0.485535452040927,11.4578075375188,8.46429472087931,3.00544573860095,22.1538279265331,30.6776477786774,9.49290621978596,5.44750814751178,6.99121956989645,15.5452605401888,3.33898004228884,22.1899537112119,2.89849062383056,0.146388415344978,0.85125279757507,0.757327168302085,7.15390633415372,2.4604071637617,6.19270731862152,4.27064913658155,27.600554661049,10.9163423013479,1.94241277609081,0.292776830689955,2.57237307263201,0.417023495814967,7.71170551230561,9.69216734429239
132.5,"KIHALANI 132.5","COOP","COOP","BI",302,19.97278,-155.23944,"USC00514459",NA,NA,NA,NA,1.57888311581096,3.15300103758517,0.0686470919917809,10.0931295794816,4.13711425422856,0.297470731964384,21.627998571587,23.3632401906774,9.56882130346631,0.869529831895891,7.36493101292703,6.52598158611418,1.58388666965198,6.09919092253463,2.26535403572877,0.114411819986301,0.572059099931507,0.343235459958904,2.53075514514474,3.46376585834385,4.84358367031044,8.26444077324185,16.3281343764481,5.78455867965067,1.26945493509398,0.228823639972603,0.114411819986301,2.18373804544121,6.5591873403783,9.2917868874826
133.1,"LAUPAHOEHOE 133.1","BARNARD EW","COOP","BI",140,19.98027372,-155.2305601,"USC00515427",NA,NA,NA,NA,1.78851443375913,2.57142068702745,0.421770465160106,4.2103946336119,4.54258325004676,1.61295038999715,11.8894262288912,16.4639551841807,5.09461428391574,1.46161658416549,2.9101362900617,8.34276717388909,1.79195022296743,11.9088140680187,1.55555015419671,0.0785631391008442,1.77607445870274,1.41722294420127,3.83216353529428,1.99178263879649,3.32347696596861,2.29195460158157,14.8125533703364,5.85853816828445,1.10223946644147,0.157126278201688,1.38053071377406,0.223806472888058,4.13868673583397,5.20155293343318
133.3,"Laupahoehoe","NWS","HydroNet-UaNet","BI",499.872,19.9792,-155.2372,NA,"LPHH1","B159741A",NA,NA,0,2.79399999999998,0,14.732,0.254000000000019,0,23.368,6.85799999999995,8.63600000000008,0,8.63599999999997,1.01600000000002,0,0.254000000000019,0,0,0,0,0.507999999999981,5.84199999999998,4.82599999999996,9.90600000000001,10.6680000000001,1.52399999999994,0,0,0,3.55600000000004,4.82599999999991,9.6520000000001
137.4,"WAILEA 137.4","WAILEA 137.4","COOP","BI",61,19.8875,-155.12528,"USC00519432",NA,NA,NA,NA,3.68827701924841,4.7757545015352,0.42422082104109,11.7076776502907,10.2746094160588,3.67275556092816,17.1212488144088,12.771063866656,9.09011201340759,6.48960809548228,3.01997603958146,16.9232151834372,1.26207952559049,25.7356680430496,2.26449194023949,0.109126277064812,0.945947367049232,0.834413182271363,8.44667958198628,5.95747467873138,6.6996357093847,3.70254380228175,33.1753350470952,15.6314218334928,0.626829873558944,0.218252554129624,2.70641022952172,0.0654757662388872,7.01646091302309,12.9349178325906
138.2,"KAHUNA FALLS 138.2","COOP","COOP","BI",424,19.86139,-155.16361,"USC00512595",NA,NA,NA,NA,6.9,7.4,0.3,7.1,17.5,1.3,23.4,30,22.1,3.8,1,26.2,1.3,25.4,9.9,0.5,2.5,1.5,9.9,6.63526662486404,7.9,13.5,47,21.8,1.5,1,0.5,0.3,10.9,8.9
138.3,"HONOMU 2.8 SW","HONOMU 2.8 SW","CoCoRaHS","BI",385,19.8494,-155.15,"US1HIHI0014",NA,NA,NA,NA,5.56984226263121,7.21209364691986,0.640636005753241,17.6803199525236,15.5161755635304,5.54640257139362,25.8556108279934,19.2861899721834,13.7274097905603,9.8002653405618,4.56060921932109,25.556550838342,1.90592622076633,38.8646543562596,3.41971680714587,0.16479677279855,1.4285200367865,1.26008696821225,12.7557319228257,6.56082315861311,10.1174380133649,5.59138720914043,50.0996487676827,23.6057523604738,0.946605556743088,0.3295935455971,4.08707860004487,0.0988780636791299,10.5958907976548,9.22862798024314
140.1,"PAPAIKOU MAUKA NO 2 140","MAU KEA SUGAR","COOP","BI",427,19.78695738,-155.1388973,"USC00517724",NA,NA,NA,NA,3.3,6.6,1,21.1,8.4,6.6,25.4,13.5,7.6,10.9,8.4,19.8,3.3,36.6,0,0,0.3,0.8,10.7,2.8,8.1,0.8,34.8,11.4,0.8,0,6.1,0,6.4,10.7
140.5,"KAUKU 140.5","COOP","COOP","BI",457,19.835,-155.149,"USC00513473",NA,NA,NA,NA,3.78045197983996,10.6437883130489,1.34266318222999,17.2986591830233,10.632081751962,8.21718056737047,25.0689991604947,24.9258324251463,14.0458196176375,6.56091000425738,6.13193464174157,17.6344289341757,34.9479525519665,25.6137295557018,3.28802639172065,0.575704038680044,1.73373383382207,5.16034840248241,10.7268069819178,6.73933794194002,13.5470727257637,4.84459289100672,44.5313846711853,17.0195352586942,0.859106355587748,0.741765977655834,2.91808104626116,4.65690552259529,7.42920930328981,21.0047336940862
144.1,"PAPAIKOU 144.1","MAU KEA SUGAR","COOP","BI",61,19.78362447,-155.0922318,"USC00517711",NA,NA,NA,NA,1.96608704949572,5.53547948008724,11.3152278395099,5.6,17.8,5.6,13.0375507627408,12.9630945162952,10.2142470029289,11.2,6.1,26.2,7.1,12.9746549317888,1.70999291662363,0.384028701408338,1.5909841063948,1.48654479731474,11.9,6.9,7.04538091919587,5.16873352601166,27.3394023347874,5.3,0.3,0,3.8,0.051817967170413,4.36663729309519,4.0477905136209
144.11,"PEPEEKEO 0.2 SSE","PEPEEKEO 0.2 SSE","CoCoRaHS","BI",178,19.8313,-155.1077,"US1HIHI0002",NA,NA,NA,NA,2.49996900213443,7.0386136339786,0.742724709534804,16.0298537667613,7.03087222104842,5.43392610537463,16.5778380865517,16.4831635866728,12.9878790941715,4.3386536117651,7.64612796659539,11.6614431133835,7.29005804635458,16.9706392402422,2.1743336779137,0.582590892301127,1.04831562384584,4.41336234715575,7.19464662464434,4.45664593535499,8.95852190814069,3.20367303170727,29.4480876608835,11.2548210648799,0.56811705847854,0.471776896480135,1.9296931161331,0.0658888993307183,5.55237769309459,13.8901865209057
144.12,"PAPAIKOU 1.1 N","PAPAIKOU 1.1 N","CoCoRaHS","BI",108,19.8095,-155.0988,"US1HIHI0011",NA,NA,NA,NA,2.95437624940758,8.31798831554654,0.877726179734357,18.9435225835051,8.30883978351343,6.42162451336321,19.5911113568276,19.4792283320269,15.348622920219,4.82929083560299,9.0359275835636,16.0622779787559,5.7025529719431,19.4965997993667,2.56955177077425,1.90295318978901,1.71833091641414,2.50527949118524,7.6839132653463,8.62848060221504,10.5868690102203,7.76689087733031,34.8007238095779,13.3005553336958,0.671380942331396,1.06467687609633,3.17502873791667,3.58567355631835,6.56160647200577,27.9
147.1,"MIDDLE PEN 147.1","KAHUA RANCH","COOP","BI",421,20.10027112,-155.8322151,"USC00516270",NA,NA,NA,NA,0,0,0,0,0,0,0,0,0,0,0,0,0,0,0,0,0,0,0,0,0,0,85.1,27.9,0,0,0,0,0,0
147.2,"KOHALA RANCH","KOHALA RANCH","RAWS","BI",328.8792,20.08305556,-155.8325,NA,"KHRH1","4870B654",NA,NA,28.7,0,0,0.25,0,0,0,0,0,0,0,0,0,33.01,0.25,0,0,0,0.51,0,51.56,7.88,62.24,4.31,4.57,0,0,1.26,0,0
160.3,"Upolu Airport","NWS","HydroNet-UaNet","BI",34,20.265,-155.8582,NA,"UPLH1","B15017A0",NA,NA,NA,NA,NA,NA,NA,NA,NA,NA,NA,NA,NA,NA,NA,NA,NA,NA,NA,NA,NA,NA,1.27,1.778,0.254,0.508,0,0.508000000000001,0,0.253999999999999,0.254,1.524
168,"HAWI 168","KOHALA SUGAR","COOP","BI",183,20.23692665,-155.8272119,"USC00511339",NA,NA,NA,NA,NA,NA,NA,NA,NA,NA,NA,NA,NA,NA,NA,NA,NA,NA,NA,NA,NA,NA,NA,NA,2.6849204289686,3.75888860055603,0.536984085793719,1.07396817158744,0,1.07396817158744,0,0.536984085793717,0.536984085793719,3.22190451476231
176.3,"Kahua Ranch HQ","KAHUA RANCH","HydroNet-UaNet","BI",987.552,20.1249008,-155.7884,NA,"KASH1","15D293C2",NA,NA,0,0,0,1.01600000000053,0,0,9.14399999999978,0,0,0.25400000000036,0,0,0,2.2859999999996,0,0.253999999999905,0,0,0,1.01600000000053,0.253999999999451,2.28600000000006,0.508000000000266,3.55599999999959,12.9540000000002,0,0,1.77799999999979,6.09600000000046,1.77799999999979
178.12,"PONOHOLO RCH 178.11","PONOHOLO RCH 178.11","COOP","BI",762,20.12554592,-155.7774941,"USC00518101",NA,NA,NA,NA,0,0,2.5,0,0,0,0,11.4,0.5,0,0,0,0,0,0,0,0,0,0,0,0,0,0,0,0,0,0,0,8.6,2.8
185.7,"KawainuiRainGagenearKamuela","USGS","USGS","BI",1237.488,20.08533333,-155.6811667,NA,"KWSH1","DDF6A592",NA,NA,5.07999999999981,0.254000000000133,5.07999999999993,13.716,0.254000000000133,1.26999999999987,25.9080000000001,0,2.03199999999993,NA,23.876,2.794,6.35,3.81,2.54000000000001,0.762,2.794,3.048,6.096,8.12799999999999,6.60400000000001,7.61999999999999,21.844,6.60399999999998,0.254000000000019,2.79399999999998,2.79400000000001,20.828,9.14399999999998,6.60400000000001
189,"Waimea Plain","SCAN","SCAN","BI",927,20.01666667,-155.6,NA,NA,NA,2099,NA,0.254,0.254,0.254,0,0.508,0,0,0,0,0,0,0.762,0,4.572,0.254,15.24,0,0.254,0,0,0,0,3.556,0.508,0.508,0,0,0.254,5.08,0.508
191.1,"LALAMILO FLD OF 191.1","DOWALD","COOP","BI",799,20.01083015,-155.6763867,"USC00515260",NA,NA,NA,NA,NA,NA,NA,0,0,0,NA,NA,NA,0,0,0,0,NA,NA,NA,0,0,NA,NA,NA,NA,NA,0,2.3,0,0,NA,NA,NA
192.7,"Kamuela Upper","NWS","HydroNet-UaNet","BI",948.5376,20.0319996,-155.6667,"USC00513080","KUUH1","817075F6",NA,NA,1.01599999999999,0,0,1.524,0,0,1.27000000000001,0,0.507999999999981,0,2.79400000000001,0,0,2.53999999999999,2.286,0,0,0,1.77799999999999,0.253999999999991,2.286,10.668,6.096,1.524,1.01599999999999,0.254000000000048,0,12.7,3.55599999999998,4.82600000000002
192.9,"PUUKAPU HMSTD 192.9","COOP","COOP","BI",916,20.0375,-155.6347,"USC00518386",NA,NA,NA,NA,0.5,0,0,1.3,1,0,0,0.3,0,0,0,4.6,1,3.6,0.8,21.1,0,0,0.5,0.3,0,2.3,2.5,13,0,0,2.5,0.5,8.4,3.6
199,"KUKUIHAELE HIC 199","HONOKAA SUGAR","COOP","BI",299,20.11526922,-155.5822202,"USC00514928",NA,NA,NA,NA,0,0,0,1.92551198704533,0,0,10.1410297984387,32.2202339165585,0,0,6.54674075595412,0,3.20918664507555,0.385102397409066,0,0,0,0,0,1.02693972642418,1.28367465803022,0,0,0,2.3106143844544,0,0,0.64183732901511,3.85102397409066,5.51980102952995
201.3,"Kamuela 1","NWS","HydroNet-UaNet","BI",877.824,20.0394993,-155.6084,NA,"KMUH1","81706680",NA,NA,0,0,0,1.77799999999979,0,0,0,0,0,0,3.04800000000023,0.253999999999905,4.06399999999985,0,1.27000000000044,0,0,0,0,0,0.507999999999356,0.508000000000266,1.01599999999962,1.27000000000044,0,1.77799999999979,0.253999999999905,6.85800000000017,2.28600000000006,2.53999999999996
206.1,"KUKUIHAELE 206.1","COOP","COOP","BI",226,20.12167,-155.57417,"USC00514927",NA,NA,NA,NA,1.38103747019718,0.110240968877755,0.293975917007347,2.17330784241477,0.367469896259183,0,3.38382788073577,12.6387644270843,0,0,5.82655017588992,1.56477241832677,5.96535129114038,0.585204670805333,0,0,0,0,0.704243521342932,0.211920481850505,1.73974867290476,1.29111312246206,3.75207919450297,0.234747840447661,1.39549582481159,1.0563652820144,0.418482788577227,3.88841574831886,5.16823312639625,3.73276071779895
214,"HAINA 214","HONOKAA SUGAR","COOP","BI",140,20.09193527,-155.4738903,"USC00510840",NA,NA,NA,NA,0,0,0,1.40534336403131,0,0,7.40147505056487,23.5160789581238,0,0,4.77816743770644,0,2.34223894005218,0.281068672806261,0,0,0,0,0,0.749516460816696,0.93689557602087,0,0,0,1.68641203683757,0,0,0.468447788010435,2.81068672806261,4.02865097688974
215,"HONOKAA TOWN 215","HONOKAA SUGAR","COOP","BI",326,20.08026947,-155.4672231,"USC00511856",NA,NA,NA,NA,1.46707045206872,0.0742662510767138,0.0742662510767138,1.87502048539228,0.607591231827666,0,0.29239498642461,8.56535765758913,0,0,0.968994101928746,4.71310773105598,0.816928761843852,2.08618884508623,0.382175512308855,0.19804333620457,0.0742662510767138,0.0742662510767138,0.445597506460283,0.0742662510767138,0.624634162618898,0.321820421332426,2.01603303599656,2.77830657419779,0,0.0968994101928746,0.564279071642469,0.321820421332426,4.23465609771058,4.09504887472064
215.5,"Honokaa","NWS","HydroNet-UaNet","BI",591.9216,20.0656,-155.49,NA,"HNKH1","B15047DC",NA,NA,0.762,0,0,3.04800000000006,0,0,2.79399999999998,0,0,0,8.88999999999999,0.762,9.65199999999999,0,0,0,0,0,1.524,0,2.79399999999998,2.79400000000004,4.06399999999996,0.508000000000038,0,2.286,0.507999999999981,8.12799999999999,7.87400000000002,0.762
216.6,"HONOKAA 2.5 SSW","HONOKAA 2.5 SSW","CoCoRaHS","BI",757,20.0417,-155.4777,"US1HIHI0033",NA,NA,NA,NA,2.5,0.3,0.3,3.3,0.3,0,0.3,0.5,0,0,0,8.4,3.3,2,0.5,0.8,0.3,0.3,1.8,0.3,0.5,1.3,7.1,3,0,0,1.3,1.3,11.2,3
216.8,"KALOPA 216.8","COOP","COOP","BI",396,20.06111,-155.43528,"USC00512982",NA,NA,NA,NA,1.5,0,0,2.3,0.3,0,0.3,14.5,0,0,3,3.8,0,3.8,0.8,0,0,0,0,0,0.8,0,0.8,3.6,0,0.3,0,0,2.8,5.8
216.9,"HONOKAA 2.7 ESE","HONOKAA 2.7 ESE","CoCoRaHS","BI",333,20.0606,-155.43,"US1HIHI0034",NA,NA,NA,NA,1.5,0,0,1.3,1.8,0,0.5,15.5,0,0,0,5.8,0,1.5,0,0,0,0,0,0,1,0,5.62295873674251,3.6,0,0,1,0,2.3,6.1
217,"PAAUHAU 217","PAAUHAU SUGAR","COOP","BI",122,20.08360173,-155.4372236,"USC00517204",NA,NA,NA,NA,0,0,0,1.31102269736843,0,0,6.90471953947371,21.9377798026317,0,0,4.45747717105265,0,2.18503782894738,0.262204539473685,0,0,0,0,0,0.699212105263161,0.874015131578951,0,0,0,1.57322723684211,0,0,0.437007565789476,2.62204539473685,3.75826506578949
217.2,"PAAUHAU MAUKA 217.2","COOP","COOP","BI",341,20.07306,-155.44722,"USC00517209",NA,NA,NA,NA,2.8,0.3,0.8,1,1,0,0,16.3,0,0,1,3.3,1.41166448972085,1.23387698291252,0,0,0,0,0,0,0.5,0,5.1,0,2.5,0,0.5,0,2,6.1
221,"PAAUILO 221","HAMAKUA MILL","COOP","BI",244,20.03860487,-155.3688913,"USC00517312",NA,NA,NA,NA,0,0,0,1.5,0,0,7.9,25.1,0,0,5.1,0,2.5,0.3,0,0,0,0,0,0.8,1,0,0,0,1.8,0,0,0.5,3,4.3
221.7,"PAAUILO 2.4 SW","PAAUILO 2.4 SW","CoCoRaHS","BI",613,20.019,-155.3988,"US1HIHI0050",NA,NA,NA,NA,0,0,0,0,0.3,0,0.3,3,0.3,0,0,4.6,4.1,3,0.8,0.3,0,0,0,0,0.5,0,0.5,0.8,0.3,0,0.8,0.3,4.8,2.3
222,"KUKAIAU 222","HAMAKUA MILL","COOP","BI",256,20.02693892,-155.3422253,"USC00514815",NA,NA,NA,NA,0,0,0,2.14240661077976,0,0,11.28334148344,35.8496039537146,0,0,7.28418247665117,0,3.57067768463293,0.428481322155951,0,0,0,0,0,1.14261685908254,1.42827107385317,0,0,0,2.57088793293571,0,0,0.714135536926585,4.28481322155951,6.14156561756863
223,"OOKALA 223","LAUPAHOEHOE SUG","COOP","BI",131,20.01527222,-155.2838932,"USC00517131",NA,NA,NA,NA,0,5.05431908691246,0.55541967988049,13.0842008010932,0.999755423784882,4.66552531099612,11.3908621706671,26.8004093471023,8.6090050381476,0,10.91671727174,2.8326403673905,8.31030311405937,0.217427143134916,0,0.55541967988049,0.444335743904392,2.27722068751001,1.66625903964147,1.96835491472767,7.77858707826528,4.94323515093636,12.8301946052393,4.49889940703197,1.3045628588095,0.999755423784882,1.11083935976098,0.362378571891528,4.00715637495478,15.9466503235065
249.1,"MAKENA GOLF CRS 249.1","MAKE GC","COOP","MA",30,20.6420893,-156.4388486,"USC00515842",NA,NA,NA,NA,NA,NA,NA,NA,NA,0,0,0,0,0,0,0,0,14,0,NA,NA,NA,NA,0,3.8,15.2,0,NA,NA,0,17.3,NA,NA,NA
250,"ULUPALAKUA RANCH 250","ULUPALAKUA RANCH","COOP","MA",579,20.648174,-156.398497,"USC00518760",NA,NA,NA,NA,NA,NA,NA,0,0,0,NA,NA,NA,0,0,0,0,NA,NA,NA,0,0,NA,NA,NA,NA,NA,NA,NA,NA,NA,NA,NA,NA
250.2,"Ulupalakua Ranch","NWS","HydroNet-UaNet","MA",581.5584,20.6487999,-156.3981,NA,"ULUH1","8170531A",NA,NA,0,0,0,0,0,0,0,0,0,0,0,0,9.90600000000018,65.0239999999997,0,0,0,0,0.254000000000133,5.07999999999993,0.762000000000171,25.3999999999999,0,0,0,5.58799999999997,9.65200000000004,0.762000000000171,0,4.06399999999985
255,"KepuniGulchRainGage","USGS","USGS","MA",225.552,20.6195,-156.2518889,NA,"KPNH1","F000D4EA",NA,NA,2.286,0,0,0,0,0,0,0,0,0,0,0,0,0,0,0,0,0,0,0,0,0,7.11199999999999,0,5.08000000000001,0,0,5.842,0,0
258.6,"OHE'O 258.6","HALEAKALA TL PK","COOP","MA",24,20.662925,-156.04248,"USC00517000",NA,NA,NA,NA,10.7,12.7,34.3,7.6,6.1,3.8,0,3.3,8.9,2.5,1.3,0,0.8,0,0,0.3,0,0,15.2,0.3,23.6,2,3,0.8,3.8,0,11.4,NA,NA,4.3
267,"KULA HOSPITAL 267","KULA SATORIUM","COOP","MA",916,20.70013977,-156.3555187,"USC00515004",NA,NA,NA,NA,12.7,2.5,0.3,0,0.3,0,0,0,0,0,0,0,0,52.1,13.2,0,0.3,0,0,0,0,0,23.9,0,0,0,7.6,3.8,2.5,0
267.8,"KULA 1","KULA 1","RAWS","MA",1998.5736,20.68305556,-156.3216667,NA,"KLFH1","AA10F12E",NA,NA,0.25,10.41,0,0.25,1.53,0.25,0,0,0,0,0,0,0.76,19.05,0,0,0.25,0,0,0,2.02,0,1.52,0,0,2.28,5.33,0,0,0.5
276,"BIG BOG HN-164","HaleNet","HaleNet","MA",1650,20.72655556,-156.09225,NA,NA,NA,NA,NA,24.2241390985148,4.22961158862967,8.84373332168006,76.5175187397519,15.3804057768348,21.917078231989,24.9931593873566,28.4537506871437,26.3627617417336,4.99863187747111,87.6683129279573,0.769020288841792,80.7007890724014,1.09667592148595,0.128170048140126,4.41297459646451,3.29696980832622,11.7828509030496,8.18381164940741,13.0727039781426,96.5120462496374,3.46059129978718,5.76765216631359,2.30706086652503,0,2.55035681290138,17.4952115711494,20.1579152836837,6.50732311786937,31.9143419869317
277,"HORSHOE PU'U HN-163","HaleNet","HaleNet","MA",1930,20.73630556,-156.1071389,NA,NA,NA,NA,NA,0,18.8935667900665,2.07621613077654,44.8462684247733,3.73718903539777,17.4402154985229,21.1774045339207,32.1813500270364,32.1813500270364,0,26.990809700095,10.5887022669604,24.2917287300855,0,0,2.07621613077654,1.66097290462123,8.51248613618381,6.22864839232962,5.19054032694135,26.3679448608621,18.4783235639112,47.9605926209381,16.81735065929,0,3.73718903539777,4.15243226155308,0,6.85151323156258,47.9605926209381
278,"TREE LINE HN-162","HaleNet","HaleNet","MA",2195,20.73422222,-156.1228889,NA,NA,NA,NA,NA,12.399266439065,10.4073988936237,27.6548503823304,32.9563892899204,7.54621501260332,9.3950021275016,18.110364724248,12.4039438737666,14.6104362497674,2.7808253248212,20.2807105638784,6.41202289635093,16.1338035947779,3.47386715642215,0.0675725609822575,0.228285843846092,0,2.4446195667637,15.6404429435277,1.91394806488062,36.3377621114715,4.37880330706113,18.4331580359359,2.02975970828297,2.89162068871717,0.540580487858785,15.2269659457561,3.3749762455932,3.53013973884355,11.5243051028485
278.1,"Lakes - Subalpine","Lakes - Subalpine","Little HaleNet","MA",2228,20.73492113,-156.1234398,NA,NA,NA,NA,NA,11.4974464734654,9.65045087912997,25.6434655683159,30.5594144364657,6.99736582087757,8.71168747037495,16.7931667615393,11.5017837102994,13.5477941022733,2.57857111800235,18.8056596168781,5.94566544720435,14.960364321226,3.22120682567613,0.0626578924476331,0.211682221941853,0,2.26681818275141,14.5028866383534,1.7747433315593,33.6948541992672,4.06032541426419,17.0924827607045,1.88213179502738,2.6813081445968,0.501263139581738,14.1194825335016,22.9796983868787,3.38855910941962,10.6861225795125
278.11,"Puu Alaea - Cloud forest","Puu Alaea - Cloud forest","Little HaleNet","MA",1993,20.745673,-156.1425145,NA,NA,NA,NA,NA,4.22747855474095,0.738131176224627,1.54336518665146,26.9842553340676,2.8842130646224,6.45817355590067,17.9844715631067,9.82403036278477,7.78347111280425,0.87233684462905,19.1573683472646,6.36745008713241,15.4171199104992,3.44971876822756,0.0671028342021513,0,0,2.42762593412661,4.04564028818639,1.67394443683451,18.2515132483531,2.83703812112742,16.0380317165867,1.41111947573931,0,0.536822673617931,6.50655730546936,3.35151529189051,1.87646174551497,8.19484325729752
278.12,"Puu Alaea - Forest line","Puu Alaea - Forest line","Little HaleNet","MA",2033,20.74567736,-156.1424321,NA,NA,NA,NA,NA,4.80601662258836,0.839145759499575,1.75457749713544,30.6770993641727,3.27892282649585,7.34198625949532,20.4456789458639,11.1684666434102,8.8486531782929,0.991717715772163,21.7790887711892,7.23884712033393,17.5269805873297,3.92181900598018,0.0762859781362256,0,0,2.75985092337246,4.59929346116538,1.90302675330991,20.7492657675592,3.22529190686592,18.2328652943901,1.60423372207429,0,0.610287825090623,7.3969914124912,3.81017620671807,2.13325892108488,9.31632234299801
278.2,"Lakes - Forest line","Lakes - Forest line","Little HaleNet","MA",2182,20.735063,-156.1222481,NA,NA,NA,NA,NA,5.32028468200393,2.29720444770497,1.56987556354322,19.8006305298233,3.31817040719739,5.06646525085133,7.60725030692025,5.39454718606885,7.14739261762917,1.00276360786802,15.7582287288027,0.251544137199425,8.5525006647798,0.679232260556594,0.0628860342997716,0,0,0.624309755092527,1.92443882981192,1.19142171076756,25.1084010950854,1.86269044248856,2.36350342293436,0.439064593122443,0.061748387323362,0.503088274398848,15.1083839944326,4.36903063867056,2.12447340247651,8.61570214967076
278.3,"Lakes - Cloud forest","Lakes - Cloud forest","Little HaleNet","MA",2143,20.73575551,-156.1214124,NA,NA,NA,NA,NA,13.3243921332044,11.183908711601,29.7182154033184,35.4153091516721,8.10924811105062,10.0959756816518,19.4616030268505,13.3294185575053,15.7005402525867,2.98830638602339,21.7938812446001,6.89043241855748,17.3375680531901,3.73305698674212,0.072614239269494,0.245318553062256,0,2.62701587099053,16.8073971102027,2.05675026537944,39.0489706786926,4.70551162233552,19.8084803751229,2.18120276890997,3.10736833878858,0.580913914156731,16.3630700459006,5.69450518370827,2.88618975703034,12.3841487726448
278.4,"Lakes - Alpine","Lakes - Alpine","Little HaleNet","MA",2304,20.73450891,-156.1273482,NA,NA,NA,NA,NA,11.2961060063058,9.48145454652791,25.1944034788311,30.0242654542149,6.87482966413067,8.55913053270354,16.4990889375061,11.3003672905106,13.3105484495253,2.53341581202195,18.4763395107795,5.84154640986186,14.6983820847126,3.16479784055098,0.0615606427786957,0.207975294707749,0,2.22712221783137,14.2489156389957,1.74366446093451,33.1047981636937,3.98922198989825,16.7931633881902,1.84917236392752,2.63435373296482,0.492485142230227,13.8722256129405,4.61205785354428,2.58222009346585,10.4989898177077
278.5,"Frisbee - Alpine","Frisbee - Alpine","Little HaleNet","MA",2320,20.73857613,-156.1365744,NA,NA,NA,NA,NA,7.6437977154765,6.41586760620756,17.0484345354742,20.3166836040379,4.65202851775976,5.79175358090855,11.1645285780384,7.64668122192121,9.0069214801476,1.71430030715676,12.5024855170468,3.95283109751502,9.94603444209965,2.14154103104595,0.0416565762017795,0.140731777983954,0,1.50703894875306,9.64189152868894,1.1798949492514,22.4012044888472,2.69940862062473,11.3635215419026,1.25128955792562,1.78260252113008,0.333252609614683,9.3869946324491,3.12086636446998,1.74732496669856,7.10440875276895
278.6,"Frisbee - Subalpine","Frisbee - Subalpine","Little HaleNet","MA",2191,20.74071537,-156.1350318,NA,NA,NA,NA,NA,4.12800940666553,1.78240115632087,1.21806660375171,25.2748302332397,2.72006961148406,5.84586229538626,15.8081652874857,7.71839074259349,6.56998873711305,0.778044381711903,15.0320679330348,4.63003954811767,11.2104333645167,3.03545132537107,0.0487932801820617,0,0,1.95687077466669,3.99578718992445,1.36092682337924,20.5059369766746,3.06905137321941,12.7638676697744,1.07399463075743,0.0479105797814668,0.390346241457017,12.013598357433,3.82643390224993,1.93938085546454,8.59389551866462
278.7,"Frisbee - Forest line","Frisbee - Forest line","Little HaleNet","MA",2135,20.74195056,-156.1342138,NA,NA,NA,NA,NA,5.40500608026658,2.33378564298632,1.59487461167529,33.0935803750302,3.56152114505365,7.65427549654903,20.6984095914979,10.1060692415644,8.60240992039392,1.01873183890514,19.6822270913048,6.06233887670944,14.678372680013,3.97446596015308,0.0638874455165607,0,0,2.56222730943656,5.2318810180325,1.78192853516399,26.8494334972986,4.01846015808885,16.7123607449759,1.40623407980716,0.0627316823963107,0.511099564133171,15.7299961727212,5.01013841538341,2.5393268965939,11.252410776137
278.71,"Frisbee - Cloud forest","Frisbee - Cloud forest","Little HaleNet","MA",2087,20.73622225,-156.1341472,NA,NA,NA,NA,NA,5.28677648657669,2.28273620396035,1.5599881796298,32.3696883935265,3.48361610819625,7.48684517944884,20.2456507010012,9.88500816550118,8.41424002483075,0.996448006175987,19.2516962690708,5.92973072575461,14.3572966234434,3.88752813092125,0.0624899657333491,0,0,2.50618091665972,5.11743837767097,1.74295046861453,26.2621265514695,3.93055999577739,16.346793048819,1.37547398788136,0.0613594838805168,0.499919725867464,15.3859168084011,4.90054619284299,2.48378142952658,11.0062745212766
278.8,"Puu Alaea - Alpine","Puu Alaea - Alpine","Little HaleNet","MA",2320,20.74402239,-156.1421477,NA,NA,NA,NA,NA,6.82979342672044,5.73262820847077,15.2329104537269,18.1531167224206,4.15662409893209,5.17497741416981,9.97559416575502,6.83236986242622,8.04775524024505,1.53174081851199,11.17106922245,3.53188570023026,8.88686006395089,1.91348376832051,0.0372204787348767,0.125744951394959,0,1.34655116332624,8.61510597676592,1.05424542466657,20.0156525412462,2.41194285084845,10.1533959453353,1.11803706949767,1.59276938433615,0.297763829879413,8.38735359356175,7.20721489163455,3.9059408631952,6.34784514275594
278.9,"Puu Alaea - Subalpine","Puu Alaea - Subalpine","Little HaleNet","MA",2075,20.74489428,-156.1421289,NA,NA,NA,NA,NA,4.23401053010942,1.82817055904864,1.24934473703762,25.9238501689141,2.78991694133687,5.99597531833836,16.2140953896203,7.91658750265242,6.73869624684478,0.798023400756166,15.4180690128807,4.74893205667099,11.4983005697156,3.11339718715352,0.0500462188278553,0,0,2.00712029692172,4.0983930440901,1.39587339398787,21.0324988477031,3.14786003410642,13.091624750536,1.10157321070184,0.049140851997776,0.40036975062338,12.3220896414973,3.92469101662747,1.98918126268572,8.81457393530459
279,"POHAKAU PALAHA HN-161","HaleNet","HaleNet","MA",2460,20.73061111,-156.1413056,NA,NA,NA,NA,NA,3.12949319783843,1.35125958906941,0.923430829590642,19.1611504478952,2.06211723574109,4.43181797487452,11.9843587705033,5.85140413880905,4.98078687259548,0.589844731519307,11.3959901035878,3.51008823966353,8.49876332704744,2.30121187703196,0.0369907680402625,0,0,1.48352708898379,3.02925395729159,1.0317348670873,15.5457955546772,2.32668447431303,9.67644041367008,0.814208147404714,0.0363215823317876,0.295926144322497,9.10765229372834,2.90086520872111,1.47026777249931,6.51513475845481
280.1,"OheoGulchRGatdamnearKipahulu","OheoGulchRGatdamnearKipahulu","USGS","MA",128.016,20.66836111,-156.0522222,NA,NA,NA,NA,NA,10.3016114871481,8.64671958787033,22.9763208794682,15.9769011010605,6.10216714345493,5.60246129554175,3.64916003704122,6.24074796494833,10.9601285265255,2.31037717035224,13.6220140761984,0.224563694587167,8.14094006810518,0,0.0561409236467161,0.189665419553283,0,0.336845541880748,10.1149829035208,1.08792019790185,29.0117181735352,1.76970444317622,2.73876805023473,0.842619994022788,2.40242864767492,0.449127389174332,12.3161099948824,4.60355573903665,2.47020064045853,7.37823434294705
302,"MAALAEA BAY","NWS","STATE","MA",302,20.7903,-156.514,NA,"P36","15DF05C6",NA,NA,0,0,0,0,0,0,0,0,0,0,0,0,0,0,0,0,0,0,0,0,0,0,0,0,0,0,2.79399999999998,0,0,0
307.2,"POHAKEA BRIDGE 307.2","WAILUKU SUGAR","COOP","MA",50,20.81346495,-156.5071787,"USC00518060",NA,NA,NA,NA,NA,NA,NA,0,0,0,NA,NA,NA,0,0.460712136407948,0.422217987007164,0,NA,NA,NA,0,0,0,0,NA,NA,NA,0,0,0,0.414640922767153,NA,NA,0.138213640922384
311.2,"Kealia Pond NWR","Kealia Pond NWR","RAWS","MA",3.6576,20.7975,-156.4772222,NA,"KPDH1","32B2C438",NA,NA,0,0,0,0,0,0,0,0,0,0,0,0,0,0,0,0,0,0,0,0,0,0,0,0,0,0,0,0,0,0
311.5,"Kihei 2","NWS","HydroNet-UaNet","MA",54.5592,20.7061005,-156.437,NA,"KHIH1","93202508",NA,NA,0,0,0,0,0,0,0,0,0,0,0,0,0,0,0,0,0,0,0,0,0,2.54000000000002,0,0,0,0,34.29,0,0,0
324.6,"KULA AG HN-119","HaleNet","HaleNet","MA",965,20.75788889,-156.3200278,NA,NA,NA,NA,NA,3.23047443337423,0,0,0.807618608343499,0,0,0,0,0,0,0,0,0,10.7682481112474,0,0,0,0,0,0,0.538412405562533,34.4583939559916,0.269206202781327,0,0,2.42285582503049,0,0,0,0.269206202781327
324.7,"Kula Branch Stn","NWS","HydroNet-UaNet","MA",944.88,20.7577991,-156.3217,"USC00515000","KBSH1","93220610",NA,NA,3.048,0,0,0.761999999999944,0,0,0,0,0,0,0,0,0,10.16,0,0,0,0,0,0,0.508000000000152,32.5119999999998,0.254000000000133,0,0,2.28599999999983,0,0,0,0.254000000000133
328.4,"PU'U PAHU HN-106","HaleNet","HaleNet","MA",960,20.75763889,-156.2775,NA,NA,NA,NA,NA,0.190748385015551,7.94276275204756,0,0.190748385015551,1.16738011629518,0.190748385015551,0,0,0,0,0,0,0.579875090447277,14.535026938185,0,0,0.190748385015551,0,0,0,1.54124695092566,0,1.15975018089455,0,0,1.73962527134183,4.06675556853156,0,0,0.381496770031103
338.4,"HALEAKALA SUMMIT 338","SMITHSONIAN INST 1","COOP","MA",3037,20.71667,-156.26667,"USC00511008",NA,NA,NA,NA,0,0,0,0,0,0,0.3,0,0,0,0.3,0,0,0,0,0,0,0,0,NA,NA,0,0,0,0,0,0,0,0.8,0
348.5,"WestWailuaikiRainGagenrKeanae","USGS","USGS","MA",472.44,20.81436111,-156.1429722,NA,"WWKH1","DD5E710A",NA,NA,16.0020000000002,2.7940000000001,5.8420000000001,50.5459999999998,10.1600000000001,14.4779999999998,16.5100000000002,18.7959999999998,24.1300000000001,3.30199999999991,57.912,1.01600000000008,34.5440000000001,0,0.253999999999678,0,0,1.52400000000011,2.28600000000006,4.06399999999985,63.7540000000001,2.2859999999996,3.8100000000004,1.52399999999989,0,2.03200000000015,23.114,10.4140000000002,5.58799999999974,21.0819999999999
353,"Hana AP","NWS","HydroNet-UaNet","MA",19,20.7946,-156.0157,"USC00511125","HNAH1","B150314C",NA,NA,9.14400000000001,5.08000000000001,0.253999999999991,9.14400000000001,1.27000000000001,6.34999999999999,0,1.524,0.253999999999991,1.524,0.762,0.254000000000019,0.253999999999991,0.253999999999991,1.26999999999998,0,0,3.30200000000002,3.30199999999999,3.048,2.79400000000001,1.01599999999999,4.31799999999998,0,4.31800000000001,2.28600000000003,4.31799999999998,4.82599999999999,3.81,5.84200000000001
355,"HANA AIRPORT 355","HAWN AIRLINES","COOP","MA",24,20.792,-156.017,"USC00511125",NA,NA,NA,NA,0.5,5.1,0.3,9.4,1.3,6.1,0,1.5,0.3,1.5,0.8,0.3,0.3,0.3,1.3,0,0,3.3,3.3,4.8,0.8,1.8,2,0,4.3,2.5,3.8,5.3,3.6,11.4
361.1,"Lahainaluna","NWS","HydroNet-UaNet","MA",238.0488,20.8909,-156.6556,NA,"LAHH1","81700366",NA,NA,0.508000000000003,0,0,0,0,0,3.048,0,0,0,0,0,0,0,0,0,0,0,0,0,0,0,0,0,0,0,8.636,1.016,0,0
364,"WAHIKULI 364","PIONEER MILL","COOP","MA",177,20.89679257,-156.6621736,"USC00518955",NA,NA,NA,NA,0,0,0,0,0,0,0,0.50297736113167,0,0,0,0,0,0,0,0,0,0,0,0,0.889883023540647,0,0,0,0,0,0,0.50297736113167,0.193452831204489,0
380,"PuuKukuiRainGageatalt","BALDWIN PKRS","USGS","MA",1759,20.89083333,-156.6008333,"USC00514887","PKKH1","DD73556E",NA,NA,5.58799999999997,6.60400000000004,0.507999999999811,29.972,3.30200000000013,6.09599999999978,14.4780000000003,3.04799999999977,4.82600000000002,0.761999999999944,5.8420000000001,0,0,2.79399999999987,0,0,0,1.0160000000003,5.58799999999997,0.761999999999944,38.3539999999998,5.33400000000029,5.84199999999964,0.254000000000133,0.254000000000133,0,38.6079999999999,7.36600000000021,3.04799999999955,13.97
386,"WAILUKU 386","WAILUKU SUGAR","COOP","MA",55,20.89345755,-156.4971783,"USC00519484",NA,NA,NA,NA,NA,NA,NA,0,0.719474206055749,0,NA,NA,NA,0,1.36574269654359,2.9029341159977,0,NA,NA,NA,0,0,0,0,NA,NA,NA,0,0,0,2.46026873502906,NA,NA,0.313792914822309
386.6,"Wailuku","NWS","HydroNet-UaNet","MA",146.9136,20.8831005,-156.5124,NA,"WUKH1","9321D776",NA,NA,1.77800000000002,0,0,0,0,0,0,0,0,0,0.762000000000171,0.253999999999678,0,0,0,0,0,0,0,0,11.9380000000001,0,0,0,0,0,0,0,0.761999999999944,0
390,"WAIKAPU 390","WAILUKU SUGAR","COOP","MA",130,20.8491,-156.5092,"USC00519376",NA,NA,NA,NA,NA,NA,NA,0,0,0,NA,NA,NA,0,0,0.3,0,NA,NA,NA,0,0,0,0,NA,NA,NA,0,0,0,0,NA,NA,0.270357275445026
390.4,"Waikapu Country Club","NWS","HydroNet-UaNet","MA",145.9992,20.8346996,-156.5135,NA,"WCCH1","9320E016",NA,NA,0.761999999999944,0,0,0,0,0,0,0,0,0,0,0,0,1.01600000000008,0,0,0,0,0,0,1.01599999999985,0,0,0,0,0,0,0,1.01600000000008,0
396,"PUUNENE 396","HC&S","COOP","MA",18,20.8717927,-156.4538466,"USC00518543",NA,NA,NA,NA,NA,NA,NA,0,0,0,NA,NA,NA,0,0,0.159579630516529,0,NA,NA,NA,0,0,0,0,NA,NA,NA,0,0,0,0,NA,NA,NA
398,"KAHULUI AIRPORT","NOAA-NWS","NWS","MA",12,20.8887,-156.41,"USW00022516","HOG",NA,NA,NA,0,0,0,0,0,0,0.3,0,0,0,0.3,0,0,0,0,0,0,0,0,0,4.1,0,0,0,0,0,0,0,0.8,0
400,"SPRECKELSVILLE 400","HC&S","COOP","MA",20,20.897526,-156.41427,"USC00518688",NA,NA,NA,NA,0.296322952087,NA,NA,NA,NA,NA,NA,NA,NA,NA,NA,NA,NA,0,0.555605535163124,NA,NA,NA,NA,NA,NA,NA,NA,NA,NA,NA,NA,NA,NA,NA
406,"PAIA 406","HC&S","COOP","MA",50,20.9051221,-156.3738494,"USC00517566",NA,NA,NA,NA,1.59271827045469,0.402601819818309,0,0,0.705513365433176,0,0.142987303941117,4.47258413298407,3.78304398621373,0.302791005406643,0.549682302077812,0.412261726558359,0,0,0.76440688841916,3.35341729827835,0,0,0,0,3.92848339320203,1.6925596718654,0.102248313830895,0,0,0,0.494714071870031,2.95208907754793,0.238844182266741,0.422188740164632
423,"HALIIMAILE 423","MAUI PINE","COOP","MA",326,20.86679262,-156.3405177,"USC00511075",NA,NA,NA,NA,1.15852660152292,0.160368700232415,0,0,0,0.260599137877674,0.100230437645259,3.27165048352979,3.61443686830574,0.54617009913149,0,0.260599137877674,0,0,0.55602157082567,0.111204314165134,3.30760444229356,0,0,0.260599137877674,4.05651346539721,0.597236150709469,0,0,0,0,0,3.57614512748696,0.525926702279284,0.671372360152891
426.6,"Pukalani","NWS","HydroNet-UaNet","MA",495.9096,20.8355007,-156.3307,NA,"PUKH1","15D2B52E",NA,NA,14.224,0,0,2.79399999999998,0,0,1.27000000000004,0,0,0,0.254000000000019,0,0,0,1.77799999999996,0,0,0,0,0,0.508000000000038,12.192,0.507999999999981,0,0,0,1.01599999999996,0,0,0
446,"KAILUA 446","EMI","COOP","MA",213,20.89012208,-156.2121892,"USC00512679",NA,NA,NA,NA,10.2818552272083,6.74404563294854,17.9204789647361,12.4612518081202,4.98411812022292,4.3696634602288,9.36267979752679,10.0357580175559,9.89664053223393,2.02669544110263,18.4892914040629,0.175149406478254,6.34956075034731,0,0.0437873516195044,0.147930348782678,0,0.262724109717379,7.88922383623173,0.848527974695611,40.3796628126379,1.60499545331986,2.3608207256463,0.657205039804482,1.87378441791392,0.350298812956505,13.8754345581166,12.130614592697,6.50088928278147,10.6982383812149
457.1,"PUUKOLII 457.1","COOP","COOP","MA",128,20.93194,-156.67611,"USC00518407",NA,NA,NA,NA,0,0,0,0,0,0,0,1.3,0,0,0,0,0,0,0,0,0,0,0,0,2.3,0,0,0,0,0,0,1.3,0.5,0
462.4,"KAPALUA W.MAUI AIRPORT 462.4","KAPALUA W.MAUI AIRPORT 462.4","NWS","MA",73,20.9625,-156.6753,"USC00513317",NA,NA,NA,NA,0.8,0,0,0,0,0,0,0.8,5.1,0.5,0,0,0,0,1.5,0.3,0,0,0,0,3,0.8,0,0,0,0,0,2,0,1
465.1,"Mahinahina","NWS","HydroNet-UaNet","MA",223.1136,20.9552002,-156.6562,NA,"MABH1","190524C8",NA,NA,0,0,0,0,0,0,0,0,0,0,0,0,0,0,0,0,0,0,0,0,0,0,0,0,0,0,0,0,0,0
466,"MAHINAHINA 466","PIONEER MILL","COOP","MA",257,20.94678808,-156.6555055,"USC00515715",NA,NA,NA,NA,4.3,0.8,0,0,0,1.3,0.5,11.4,8.6,1.8,0,1.3,0,0,0,0,16.5,0,0,1.3,8.6,1.5,0,0,0,0,0,10.7,1.3,1.5
474,"FIELD 46 474","MAUI PINE","COOP","MA",319,20.9951177,-156.6391163,"USC00510541",NA,NA,NA,NA,2.78275171342895,0.385201578250766,0,0,0,0.625952564657495,0.240750986406729,6.2014157204045,8.68178630955635,1.31188682002115,0,0.625952564657495,0,0,1.33554980687077,0.267109961374153,7.94478255142206,0,0,0.625952564657495,6.81201657993727,1.43454618955126,0,0,0,0,0,6.93280418493169,0.625952564657495,1.61261949713403
482,"WAIHEE VALLEY 482","WAILUKU SUGAR","COOP","MA",91,20.94012106,-156.5255102,"USC00519315",NA,NA,NA,NA,0.646948136146152,0.405641434182217,0,0,1.8,0,2.63597647827684,3.77378417509223,3.49590981751642,0,0.8,5.3,0,0,1.21302775527404,5.32149607683433,0,0,0,0,5.59005869716936,2.2485723825671,0.162256573672887,0,0,0,3.8,2.34752492189337,0,0.669966044972443
482.4,"KAHAKULOA MAUKA 482","NWS","COOP","MA",334,20.9539,-156.5342,"USC00512450",NA,NA,NA,NA,0,0,0,0,0,0,5.8,0,0,0,0.605384958624362,0,0,0,0,0,0,0,0,0,NA,0,0,0,0,1.8,2.87557855346572,NA,NA,NA
482.5,"Kahakuloa","Kahakuloa","HydroNet-UaNet","MA",335.28,20.9540997,-156.5342,NA,"KHKH1","781001B6",NA,NA,17.018,0,0,0,0.762,0,5.58799999999999,0.253999999999991,0,0,5.08000000000001,2.032,0,0,0,0,0,0,0,0,11.684,0,0,0,0,1.77800000000002,0.253999999999991,1.26999999999998,2.03200000000001,6.096
484,"WAIEHU CAMP 484","WAILUKU SUGAR","COOP","MA",98,20.91623388,-156.5088444,"USC00519275",NA,NA,NA,NA,0.98889527588936,0.465033681475619,0,0,0,0,0.0930067362951238,4.32632517330378,4.00776566581247,0,2,1.5,0,0,1.85417864229255,6.10064629259913,0,0,0,0,4.27235378596577,2.57779853095545,0.186013472590248,0,0,0,1.8,1.79415951263244,0,0.3
485,"HAMAKUAPOKO 485","HC&S","COOP","MA",98,20.91345401,-156.3455169,"USC00511086",NA,NA,NA,NA,2.42148028032446,0.582947437011075,0,0,1.60893492615057,0,0.116589487402215,5.42330646556869,5.02397313590898,0.690519907619151,0,0,0,0,1.16216172112018,7.64752374300491,0,0,0,0,5.35565011469795,3.23142410240704,0.23317897480443,0,0,0,0,2.24908588590686,0,0.774774480746785
486.7,"HAIKU 3.2 SE","HAIKU 3.2 SE","CoCoRaHS","MA",416,20.92011989,-156.3071849,"US1HIMI0001",NA,NA,NA,NA,NA,2.5,0,0,6.9,0,0.5,20.6,4.6,1.3,0,0,0,NA,NA,31.8,0,0,0,0,13,11.2,1,0,0,0,0,3,0,0
489,"Haiku","NWS","HydroNet-UaNet","MA",99.3648,20.9288998,-156.3225,"USC00510822","AIKH1","50A30568",NA,NA,2.53999999999999,0,0,0,0.254000000000005,0,7.366,5.84200000000001,1.52399999999999,0.254000000000005,8.89,0,0,0,0,0,0,0,0,0,20.066,0.253999999999991,0.254000000000005,0,0,0,4.82600000000001,7.11199999999999,3.81,5.58799999999999
490.7,"KUIAHA 490.7","COOP","COOP","MA",341,20.89306,-156.30306,"USC00514806",NA,NA,NA,NA,4.51539539640872,0.688949057433623,0.644887691336305,5.5796804598227,1.12154381101965,2.21655225848319,2.06033651128395,8.20097496539257,11.2400397093231,1.66045979474516,6.39279972281196,0.73050670888219,3.81324895746679,0,1.34737232529515,0.263866746003938,7.84831800644122,0.168231571652958,0.252347357479426,1.06696985218806,13.7669933502722,1.6694754686209,0.42057892913241,0.168231571652934,0,0.224308762203945,2.55151217006969,7.99820935958935,1.23520142384099,3.92024268300989
492.2,"HALEHAKU 492.2","COOP","COOP","MA",210,20.91,-156.282,"USC00511016",NA,NA,NA,NA,5.15286834091645,0.495824466018578,1.03672388349337,8.96991533979029,2.03431269816671,2.56927223300523,9.63799640225906,8.65578312586084,5.67000822784637,0.81728900884839,18.3731013291292,0.180299805824945,6.13019339804767,0,0.0450749514561756,0,0,0.270449708737416,0.405674563106106,0.721199223299698,29.5876693689871,0.636989203023391,0.907438911760943,0.270449708737377,0,0.360599611649889,8.49679874094733,8.32488292739209,4.46136853079771,8.83014304904956
493,"HONOKOHUA 493","MAUI LAND&PINE CO","COOP","MA",38,21.00011804,-156.655505,"USC00511887",NA,NA,NA,NA,1.58186878909171,0.218969716630924,0,0,0,0.355825789525251,0.136856072894327,3.52522502419115,4.93520378781056,0.745748463794886,0,0.355825789525251,0,0,0.759199804125922,0.151839960825185,4.5162504055128,0,0,0.355825789525251,3.87232406203427,0.815474780883474,0,0,0,0,0,3.94098636543983,0.355825789525251,0.916701421433597
494,"HONOLUA FIELD 49 494","MAUI LAND&PINE CO","COOP","MA",61,21.010978,-156.633839,"USC00511914",NA,NA,NA,NA,1.87980696356236,0.260211719815545,0,0,0,0.42284404470026,0.162632324884715,4.18918597692532,5.86472816892261,0.886206975556103,0,0.42284404470026,0,0,0.902191817913383,0.180438363582676,5.36686672119561,0,0,0.42284404470026,4.60165962384387,0.969065944207951,0,0,0,0,0,4.68325417641742,0.42284404470026,1.0893581865964
497,"NAKALELE FIELD 60 497","MAUI LAND&PINE CO","COOP","MA",104,21.02511528,-156.6005068,"USC00516645",NA,NA,NA,NA,2.41280805337671,0.448894521558457,0,0,0,0.729453597532492,0.280559075974036,6.39674693220801,4.82561610675341,1.01001267350653,0,0.729453597532492,0,0,0,0,9.25844950714317,0,0,0.729453597532492,4.82561610675341,0.841677227922107,0,0,0,0,0,6.00396422584436,0.729453597532492,0.841677227922107
499.11,"LUA MAKIKA","RAWS","RAWS","KO",335.28,20.5625,-156.5630556,"USR0000HLUA","HLUA",NA,NA,NA,2.16405623576718,0,0,0,0,0,0,0,0,0,2.59005155776859,0.851990644002825,0,0,0,0,0,0,0,0,0,0,0,0,0,0,0,3.44204220177141,0,0
499.9,"KANELOA","RAWS","RAWS","KO",248.412,20.52222222,-156.5658333,"USR0000HKAN","KAOH1","32793370",NA,NA,1.27,0,0,0,0,0,0,0,0,0,1.52,0.5,0,0,0,0,0,0,0,0,0,0,0,0,0,0,0,2.02,0,0
524,"MOLOKAI KAUNAKAKAI MOLOKAI AIRPORT","ALOHA AIRLINES","NWS","MO",141,21.15514996,-157.0924625,"USW00022534","HMK",NA,NA,NA,0.3,0,0.5,0,0,0,0,0,0,0,0,0,0,0,2.3,0,0,0,0,0.8,0,0,0,0,0,0,2.3,0.3,0.3,0.5
536,"KAUNAKAKAI 536","MOLOKAI RANCH","COOP","MO",3,21.08876308,-157.0216311,"USC00513541",NA,NA,NA,NA,0,0,0,0,0,0,0,0,0,0,0,0,0,0,0,0,0,0,0,0,0,2.5,0,0,0,0,0,10.2,0,0
536.5,"Kaunakakai Mauka","MOLOKAI GEN HOSP","HydroNet-UaNet","MO",28.3464,21.0946007,-157.0174,NA,"KACH1","50A0F2E2",NA,NA,0,0,0,0,0,0,0,0,0,0,0,0,0,0,0,0,0,0,0,0.254000000000019,0,0,0,0,0,0,10.668,2.28600000000006,0,0
536.6,"KAUNAKAKAI 3.5 ESE","KAUNAKAKAI 3.5 ESE","CoCoRaHS","MO",13,21.068,-156.963,"US1HIMI0002",NA,NA,NA,NA,0,0,0,0,0,0,0,0,0,0,0,0,0,0,0,0,0,0,0,0,0,0,0,0,0,0,0,0,1.3,0
538,"MOLOKAI 1","RAWS","RAWS","MO",833.0184,21.115,-156.9475,"USR0000HMLK","MLKH1","487016AC",NA,NA,0.25,0,0,0,0,0,1.53,0.25,0,0,0,0,1.02,2.29,0,0,0,0,0,0.25,0.25,0,0,0,0,0.76,0.25,2.53,0.25,0.51
541.2,"Puu ALII WEST","Puu ALII WEST","RAWS","MO",1159.764,21.14083333,-156.9022222,NA,"PAFH1","32D6062E",NA,NA,16.48,0,0,4.3,0.5,0,10.68,12.93,1.51,0.25,0,3.3,3.55,0.25,0,0,0,1,2.78,4.31,2.03,0.75,9.67,0.25,0,0,7.37,12.44,1.01,7.35
542.11,"Kamalo","NWS","HydroNet-UaNet","MO",8.8392,21.052,-156.871,"USC00513045","KMLH1",NA,NA,NA,0,0,0,0,0,0.8,0.8,NA,NA,0,0,0,0,0,0,0,0,0.8,0,NA,NA,1.3,0,0,0,0,NA,NA,3.8,NA
550.3,"MAUNALOA 3.2 NNW","MAUNALOA 3.2 NNW","CoCoRaHS","MO",93,21.1804,-157.2319,"US1HIMI0006",NA,NA,NA,NA,3.3,0,0,NA,0,NA,0,NA,0,0,0,0,0.5,NA,NA,1.3,0,0,0,NA,1.3,0,0,0,NA,3.6,4.8,NA,0.3,3.6
563,"KALAUPAPA 563","CIVIL AIR PATROL","COOP","MO",9,21.19014673,-156.9824624,"USC00512896",NA,NA,NA,NA,NA,NA,NA,NA,NA,NA,NA,NA,NA,NA,0,0,9.4,NA,NA,NA,0,0,0,0,NA,NA,NA,0.3,0,0,0,NA,NA,NA
672.1,"Lanai City","NWS","HydroNet-UaNet","LA",498.0432,20.8262997,-156.9182,"USC00515286","LANH1",NA,NA,NA,NA,NA,0,0.3,0,0,0,0,0,0,0,0,0,3.3,0.3,0,0,0,0,0,0,NA,NA,0,0.8,0,3.6,0.3,0,0
679,"LANAI 1","RAWS","RAWS","LA",387.096,20.87333333,-157.0063889,"USR0000HLAN","LNIH1","48702336",NA,NA,2.78,0,0,0,0,0,0,0,0,0,0,0,0,0,61.21,0,0,0,0,0,0,0,1.27,0,0,0,0,1.01,0,0
702.2,"HONOLULU OBSERV 702.2","USC&GEODETIC SURVEY","COOP","OA",2,21.313926,-157.999529,"USC00511918",NA,NA,NA,NA,NA,0,0,0,0,0,0,0,0,0,0,0,0,0,0,0,0,0,0,NA,NA,NA,NA,9.4,NA,NA,NA,NA,0,0.5
702.7,"Kapolei-Kalaeloa AP","NWS","NWS","OA",15,21.31667,-158.06667,"USW00022551","HJR",NA,NA,NA,0,0,0,0,0,0,0,0,0,0,0,0,10.2,0,0,0,1.8,0,0,0,0.152422025679116,0,13.9191793850169,0,31.8,0,0,3.87761633327671,0.152422025679116,0.152422025679116
702.8,"PTWC","NWS","HydroNet-UaNet","OA",1.524,21.3150005,-157.9992,NA,"PTWH1",NA,NA,NA,0,0,0,0,0,0,0,0,0,0,0,0.110169895207607,14.745020296257,4.0278113687901,0,0,3.27189536808408,0,0,1.0089022530684,1.17415709587981,0,26.1113891636698,0,54.1443753833234,0,0,10.3351045851533,0.398078439673349,0.16525484281141
703,"HONOLULU INTERNATIONAL AIRPORT","USWB","NWS","OA",2.1,21.324,-157.9294,"USW00022521",NA,NA,NA,NA,0.8,0,0,0,0,0.3,0,0,0,0,0,0,0,0,0,0,0,0,0,1.3,1.3,0,14.2,0,28.2,0,0,7.9,0.3,0
703.1,"HONOLULU FIRE STATION 703.1, HI US","COOP","COOP","OA",1,21.3287,-157.9298,"USC00511925",NA,NA,NA,NA,0.3,0,0,0,0,0,0,0,0,0,0,0,0,0,3.8,0,0.3,0,0,0,3.6,0.3,0.3,16.5,20.3,3.8,0.3,8.4,0,0.5
705,"BERETANIA PUMP STN 705","BWS","COOP","OA",6,21.305169,-157.8522571,"USC00510211",NA,NA,NA,NA,0,0.3,0,0,0,0,1,3.6,0,0,0,0,0.5,0,0.8,0,0,0.3,0.8,1,1.5,0,16,0,35.1,0,0,6.1,0.5,3.8
705.12,"Aloha Tower","NWS","HydroNet-UaNet","OA",38.1,21.3034,-157.8627,NA,"ALOH1",NA,NA,NA,0.395052097495222,0.728290295761577,0,0.551597700296865,0,0.114212591414491,0.328498626408833,1.01711574498264,0,0,0,0.0919329500494913,0.21189911353805,0,0.461287207454359,0,0,0.73625299222259,0.33903858166088,1.16618007127029,2.29771370728118,0,11.989639347321,0,26.5365709097099,0.137899425074227,0.137899425074227,7.02936811526151,0.255478667106524,2.17681757585326
707.2,"EWA KALAELOA AIRPORT","LYDECKER RC","STATE","OA",14,21.30489073,-157.8305905,"USW00022551",NA,NA,NA,NA,0,0,0,0,0,0,0,0,0,0,0,0,10.2,0,0,0,1.8,0,0,0,0.152422025679116,0,13.9191793850169,0,31.8,0,0,3.87761633327671,0.152422025679116,0.152422025679116
707.5,"HONOLULU 2.0 SW","CoCoRaHS","CoCoRaHS","OA",12,21.3004,-157.8293,"US1HIHN0023",NA,NA,NA,NA,0.5,0,1,0.3,0,0,0.3,1.5,0.3,0,0,0,0.5,0.3,0,4.3,0.3,0,0,2,6.4,1,0.5,21.1,19.8,9.4,27.9,5.1,3,1.3
709,"PUNCHBOWL CRATER 709","T MEM CEMETERY","COOP","OA",108,21.31016855,-157.846146,"USC00518316",NA,NA,NA,NA,0.576206251303896,0,0.285639505620931,0.255510892110053,0,0,0.954700533444017,1.36623945947829,2.14790518595218,0.101891424254264,0,0.101047521134621,0.814796811016822,0.853653012309396,5.39593762858874,1.66163637266343,0.0856918516862793,0,0,2.4235503212182,5.68338491983118,1.98323786068256,8.09309023730101,8.26860490219545,20.9429591452116,3.95905402225261,22.36999683476,7.19651623049176,1.11964207181281,1.9968578701603
711.6,"ManoaRGatKanewaiFld,Honolulu","USGS","USGS","OA",11.5824,21.29322222,-157.8127222,NA,NA,NA,NA,NA,1.00828180045611,1.54665552056409,0.0357648196605436,1.31245960058886,0,0.572237114568698,0.462438406161178,0.54376295461455,0.424014946507549,0.0902099630091421,0,0.686444681252003,1.26602054818652,7.33178803041144,2.74952247183796,0.395540786553401,0,1.43133366172089,1.36466886493111,1.47352128966994,5.5073137060251,0.154980885195689,10.0335805741165,1.98461918620113,20.9017318406593,6.23424619634487,13.5051448431059,9.36540432082122,0.486328639061373,4.32983317205877
711.7,"H-1RainGageatKapiolaniAve","USGS","USGS","OA",6.096,21.28944444,-157.8155556,NA,NA,NA,NA,NA,0.299637094908018,1.30577131593646,0,0.778992226057078,0,0,0.392649365402326,1.3354187987567,0.107708366163857,0.107708366163857,0,0.109886043942149,0.89952995455656,0,0.551369517904002,0.191481539846856,0,0.880031899469733,0.405247612117472,1.33232365573641,4.04573038026668,0,10.8372120179204,1.57972270373656,27.095970487667,0.236634643355782,10.3133506777966,7.21073969022599,0.25327975757342,3.90287494851652
712.1,"MANOA 712.1","BEAUMONT MRS J","COOP","OA",61,21.31044568,-157.8147571,"USC00516122",NA,NA,NA,NA,4.3,0.8,3.8,0.5,2.8,2.8,2,2,2,3.8,0.5,0.5,4.3,3.3,1,2,0,0,3.6,3,8.1,0.5,2.5,15,26.4,9.1,46.5,16.3,7.6,2.8
713,"UNIV OF HAWAII 713","UH MET DEPT","COOP","OA",24,21.29933514,-157.8167017,"USC00518815",NA,NA,NA,NA,0.8,0.0908166990334137,0.280337140943418,0.5,0,0,0,0.5,0.3,0.3,0,0,1.8,0,0,0.8,0,0,0,2.3,7.9,0,12.4,6.6,34.3,0.3,42.4,9.48212943670628,1.50050625134966,2.10494440381443
715,"WAIALAE KAHALA","TINKER SPENCER","COOP","OA",15,21.27433592,-157.7880917,"USC00519185",NA,NA,NA,NA,1.5,0,0.3,0,0,0.3,0,0.3,0,0.3,0,0,0.8,0,0.8,0.5,0,0,0,0,0.3,0,0.5,19.8,0,12.2,0.8,3.3,0,1
716,"MANOA TUN 2 716","BWS","COOP","OA",198,21.32794416,-157.7914236,"USC00516130",NA,NA,NA,NA,32.1272959285918,6.32551678739858,2.67098652508751,8.4462475767008,1.43612837794909,1.36327678201511,2.54919808641049,0.235636754366914,4.683797039391,0.68550715728796,0,5.21495872631535,16.6588704813307,34.3382572550489,48.2145075683244,1.72230887650238,0.141382052620148,4.90124449083181,8.42484447088802,15.8492658284138,13.7308440960635,12.4155994108566,49.5734632110917,1.57751043056924,10.5157324663081,37.400333341228,16.3913788507857,26.9745344374188,3.83118358442229,8.31260305664147
717.2,"WAIKIKI 717.2","PURINTON J","COOP","OA",3,21.27183682,-157.8180917,"USC00519397",NA,NA,NA,NA,0,0,0,0,0,0,0.3,0,0,0,0,0,0.8,0,0,2.3,0.5,0,0,0,4.3,0,0.5,21.3,8.4,10.2,0.3,0.8,0,0.5
718,"PALOLO VALLEY 718","BWS","COOP","OA",302,21.32183297,-157.7717015,"USC00517664",NA,NA,NA,NA,21.3656639243081,5.65471526817594,1.70241431207202,6.35595799079097,0.830612932642749,3.31003012123447,3.20794579546719,1.86985235454384,4.17987114319232,0.39647647035266,0,5.43266101752078,11.8938741599338,52.1675918871374,38.4448037439056,1.67905144433072,0.0817710750327056,4.8309595320609,9.39045482265831,10.7427030523669,12.6168804920866,7.86372514531633,42.802981455502,0.912384007675455,13.8042335422355,47.7923196605973,11.8967621651431,30.2577724522904,3.42408377616915,9.48313482657264
720.6,"HONOLULU 2.7 SSE","CoCoRaHS","CoCoRaHS","OA",113,21.285,-157.7816,"US1HIHN0010",NA,NA,NA,NA,1.5,0,0,0,0,2,0.5,0,0,0,0,0,3,1.3,0,0.5,0,0,0,1.3,2,0,0,20.3,18.8,5.1,0.5,5.6,0,2.3
721,"WILHELMINA RISE 721","BWS","COOP","OA",335,21.29766804,-157.7853133,"USC00519980",NA,NA,NA,NA,3.6,3.6,0,2.5,1.3,0,0.5,0.3,0.5,0.3,0.8,0.5,3,0.3,0.5,0,0.3,2.3,2.3,0.5,8.9,0,17.3,0,32,1.5,1,10.9,1.5,3.6
721.4,"Palolo Fire Stn","NWS","HydroNet-UaNet","OA",59.436,21.2996006,-157.7944,"USC00517662","PFSH1","19014414",NA,NA,0.5,3.55599999999981,NA,3.04799999999977,0,0,0.254000000000133,0,NA,NA,0,0.508000000000038,NA,0,1.3,0,0,3.6,NA,NA,7.62000000000012,0,11.4,0,32.512,0.762,0.762,12.7,0,6.09599999999999
723.4,"PAIKO DRIVE 723.4","GRUBB DL","COOP","OA",3,21.28172556,-157.7282194,"USC00517540",NA,NA,NA,NA,0,0,0,0,0,0,0,0,0,0,0.5,1.8,0,5.3,0,0,0,0,0,0,0,0,3,11.9,0,0,0.8,0,1.3,0.8
723.8,"Niu Valley","NWS","HydroNet-UaNet","OA",19.812,21.2896996,-157.7332,"USC00516865","NIUH1","1900D38C",NA,NA,5.33400000000029,0,0,0.253999999999451,0,0.508000000000266,0.507999999999811,0,0,0,0.25400000000036,1.52399999999943,12.4459999999999,0,9.65200000000004,0,0,0,0,0.508000000000266,0,0,4.31799999999976,0,20.3200000000002,0.508000000000266,0.762000000000171,4.57199999999921,0.508000000000266,4.06399999999985
724.19,"HAWAII KAI GC 724.19","UNOAA-NWS","COOP","OA",9,21.29889,-157.66444,"USC00511308",NA,NA,NA,NA,0,0,0,0,1.5,0,0,0.3,0,0,0,0,0,0,0,0,0,1.3,0,0,0,0.5,0,0,14.7780997938165,0.259264908663117,0.51852981732693,1.29632454331744,0,3.3704438126247
724.21,"Kamehame","NWS","HydroNet-UaNet","OA",242.316,21.3085995,-157.6791,NA,"KMHH1","190046EE",NA,NA,1.77799999999979,0,0,0,0,0,0.508000000000266,0,0,0,0,0,0,0,1.01599999999985,0,0,0,0.508000000000038,0,0,0,0.254000000000133,0,14.4780000000001,0.253999999999678,0.508000000000038,1.27000000000021,0,3.30199999999991
728.2,"PALEHUA","RAWS","RAWS","OA",722.376,21.385,-158.1041667,NA,"PLHH1","4870F55E",NA,NA,0.75,0,0,0,0,0,0.76,0.5,0,0,0,0,17.27,0,0.25,1.02,2.53,0,0,3.56,0.25,0,25.91,0.25,16,0.5,0.25,6.85,1.02,1.27
734.5,"HONOULIULI STREAM TRIBUTARY NEAR WAIPAHU 4WNW","NWS","STATE","OA",195.72,21.4019,-158.067,NA,"HOUH1","DD7ED01C",NA,NA,0,0,0,0,0,0,0,0,0,0,0,0,0,0,0,0,0,0,0,0,0,0,0,0,0,0,0,0,0,0
740.5,"Kunia","NWS","HydroNet-UaNet","OA",85.0392,21.3869991,-158.0358,NA,"KUNH1",NA,NA,NA,0.142447070901578,0,0,0,0,0,0.219472857720074,0.855244818437244,0,0,0,0.0807973878385347,3.28008121929368,3.18233703669784,0.0474823569671927,0.193728016426146,1.2782856601287,0,0,1.28617588263607,1.80209799859265,0.303511029860825,20.5423676949626,0.0474823569671927,11.9339196355562,3.68000093793403,0.0474823569671927,5.95287370968917,0.884552523687923,1.08228786573473
741,"EWA PLANTATION 741","EWA PLANTATION","COOP","OA",12,21.3401713,-158.0339215,"USC00510507",NA,NA,NA,NA,NA,0,0,0,0,0,0,0,0,0,0,0,0,0,0,0,0.717510279065223,0,0,0,NA,NA,3.64274449371574,14.9485934132544,3.31158590337795,9.82437151335458,5.29853744540472,8.38935095522414,0,0.7271497819126
742.4,"HONOULIULI PHB","FWS","RAWS","OA",1.524,21.35666667,-158.0205556,NA,"HOFH1","327BF39A",NA,NA,0,0,0,0,0,0,0,0,0,0,0,0.25,0,9.14,0,0,1.52,0,0,0,0.25,0,22.83,0,18.55,0,0,6.36,0.25,0.25
750,"WAIPAHU 750","OAHU SUGAR","COOP","OA",18,21.38683459,-158.0072536,"USC00519738",NA,NA,NA,NA,NA,NA,0,0,0,0,NA,NA,NA,0,0,0,0,NA,NA,NA,1.3,0,0,0,NA,NA,3.3,14.7,3,8.9,4.8,7.6,NA,NA
752.6,"WAIAWA PHB","FWS","RAWS","OA",1.524,21.38694444,-157.9811111,NA,"WWFH1","3274C092",NA,NA,0,0,0,0,0,0,0.25,2.53,0,0,0,0,0,0.76,0,0,1.02,0,0,2.03,5.57,1.01,27.43,0,9.65,11.93,0,8.64,2.03,2.53
764.6,"AIEA HEIGHTS 764.6","G FOWLER","COOP","OA",238,21.39488776,-157.91031,"USC00510123",NA,NA,NA,NA,2.3,0.5,0,0.8,0.8,0,3.8,2,11.2,0.8,0,0,0.8,6.4,26.9,1,0,0,0.8,6.1,3.8,5.6,11.9,9.7,2.3,7.9,1.3,22.1,1.3,5.1
764.7,"AIEA 0.7 ENE","CoCoRaHS","CoCoRaHS","OA",175,21.393,-157.9186,"US1HIHN0014",NA,NA,NA,NA,0.8,0,0,0,0,0,4.3,3.8,9.7,0,0,0.5,0.3,3.8,26.7,0.8,0,0,0,5.3,5.8,8.4,18.5,0,18,5.8,0,18.8,1.3,4.1
770,"MOANALUA 770","ROXBURGH J","COOP","OA",6,21.34794527,-157.8950332,"USC00516395",NA,NA,NA,NA,0,0,0,0,0,0,2.5,2,3.3,0,0,0,0,0,1.3,0,0,0,0,2.4926073555356,5.2381172961169,4.8,3.3,13.2,19.1,13,0,12.4,1.3,2.5
771.11,"N.HalawaValleyRGattunnel","USGS","USGS","OA",335.28,21.40488889,-157.8504444,NA,"TNLH1","DD75A524",NA,NA,17.018,10.922,3.30199999999999,9.652,2.032,0.254000000000005,1.01600000000001,3.81,1.52399999999999,0.254000000000019,0,3.55599999999998,24.892,72.898,43.18,0.507999999999981,0,0.761999999999972,11.6840000000001,8.88999999999999,14.732,10.414,33.782,0.761999999999944,15.494,17.78,8.38200000000001,22.6059999999999,2.28600000000006,13.2079999999999
771.9,"NHalawaRainGagenrHonolulu","USGS","USGS","OA",210.312,21.382,-157.9033333,NA,NA,NA,NA,NA,2.000343959664,1.25821220526711,0.0506213652446691,1.4453635266371,0.328689070826618,0.809941843914706,2.15389745857287,1.87960865713066,5.36042790283088,0.471846488647468,0,0.776194267084926,5.85003546966281,24.3879071585217,14.7838003452618,0.451273815650855,0,0.784361377586532,2.99667292598379,2.70825830463045,4.53040378801449,2.09071049171747,11.8082910834215,2.2495712926957,4.94647553996108,10.2352717040477,1.43557674777134,12.8394046562766,1.90642412115347,3.61505467267244
772,"MoanaluaRaingagenrHonolulu","USGS","USGS","OA",103.058976,21.37823611,-157.8700306,NA,NA,NA,NA,NA,9.6212502923663,6.04429101332762,0.875992990008706,5.58358441620534,0.922931522630464,1.89091507348375,2.3255956963894,2.59969831539681,5.3962094701431,0.678075622617822,0.131699460918231,1.05481507155551,17.13173693478,55.1708409778439,29.4430083029144,0.489343624011957,0,2.13601248958764,8.60531572485376,5.3105170934012,8.55178006395381,4.64262751985242,29.5229263102909,0.404766783722355,10.3106621164249,20.5512128242913,5.88316074540849,18.0953149725651,3.48428979425089,7.84284734995331
772.1,"N.HalawaRaingagenrAiea","USGS","USGS","OA",97.536,21.39295833,-157.8908639,NA,NA,NA,NA,NA,3.365970494829,2.38063861149205,0.396242996808658,2.37866438586556,0.366783065426605,0.915224635208012,1.50169586131429,1.94709723563568,3.18997862891831,0.340474586380054,0,1.21886153490801,8.78574186460291,32.6609476446958,13.8346353092694,0.293188058412276,0,0.939558888627934,4.29108090287521,2.33708851581431,5.52535612611033,1.9437630408728,13.4173483325626,0.0786183088946396,6.4425037989042,11.0579944795642,2.10961309550961,10.799582458396,1.99748402789778,4.03247845380702
772.3,"MoanaluaRGNo.1atalt1000","USGS","USGS","OA",304.8,21.39338889,-157.8401111,NA,"MOGH1","1689664A",NA,NA,16.5734958574009,10.2143159036999,1.57701942725483,8.01847431686349,1.03482561528727,5.63889033529977,3.25109298617896,3.23743974824266,2.92147954974321,0.182558330020382,0.212820512438016,4.18015402925983,14.2459080095025,82.2998888361704,41.9587070380361,1.49038927107858,0,5.04018782726326,14.1965280308794,7.68484521166167,11.7602199042298,6.37554876127568,47.8021217234459,0.654085246280265,18.4088152989907,60.0111238269026,10.8410699862179,34.6679897661416,2.98724495576578,14.4956391479914
772.5,"Moanalua Stream","USGS","HydroNet-UaNet","OA",72.2376,21.3736,-157.8801,"USC00516400","MOAH1","1900B66A",NA,NA,2.03199999999993,1.77799999999979,0,2.79400000000032,0.508000000000038,0,2.53999999999974,3.04800000000023,8.1279999999997,1.0160000000003,0,0,17.5259999999998,44.45,18.288,0,0,0.507999999999811,4.82600000000025,2.7940000000001,7.61999999999989,2.03199999999993,16.002,0,6.85800000000017,0,1.26999999999998,10.6680000000001,4.31799999999976,3.30200000000013
772.6,"MoanaluaRaingagenrKaneohe","USGS","USGS","OA",350.52,21.38823333,-157.8486389,NA,NA,NA,NA,NA,25.2084597378842,8.46292569091851,3.39948523286132,4.17821077344445,5.27629341440165,5.63012048328434,3.29300156391435,0.440199619162869,6.08831735254037,0.982631649119822,0.195125419512598,1.94410937340324,12.1326530838639,100.932794233176,47.436377571311,11.3112464258725,0,2.66015164592362,9.6690332833469,7.3885010300244,8.32107493099514,9.13160090438544,34.1089948674194,4.49658225842215,13.7455992935919,52.1923994813097,20.7512399883281,33.5477726603773,3.87756141176419,8.71595570944388
773,"KAPALAMA 773","KAMEHAMEHA SCH","COOP","OA",188,21.33933391,-157.8567005,"USC00513268",NA,NA,NA,NA,0.948531272049667,0.307816195964439,0.86428540997068,1,0.5,0.3,2.08489930005436,1.63710838278752,4.44730889393613,0.5,0.3,0.3,4.1,1.61102557200277,7.35808534799657,0.621291702736604,0.5,0.3,1.3,5.1,6.44833246926064,3.57608487952364,10.2132452921804,11.4483576647922,25.0448472524977,5.8,3,14.8670324187599,2.64255387992684,3.04898075039845
775,"NUUANU RES 5 775","BWS","COOP","OA",125,21.339125,-157.835905,"USC00516933",NA,NA,NA,NA,5.3,3.8,0.3,2.8,0,4.8,3.3,3.3,2.8,0,0,4.6,4.3,61.5,20.1,1.3,0,3.8,8.6,3,8.9,1.3,26.9,0,14.7,49.8,4.6,27.9,2.3,8.9
777,"KALIHI RES SITE 777","BWS","COOP","OA",277,21.37516437,-157.8222555,"USC00512960",NA,NA,NA,NA,27.4,4.6,4.1,4.6,0.8,0.3,1,0,5.3,0.5,0,2.8,17.3,11.2,41.1,0.5,0,0,5.1,20.8,13.7,14.7,40.4,0.8,9.1,25.1,13.2,15,4.3,5.3
777.3,"Wilson Tunnel","NOAA-NWS","HydroNet-UaNet","OA",314.5536,21.3771,-157.8166,NA,"WITH1",NA,NA,NA,22.6736741582904,5.95014459594508,3.76998631858521,4.41977807062806,3.0129645457049,3.35514365414157,1.69472053453398,0.347642944549975,3.28461919393962,0.908373963430939,0.154098214634781,1.20346091885531,10.8442974651054,25.6087788717576,33.5141040135286,8.77263847079467,0,2.00327679025202,7.81540262870627,9.97510275676005,9.31995482378254,6.32277963209896,34.8997975309874,3.66534003225247,9.06960024608063,27.6696608503127,19.1017432499105,23.5217912652967,2.44459057365552,5.74996666888114
780.5,"TANTALUS 2 780.5","NEWMAN N","COOP","OA",404,21.32711168,-157.8239234,"USC00518738",NA,NA,NA,NA,10.6876951283367,1.97448790048767,1.74357124796762,3.90264250530623,1.14667882596258,0.695950424076678,3.94347150731664,1.61398630156844,9.09399932270937,0.812622622405777,0,2.06001325526697,4.12534664101076,20.921073766115,33.3374473424167,1.57253861726856,0.0835140508892013,2.89515376415898,3.70777638656476,6.27976154673325,5.9199707116944,6.10592861128644,23.334320361365,7.79303604140308,4.59116941342504,18.7701229440009,5.83027050942626,25.0825771511592,4.47883573806044,5.73664437482366
781,"KANEOHE MAUKA 781","STATE HOSPITAL","COOP","OA",61,21.40849568,-157.8105878,"USC00513113",NA,NA,NA,NA,14.1735171841204,6.69595739996737,1.03609044069387,3.27634613344475,0.871148962237321,1.13279726313011,2.16527153907532,0.447896771679065,3.99147179609251,0.729351579814331,0,2.30810490039214,7.17505190860322,13.9616853912875,58.8080208918135,13.4305057278429,0.161790471452881,1.9012198364752,3.5532373278432,6.43321142129689,6.39574625684697,7.16892667025602,19.942804409908,1.96659451093669,4.07911076409459,16.3259051421233,22.8282355818857,21.5148221750324,1.59308488617575,5.04261374163428
781.11,"LulukuRaingageatalt","USGS","USGS","OA",67.056,21.39184444,-157.809475,NA,NA,NA,NA,NA,11.3603494558002,4.58611581195364,0.701943655985822,3.21108663204633,1.63392133567707,1.76068467170302,1.54578341408171,0.707147281724689,2.87414182032316,0.136225830606076,0.0890826784917311,2.46830433187559,9.77200547440624,65.4408828724541,22.3847212452008,0.344506327143693,0,0.224836130649313,3.52579580291082,5.13385340506836,4.28670699783424,9.93943413126832,10.2089143246699,0.224836130649905,11.2726839126546,44.2611947078479,4.27187901953578,13.5032697063366,2.37102189897702,5.95625761927325
781.13,"KANEOHE 0.8 SW, HI US","CoCoRaHs","CoCoRaHs","OA",20,21.4039,-157.8017,"US1HIHN0027",NA,NA,NA,NA,7.9,3.3,NA,3.3,2.5,0.5,0.8,0,1.8,0,0,0,2.8,14.5,4.6,19.1,0.8,0,1.8,0.8,17.5,3.8,2,4.3,3.8,4.1,22.9,7.6,0,1.3
781.7,"LULUKU 781.7","NWS","COOP","OA",84,21.3873,-157.8098,"USC00515655",NA,NA,NA,NA,NA,NA,NA,NA,0.3,NA,NA,NA,NA,NA,0.3,NA,NA,8.6,0,0,0,NA,NA,NA,NA,NA,NA,NA,NA,39.1,NA,NA,NA,NA
782.3,"Nuuanu Upper","NWS","HydroNet-UaNet","OA",248.412,21.3502007,-157.8184,"USC00516938","NUUH1","156097FE",NA,NA,20.5740000000001,11.684,1.01600000000008,8.63599999999997,1.01599999999985,7.11200000000008,2.79399999999987,0.762000000000171,2.28600000000006,0.253999999999905,0.508000000000038,1.52399999999989,10.6680000000001,65.278,43.4339999999997,1.52400000000011,0,6.60400000000004,14.4779999999998,8.12800000000038,6.09599999999978,6.09599999999978,55.3720000000003,1.01600000000008,13.97,66.5479999999998,13.9700000000003,30.7339999999997,2.53999999999996,13.7160000000001
783,"NUUANU RES 4 783","BWS","COOP","OA",320,21.35266525,-157.807534,"USC00516928",NA,NA,NA,NA,17.1580271151277,7.54138652019561,0.561745587681335,7.07371281623871,0.8240473231198,5.24247472493358,3.42589399658521,1.8713272797752,2.76516841160595,0.27615777785212,0.178203837985971,4.33782166617563,8.64954385022777,64.2218596638269,35.6345512218293,1.82190283144103,0.0701459470721907,6.46080761105796,11.5730943928946,5.69962792502087,8.76792303076352,4.3843986499678,43.7752079425238,0.894193270192071,13.956737977006,56.6591907021254,11.0653959149288,32.1458102757913,2.51204047774991,11.324070688766
784,"PAUOA FLATS 784","BWS","COOP","OA",549,21.33516641,-157.8105899,"USC00517810",NA,NA,NA,NA,32.3,7.4,0.3,11.9,2,2.5,4.1,0.5,3,0.8,0,7.4,12.7,58.2,48.5,3,0.3,10.4,11.2,6.4,11.2,7.1,52.3,2.3,10.4,46.5,17.5,37.6,2.5,10.7
785.11,"WAIHI STREAM NEAR HONOLULU 3NE","USGS","USGS","OA",108,21.3283,-157.801,NA,"WISH1","16EA459A",NA,NA,0,0,0,0,0,0,0,0,0,0,0,0,0,0,1.016,0,0,0,0,0,0,0,0,0,0,1.016,0,0.254,0,0
785.4,"Manoa Lyon Arbo","NWS","HydroNet-UaNet","OA",151.7904,21.3330002,-157.8024,"USC00516128","MNLH1",NA,NA,NA,39.4,5.1,10.2,2.5,10.7,4.8,2.5,0.5,5.1,3,0,0,13,12.2,40.6,35.1,0,0,8.9,8.6,16.5,2.5,31.8,13.5,10.4,3.6,48.8,43.9,2.3,0.8
787.1,"MAUNAWILI 787.1","HSPA","COOP","OA",127,21.351,-157.7668,"USC00516222",NA,NA,NA,NA,10.6682390907594,5.3,0.301076572256141,3.1248016041178,0.457953666556056,3.84649952429788,0,0.168757689995414,2.71892939583846,0,0,1.88159490515458,6.00322915167016,40.6,4.1,0,0,1.3,4.36529738839769,6.2564644087093,6.96059915132811,8.18674323082361,15.6264032201849,0.319136509906839,9.7428811330791,49.5613821979579,17.5,15.4151168008699,1,6.03034454318872
787.2,"Maunawili","NWS","HydroNet-UaNet","OA",127.1016,21.3509998,-157.7668,NA,"MAUH1","19007374",NA,NA,8.63600000000042,5.07999999999993,0.253999999999905,4.57200000000012,1.27000000000044,0.507999999999811,0.762000000000626,0,3.55599999999959,0,0,9.39800000000014,10.9220000000005,40.3859999999986,4.31800000000112,0,0,0,3.55599999999959,4.06400000000031,5.07999999999993,5.33399999999892,7.36600000000089,0,7.36599999999908,103.378000000002,7.61999999999898,10.1600000000008,1.01599999999871,2.03200000000106
788,"ST STEPHENS SEMINARY","ST STEPHEN SEMIN","COOP","OA",143,21.3666,-157.7785,"USC00518601",NA,NA,NA,NA,5.1,0.5,0.83130060731275,3.44890462833626,0.3,3,0,0,0.3,0.3,0.3,2.18062339636233,6.55402803156482,16.7226694135364,9.79557399792651,0,0,1,2.68069273195454,6.3230521237187,4.5408779296465,6.59052739125592,15.3901278414624,0.450055348032793,6.74132880898509,29.0992180458391,9.23004698942898,8.73492647006956,1.40690340756104,4.3
788.1,"PALI GOLF COURSE 788.1","C&C PARKS & RECR","COOP","OA",146,21.37183016,-157.7839226,"USC00517656",NA,NA,NA,NA,NA,NA,0,1.3,4.6,1.3,4.35650280619022,0,0,0.3,0,0,0.871300561238045,NA,NA,1.74260112247609,0.3,0,0,1.3,10.1070865103613,NA,NA,4.1,2,6.1,43.7,11.152647183847,1.74260112247609,8.01596516339001
788.2,"St Stephens Seminary","NWS","HydroNet-UaNet","OA",142.9512,21.3666992,-157.7786,NA,"STVH1","19005598",NA,NA,12.4459999999981,2.54000000000087,0.253999999998996,3.81000000000131,0.254000000000815,2.03199999999924,1.01599999999962,0,0.254000000000815,0.253999999998996,0.254000000000815,2.53999999999905,6.60400000000118,8.88999999999942,4.82600000000093,0,0,0,1.0159999999978,6.60400000000118,2.28600000000006,11.1759999999995,4.57200000000012,0,13.7160000000003,67.5640000000003,5.84200000000055,3.80999999999949,1.27000000000044,3.80999999999949
790.11,"Olomana Fire Stn","NWS","HydroNet-UaNet","OA",45.1104,21.3777008,-157.7507,"USC00517052","OFSH1","19011468",NA,NA,5.84199999999964,0.25400000000036,0.253999999999905,4.06399999999985,0,0.762000000000171,0,0,0,0.253999999999451,0.254000000000815,1.01599999999962,3.55599999999959,26.1620000000003,0.25400000000036,0,0,0,1.52399999999989,6.09599999999955,0,6.09600000000046,4.82600000000002,0,4.57200000000012,24.1299999999997,1.01599999999962,0.762000000000171,0.25400000000036,1.77799999999979
793.1,"WAIMANALO EXPERIMENTAL FARM","CoCoRaHS","CoCoRaHS","OA",38,21.3727,-157.725,"US1HIHN0022",NA,NA,NA,NA,0.5,0,0.5,0,0,0,0.5,0,0.3,0,0,0,2.5,1,0,1.3,0,0,2,1,3.3,0,1.8,0.5,7.9,1,13.2,0.5,0,0.3
793.2,"BELLOWS AFS AT WAIMANALO","NWS","STATE","OA",6.66,21.3667,-157.717,NA,"BELH1","B14036D2",NA,NA,0.254000000000019,0.761999999999972,0,0.762000000000029,0,0.253999999999991,0,0,0,0,0,0.761999999999972,0.762000000000029,0,0.254000000000019,0,0,0,2.28599999999997,2.79400000000001,0.253999999999991,1.01600000000002,0.507999999999981,0,5.07999999999998,2.286,1.01600000000002,0,0.253999999999991,0.507999999999981
795.1,"WAIMANALO EXP F 795.1","HAES","COOP","OA",18,21.33516407,-157.7105906,"USC00519523",NA,NA,NA,NA,4.3,0,1,0.5,0,0,0,0,0,0,0,0,0,0,0,0,0,0,1.8,0,0,0,3,0,NA,0,NA,1.5,0.8,0
